--- 
geonamesid: 7626844
iso: BQ
name: "Bonaire, Saint Eustatius and Saba "
names_en: ~
names_es: ~
regions: 
  - 
    ascii_name: Bonaire
    cities: 
      - 
        alternate_names: 
          - Kralendijk
          - Playa
        ascii_name: Kralendijk
        geonamesid: 3513563
        latitude: 12.15
        longitude: -68.26667
        name: Kralendijk
        names_en: ~
        names_es: ~
        population: 3081
        timezone: America/Curacao
      - 
        alternate_names: 
          - "Dorp Tera Cora"
          - "Dorp Tera Corá"
          - "Dorp Tera Kora"
          - "Terra Corra"
        ascii_name: "Dorp Tera Kora"
        geonamesid: 3513760
        latitude: 12.13333
        longitude: -68.26667
        name: "Dorp Tera Kora"
        names_en: ~
        names_es: ~
        population: 1186
        timezone: America/Curacao
      - 
        alternate_names: 
          - "Dorp Rincan"
          - "Dorp Rincon"
          - "Dorp Rincón"
          - Rincon
        ascii_name: "Dorp Rincon"
        geonamesid: 3513765
        latitude: 12.23333
        longitude: -68.33333
        name: "Dorp Rincón"
        names_en: ~
        names_es: ~
        population: 1496
        timezone: America/Curacao
      - 
        alternate_names: 
          - Deenterra
          - Dentera
          - "Dorp Antriol"
          - Entrejol
        ascii_name: "Dorp Antriol"
        geonamesid: 3513768
        latitude: 12.16667
        longitude: -68.26667
        name: "Dorp Antriol"
        names_en: ~
        names_es: ~
        population: 2980
        timezone: America/Curacao
    geonamesid: 7609816
    name: Bonaire
    names_en: ~
    names_es: ~
  - 
    ascii_name: Saba
    cities: 
      - 
        alternate_names: 
          - Hellsgate
        ascii_name: "Upper Hell's Gate"
        geonamesid: 3513146
        latitude: 17.643
        longitude: -63.22649
        name: "Upper Hell's Gate"
        names_en: ~
        names_es: ~
        population: 2810
        timezone: America/Curacao
      - 
        alternate_names: 
          - Bottom
          - "Leverock Town"
        ascii_name: "The Bottom"
        geonamesid: 3513173
        latitude: 17.6259
        longitude: -63.24919
        name: "The Bottom"
        names_en: ~
        names_es: ~
        population: 488
        timezone: America/Curacao
    geonamesid: 7610358
    name: Saba
    names_en: ~
    names_es: ~
  - 
    ascii_name: "Sint Eustatius"
    cities: 
      - 
        alternate_names: 
          - "Orange Town"
          - Oranjestad
        ascii_name: Oranjestad
        geonamesid: 3513426
        latitude: 17.48268
        longitude: -62.98324
        name: Oranjestad
        names_en: ~
        names_es: ~
        population: 1097
        timezone: America/Curacao
    geonamesid: 7610359
    name: "Sint Eustatius"
    names_en: ~
    names_es: ~
