--- 
geonamesid: 3277605
iso: BA
name: "Bosnia and Herzegovina"
names_en: 
  - "Bosnia and Herzegovina"
names_es: 
  - Bosnia-Herzegovina
  - "Bosnia y Herzegovina"
regions: 
  - 
    ascii_name: "Federation of Bosnia and Herzegovina"
    cities: 
      - 
        alternate_names: ~
        ascii_name: Zivinice
        geonamesid: 3186423
        latitude: 44.44944
        longitude: 18.64972
        name: Živinice
        names_en: ~
        names_es: ~
        population: 13641
        timezone: Europe/Sarajevo
      - 
        alternate_names: ~
        ascii_name: Zepce
        geonamesid: 3186567
        latitude: 44.42667
        longitude: 18.03778
        name: Žepče
        names_en: ~
        names_es: ~
        population: 8502
        timezone: Europe/Sarajevo
      - 
        alternate_names: 
          - Zenica
          - Зеница
        ascii_name: Zenica
        geonamesid: 3186573
        latitude: 44.20139
        longitude: 17.90639
        name: Zenica
        names_en: 
          - Zenica
        names_es: ~
        population: 164423
        timezone: Europe/Sarajevo
      - 
        alternate_names: 
          - Zavidovici
          - Zavidovići
        ascii_name: Zavidovici
        geonamesid: 3186717
        latitude: 44.44583
        longitude: 18.14972
        name: Zavidovići
        names_en: ~
        names_es: ~
        population: 14380
        timezone: Europe/Sarajevo
      - 
        alternate_names: ~
        ascii_name: Zabrisce
        geonamesid: 3186961
        latitude: 43.7925
        longitude: 16.94222
        name: Zabrišće
        names_en: ~
        names_es: ~
        population: 4261
        timezone: Europe/Sarajevo
      - 
        alternate_names: 
          - "Donje Vukovije"
          - "Vukovije Donje"
          - "Vukovje Donje"
        ascii_name: "Vukovije Donje"
        geonamesid: 3187040
        latitude: 44.46361
        longitude: 18.75389
        name: "Vukovije Donje"
        names_en: ~
        names_es: ~
        population: 3535
        timezone: Europe/Sarajevo
      - 
        alternate_names: ~
        ascii_name: Vrnograc
        geonamesid: 3187162
        latitude: 45.16361
        longitude: 15.95361
        name: Vrnograč
        names_en: ~
        names_es: ~
        population: 6860
        timezone: Europe/Sarajevo
      - 
        alternate_names: ~
        ascii_name: Voljevac
        geonamesid: 3187419
        latitude: 43.87861
        longitude: 17.65917
        name: Voljevac
        names_en: ~
        names_es: ~
        population: 3764
        timezone: Europe/Sarajevo
      - 
        alternate_names: 
          - "Gornja Vogosca"
          - "Gornja Vogošća"
          - Vogosca
          - Vogošća
        ascii_name: Vogosca
        geonamesid: 3187464
        latitude: 43.90194
        longitude: 18.34806
        name: Vogošća
        names_en: ~
        names_es: ~
        population: 8180
        timezone: Europe/Sarajevo
      - 
        alternate_names: ~
        ascii_name: Vitina
        geonamesid: 3187588
        latitude: 43.2375
        longitude: 17.48389
        name: Vitina
        names_en: ~
        names_es: ~
        population: 4384
        timezone: Europe/Sarajevo
      - 
        alternate_names: ~
        ascii_name: Vitez
        geonamesid: 3187590
        latitude: 44.15444
        longitude: 17.79028
        name: Vitez
        names_en: ~
        names_es: ~
        population: 8140
        timezone: Europe/Sarajevo
      - 
        alternate_names: 
          - Visokas
          - Visoko
          - bisoko
          - Високо
        ascii_name: Visoko
        geonamesid: 3187609
        latitude: 43.98889
        longitude: 18.17806
        name: Visoko
        names_en: 
          - Visoko
        names_es: 
          - Visoko
        population: 17890
        timezone: Europe/Sarajevo
      - 
        alternate_names: 
          - Vidosi
          - Vidoši
        ascii_name: Vidosi
        geonamesid: 3187799
        latitude: 43.77139
        longitude: 17.02833
        name: Vidoši
        names_en: ~
        names_es: ~
        population: 3905
        timezone: Europe/Sarajevo
      - 
        alternate_names: 
          - "Velika Kladusa"
          - "Velika Kladusha"
          - "Velika Kladuša"
          - "Велика Кладуша"
        ascii_name: "Velika Kladusa"
        geonamesid: 3188225
        latitude: 45.18944
        longitude: 15.81167
        name: "Velika Kladuša"
        names_en: 
          - "Velika Kladuša"
        names_es: ~
        population: 19330
        timezone: Europe/Sarajevo
      - 
        alternate_names: 
          - Vares
          - "Vares Grad"
          - Vareš
          - "Vareš Grad"
        ascii_name: Vares
        geonamesid: 3188366
        latitude: 44.16444
        longitude: 18.32833
        name: Vareš
        names_en: ~
        names_es: ~
        population: 7193
        timezone: Europe/Sarajevo
      - 
        alternate_names: ~
        ascii_name: Ustikolina
        geonamesid: 3188458
        latitude: 43.58361
        longitude: 18.79
        name: Ustikolina
        names_en: ~
        names_es: ~
        population: 4446
        timezone: Europe/Sarajevo
      - 
        alternate_names: 
          - "Donja Tuzla"
          - Soli
          - Tuzla
          - Тузла
        ascii_name: Tuzla
        geonamesid: 3188582
        latitude: 44.54278
        longitude: 18.66944
        name: Tuzla
        names_en: 
          - Tuzla
        names_es: ~
        population: 142486
        timezone: Europe/Sarajevo
      - 
        alternate_names: ~
        ascii_name: Turbe
        geonamesid: 3188633
        latitude: 44.24361
        longitude: 17.57139
        name: Turbe
        names_en: ~
        names_es: ~
        population: 4767
        timezone: Europe/Sarajevo
      - 
        alternate_names: ~
        ascii_name: "Trzacka Rastela"
        geonamesid: 3188691
        latitude: 44.97333
        longitude: 15.79028
        name: "Tržačka Raštela"
        names_en: ~
        names_es: ~
        population: 6617
        timezone: Europe/Sarajevo
      - 
        alternate_names: 
          - Traunik
          - Travnik
          - travnik
          - Травник
        ascii_name: Travnik
        geonamesid: 3188924
        latitude: 44.22667
        longitude: 17.67056
        name: Travnik
        names_en: 
          - Travnik
        names_es: 
          - Travnik
        population: 31127
        timezone: Europe/Sarajevo
      - 
        alternate_names: ~
        ascii_name: Tojsici
        geonamesid: 3189046
        latitude: 44.50111
        longitude: 18.78556
        name: Tojšići
        names_en: ~
        names_es: ~
        population: 6587
        timezone: Europe/Sarajevo
      - 
        alternate_names: ~
        ascii_name: Tesanj
        geonamesid: 3189146
        latitude: 44.61167
        longitude: 17.98722
        name: Tešanj
        names_en: ~
        names_es: ~
        population: 7550
        timezone: Europe/Sarajevo
      - 
        alternate_names: 
          - Stolac
        ascii_name: Stolac
        geonamesid: 3189823
        latitude: 43.08444
        longitude: 17.9575
        name: Stolac
        names_en: ~
        names_es: ~
        population: 7733
        timezone: Europe/Sarajevo
      - 
        alternate_names: 
          - Srebrenik
          - Srebrnica
          - Srebrnik
          - Сребреник
        ascii_name: Srebrenik
        geonamesid: 3190158
        latitude: 44.70778
        longitude: 18.48806
        name: Srebrenik
        names_en: ~
        names_es: ~
        population: 6723
        timezone: Europe/Sarajevo
      - 
        alternate_names: 
          - Bosna-Sarai
          - Saraeva
          - Saraevo
          - Saragebo
        ascii_name: Sarajevo
        geonamesid: 3191281
        latitude: 43.84864
        longitude: 18.35644
        name: Sarajevo
        names_en: 
          - Sarajevo
        names_es: 
          - Sarajevo
        population: 696731
        timezone: Europe/Sarajevo
      - 
        alternate_names: 
          - Sana
          - "Sanski Most"
          - "Сански Мост"
        ascii_name: "Sanski Most"
        geonamesid: 3191297
        latitude: 44.76528
        longitude: 16.66556
        name: "Sanski Most"
        names_en: 
          - "Sanski Most"
        names_es: ~
        population: 13551
        timezone: Europe/Sarajevo
      - 
        alternate_names: 
          - "Pravoslavna Sanica"
        ascii_name: Sanica
        geonamesid: 3191302
        latitude: 44.61417
        longitude: 16.64111
        name: Sanica
        names_en: ~
        names_es: ~
        population: 5666
        timezone: Europe/Sarajevo
      - 
        alternate_names: ~
        ascii_name: Rumboci
        geonamesid: 3191426
        latitude: 43.83222
        longitude: 17.50111
        name: Rumboci
        names_en: ~
        names_es: ~
        population: 3854
        timezone: Europe/Sarajevo
      - 
        alternate_names: ~
        ascii_name: Puracic
        geonamesid: 3192206
        latitude: 44.54694
        longitude: 18.47667
        name: Puračić
        names_en: ~
        names_es: ~
        population: 3461
        timezone: Europe/Sarajevo
      - 
        alternate_names: 
          - "Novi Travnik"
          - Pucarevo
        ascii_name: "Novi Travnik"
        geonamesid: 3192236
        latitude: 44.17111
        longitude: 17.6575
        name: "Novi Travnik"
        names_en: ~
        names_es: ~
        population: 10006
        timezone: Europe/Sarajevo
      - 
        alternate_names: ~
        ascii_name: Prozor
        geonamesid: 3192279
        latitude: 43.82222
        longitude: 17.60917
        name: Prozor
        names_en: ~
        names_es: ~
        population: 10349
        timezone: Europe/Sarajevo
      - 
        alternate_names: 
          - "Donje Bjela"
          - Polje
          - Polje-Bijela
        ascii_name: Polje-Bijela
        geonamesid: 3192793
        latitude: 43.63333
        longitude: 17.97222
        name: Polje-Bijela
        names_en: ~
        names_es: ~
        population: 1078
        timezone: Europe/Sarajevo
      - 
        alternate_names: ~
        ascii_name: Podhum
        geonamesid: 3193008
        latitude: 43.72306
        longitude: 17.00111
        name: Podhum
        names_en: ~
        names_es: ~
        population: 5801
        timezone: Europe/Sarajevo
      - 
        alternate_names: ~
        ascii_name: Pecigrad
        geonamesid: 3193542
        latitude: 45.05444
        longitude: 15.89694
        name: Pećigrad
        names_en: ~
        names_es: ~
        population: 6514
        timezone: Europe/Sarajevo
      - 
        alternate_names: ~
        ascii_name: Pazaric
        geonamesid: 3193563
        latitude: 43.78861
        longitude: 18.16083
        name: Pazarić
        names_en: ~
        names_es: ~
        population: 4787
        timezone: Europe/Sarajevo
      - 
        alternate_names: ~
        ascii_name: Otoka
        geonamesid: 3193776
        latitude: 44.96
        longitude: 16.17917
        name: Otoka
        names_en: ~
        names_es: ~
        population: 6595
        timezone: Europe/Sarajevo
      - 
        alternate_names: 
          - Ostrazac
          - Ostražac
          - Ostrozac
          - Ostrožac
        ascii_name: Ostrozac
        geonamesid: 3193821
        latitude: 44.90861
        longitude: 15.94028
        name: Ostrožac
        names_en: ~
        names_es: ~
        population: 5456
        timezone: Europe/Sarajevo
      - 
        alternate_names: ~
        ascii_name: Orguz
        geonamesid: 3194013
        latitude: 43.77389
        longitude: 16.86389
        name: Orguz
        names_en: ~
        names_es: ~
        population: 4371
        timezone: Europe/Sarajevo
      - 
        alternate_names: ~
        ascii_name: Orasje
        geonamesid: 3194035
        latitude: 45.03556
        longitude: 18.69333
        name: Orašje
        names_en: ~
        names_es: ~
        population: 3613
        timezone: Europe/Sarajevo
      - 
        alternate_names: 
          - "Donja Orahovica"
        ascii_name: "Orahovica Donja"
        geonamesid: 3194061
        latitude: 44.65306
        longitude: 18.37028
        name: "Orahovica Donja"
        names_en: ~
        names_es: ~
        population: 5612
        timezone: Europe/Sarajevo
      - 
        alternate_names: ~
        ascii_name: Olovo
        geonamesid: 3194133
        latitude: 44.13
        longitude: 18.58278
        name: Olovo
        names_en: ~
        names_es: ~
        population: 3305
        timezone: Europe/Sarajevo
      - 
        alternate_names: 
          - Vukosavlje
        ascii_name: Odzak
        geonamesid: 3194199
        latitude: 45.01111
        longitude: 18.32667
        name: Odžak
        names_en: ~
        names_es: ~
        population: 11621
        timezone: Europe/Sarajevo
      - 
        alternate_names: ~
        ascii_name: "Novi Seher"
        geonamesid: 3194358
        latitude: 44.51028
        longitude: 18.02583
        name: "Novi Šeher"
        names_en: ~
        names_es: ~
        population: 4416
        timezone: Europe/Sarajevo
      - 
        alternate_names: 
          - Neum
          - ne-um
          - neumu
          - Неум
        ascii_name: Neum
        geonamesid: 3194514
        latitude: 42.92333
        longitude: 17.61556
        name: Neum
        names_en: 
          - Neum
        names_es: 
          - Neum
        population: 4200
        timezone: Europe/Sarajevo
      - 
        alternate_names: ~
        ascii_name: Mramor
        geonamesid: 3194773
        latitude: 44.59167
        longitude: 18.56444
        name: Mramor
        names_en: ~
        names_es: ~
        population: 3918
        timezone: Europe/Sarajevo
      - 
        alternate_names: 
          - Mostar
          - Mostara
          - mosutaru
          - Мостар
        ascii_name: Mostar
        geonamesid: 3194828
        latitude: 43.34333
        longitude: 17.80806
        name: Mostar
        names_en: 
          - Mostar
        names_es: 
          - Mostar
        population: 104518
        timezone: Europe/Sarajevo
      - 
        alternate_names: ~
        ascii_name: Mahala
        geonamesid: 3195930
        latitude: 44.01194
        longitude: 18.25528
        name: Mahala
        names_en: ~
        names_es: ~
        population: 5062
        timezone: Europe/Sarajevo
      - 
        alternate_names: 
          - Maglaj
          - Маглај
        ascii_name: Maglaj
        geonamesid: 3195946
        latitude: 44.54917
        longitude: 18.09667
        name: Maglaj
        names_en: 
          - Maglaj
        names_es: ~
        population: 7399
        timezone: Europe/Sarajevo
      - 
        alternate_names: 
          - Lokrine
          - Lokvine
        ascii_name: Lokvine
        geonamesid: 3196243
        latitude: 44.20472
        longitude: 17.85639
        name: Lokvine
        names_en: ~
        names_es: ~
        population: 3928
        timezone: Europe/Sarajevo
      - 
        alternate_names: 
          - Ljubuski
          - Ljubuški
        ascii_name: Ljubuski
        geonamesid: 3196324
        latitude: 43.19694
        longitude: 17.545
        name: Ljubuški
        names_en: ~
        names_es: ~
        population: 9987
        timezone: Europe/Sarajevo
      - 
        alternate_names: 
          - Livno
          - livno
          - Ливно
        ascii_name: Livno
        geonamesid: 3196410
        latitude: 43.82694
        longitude: 17.00778
        name: Livno
        names_en: 
          - Livno
        names_es: 
          - Livno
        population: 11748
        timezone: Europe/Sarajevo
      - 
        alternate_names: 
          - Listica
          - Lištica
          - "Siroki Brijeg"
          - "Široki Brijeg"
        ascii_name: "Siroki Brijeg"
        geonamesid: 3196428
        latitude: 43.38333
        longitude: 17.59278
        name: "Široki Brijeg"
        names_en: ~
        names_es: ~
        population: 9370
        timezone: Europe/Sarajevo
      - 
        alternate_names: ~
        ascii_name: Kocerin
        geonamesid: 3197944
        latitude: 43.38972
        longitude: 17.485
        name: Kočerin
        names_en: ~
        names_es: ~
        population: 3516
        timezone: Europe/Sarajevo
      - 
        alternate_names: 
          - "Kobilja Glava"
        ascii_name: "Kobilja Glava"
        geonamesid: 3197964
        latitude: 43.88194
        longitude: 18.38917
        name: "Kobilja Glava"
        names_en: ~
        names_es: ~
        population: 3666
        timezone: Europe/Sarajevo
      - 
        alternate_names: ~
        ascii_name: Kljuc
        geonamesid: 3198050
        latitude: 44.535
        longitude: 16.77222
        name: Ključ
        names_en: ~
        names_es: ~
        population: 7245
        timezone: Europe/Sarajevo
      - 
        alternate_names: ~
        ascii_name: Kladanj
        geonamesid: 3198126
        latitude: 44.22639
        longitude: 18.69139
        name: Kladanj
        names_en: ~
        names_es: ~
        population: 6783
        timezone: Europe/Sarajevo
      - 
        alternate_names: ~
        ascii_name: Kiseljak
        geonamesid: 3198137
        latitude: 44.48889
        longitude: 18.56889
        name: Kiseljak
        names_en: ~
        names_es: ~
        population: 3447
        timezone: Europe/Sarajevo
      - 
        alternate_names: 
          - Kiseljak
        ascii_name: Kiseljak
        geonamesid: 3198138
        latitude: 43.9425
        longitude: 18.07667
        name: Kiseljak
        names_en: ~
        names_es: ~
        population: 8475
        timezone: Europe/Sarajevo
      - 
        alternate_names: ~
        ascii_name: Karadaglije
        geonamesid: 3198293
        latitude: 44.57167
        longitude: 18.01833
        name: Karadaglije
        names_en: ~
        names_es: ~
        population: 3700
        timezone: Europe/Sarajevo
      - 
        alternate_names: 
          - Kakanj
        ascii_name: Kakanj
        geonamesid: 3198490
        latitude: 44.12722
        longitude: 18.11806
        name: Kakanj
        names_en: ~
        names_es: ~
        population: 12406
        timezone: Europe/Sarajevo
      - 
        alternate_names: 
          - Jajca
          - Jajce
          - Јајце
        ascii_name: Jajce
        geonamesid: 3198934
        latitude: 44.34222
        longitude: 17.26556
        name: Jajce
        names_en: 
          - Jajce
        names_es: 
          - Jajce
        population: 9763
        timezone: Europe/Sarajevo
      - 
        alternate_names: 
          - Izacic
          - "Izacic Grad"
          - Izačić
          - "Izačić Grad"
        ascii_name: Izacic
        geonamesid: 3199027
        latitude: 44.875
        longitude: 15.78194
        name: Izačić
        names_en: ~
        names_es: ~
        population: 4089
        timezone: Europe/Sarajevo
      - 
        alternate_names: 
          - Ilias
          - Iliaš
          - Ilijas
          - Ilijaš
        ascii_name: Ilijas
        geonamesid: 3199142
        latitude: 43.95083
        longitude: 18.27083
        name: Ilijaš
        names_en: ~
        names_es: ~
        population: 5855
        timezone: Europe/Sarajevo
      - 
        alternate_names: 
          - Hadzici
          - Hadžići
        ascii_name: Hadzici
        geonamesid: 3199438
        latitude: 43.82222
        longitude: 18.20667
        name: Hadžići
        names_en: ~
        names_es: ~
        population: 7173
        timezone: Europe/Sarajevo
      - 
        alternate_names: ~
        ascii_name: Gromiljak
        geonamesid: 3199525
        latitude: 43.96667
        longitude: 18.05306
        name: Gromiljak
        names_en: ~
        names_es: ~
        population: 6457
        timezone: Europe/Sarajevo
      - 
        alternate_names: ~
        ascii_name: Gradacac
        geonamesid: 3199744
        latitude: 44.88083
        longitude: 18.42694
        name: Gradačac
        names_en: ~
        names_es: ~
        population: 15659
        timezone: Europe/Sarajevo
      - 
        alternate_names: ~
        ascii_name: Gracanica
        geonamesid: 3199779
        latitude: 44.70333
        longitude: 18.30972
        name: Gračanica
        names_en: ~
        names_es: ~
        population: 15758
        timezone: Europe/Sarajevo
      - 
        alternate_names: ~
        ascii_name: Gracanica
        geonamesid: 3199784
        latitude: 43.73333
        longitude: 18.28333
        name: Gračanica
        names_en: ~
        names_es: ~
        population: 3871
        timezone: Europe/Sarajevo
      - 
        alternate_names: 
          - "Gornji Vakuf"
          - Uskoplje
          - "Vakuf Gornji"
        ascii_name: "Gornji Vakuf"
        geonamesid: 3199904
        latitude: 43.93806
        longitude: 17.58833
        name: "Gornji Vakuf"
        names_en: ~
        names_es: ~
        population: 7014
        timezone: Europe/Sarajevo
      - 
        alternate_names: 
          - "Gornje Mostre"
          - "Gornje Moštre"
          - "Mostre Gornje"
          - "Moštre Gornje"
        ascii_name: "Gornje Mostre"
        geonamesid: 3200108
        latitude: 44.01889
        longitude: 18.15333
        name: "Gornje Moštre"
        names_en: ~
        names_es: ~
        population: 4009
        timezone: Europe/Sarajevo
      - 
        alternate_names: ~
        ascii_name: "Gornja Tuzla"
        geonamesid: 3200167
        latitude: 44.55611
        longitude: 18.76139
        name: "Gornja Tuzla"
        names_en: ~
        names_es: ~
        population: 4864
        timezone: Europe/Sarajevo
      - 
        alternate_names: 
          - Gorazde
          - Gorazhde
          - Goražde
          - Горажде
        ascii_name: Gorazde
        geonamesid: 3200396
        latitude: 43.66694
        longitude: 18.97639
        name: Goražde
        names_en: 
          - Goražde
        names_es: ~
        population: 17650
        timezone: Europe/Sarajevo
      - 
        alternate_names: ~
        ascii_name: Gnojnica
        geonamesid: 3200538
        latitude: 44.62056
        longitude: 18.44667
        name: Gnojnica
        names_en: ~
        names_es: ~
        population: 3985
        timezone: Europe/Sarajevo
      - 
        alternate_names: 
          - Glamoc
          - Glamoč
        ascii_name: Glamoc
        geonamesid: 3200651
        latitude: 44.04583
        longitude: 16.84861
        name: Glamoč
        names_en: ~
        names_es: ~
        population: 4016
        timezone: Europe/Sarajevo
      - 
        alternate_names: 
          - Fojnica
          - fwynchh
          - فوینچه
        ascii_name: Fojnica
        geonamesid: 3200829
        latitude: 43.9625
        longitude: 17.89833
        name: Fojnica
        names_en: ~
        names_es: ~
        population: 8244
        timezone: Europe/Sarajevo
      - 
        alternate_names: 
          - Duvno
          - Tomislavgrad
          - Zupanjac
          - Županjac
        ascii_name: Tomislavgrad
        geonamesid: 3200930
        latitude: 43.71806
        longitude: 17.22667
        name: Tomislavgrad
        names_en: 
          - Tomislavgrad
        names_es: ~
        population: 7737
        timezone: Europe/Sarajevo
      - 
        alternate_names: ~
        ascii_name: Dubravica
        geonamesid: 3201057
        latitude: 44.44194
        longitude: 18.11806
        name: Dubravica
        names_en: ~
        names_es: ~
        population: 3868
        timezone: Europe/Sarajevo
      - 
        alternate_names: 
          - "Gornje Dubrave"
        ascii_name: "Dubrave Gornje"
        geonamesid: 3201060
        latitude: 44.47139
        longitude: 18.72972
        name: "Dubrave Gornje"
        names_en: ~
        names_es: ~
        population: 4821
        timezone: Europe/Sarajevo
      - 
        alternate_names: 
          - "Donje Dubrave"
        ascii_name: "Dubrave Donje"
        geonamesid: 3201061
        latitude: 44.48111
        longitude: 18.69611
        name: "Dubrave Donje"
        names_en: ~
        names_es: ~
        population: 3811
        timezone: Europe/Sarajevo
      - 
        alternate_names: 
          - "Donji Vakuf"
          - Srbobran
        ascii_name: "Donji Vakuf"
        geonamesid: 3201376
        latitude: 44.14361
        longitude: 17.4
        name: "Donji Vakuf"
        names_en: ~
        names_es: ~
        population: 7955
        timezone: Europe/Sarajevo
      - 
        alternate_names: 
          - "Donja Mededa"
          - "Donja Medida"
          - "Donja Medjedja"
          - "Donja Medjidja"
        ascii_name: "Donja Medida"
        geonamesid: 3201660
        latitude: 44.8025
        longitude: 18.40333
        name: "Donja Međiđa"
        names_en: ~
        names_es: ~
        population: 3782
        timezone: Europe/Sarajevo
      - 
        alternate_names: ~
        ascii_name: "Donja Mahala"
        geonamesid: 3201662
        latitude: 45.04694
        longitude: 18.66639
        name: "Donja Mahala"
        names_en: ~
        names_es: ~
        population: 5565
        timezone: Europe/Sarajevo
      - 
        alternate_names: ~
        ascii_name: "Donja Dubica"
        geonamesid: 3201697
        latitude: 45.075
        longitude: 18.41139
        name: "Donja Dubica"
        names_en: ~
        names_es: ~
        population: 3489
        timezone: Europe/Sarajevo
      - 
        alternate_names: ~
        ascii_name: Dobrinje
        geonamesid: 3201931
        latitude: 44.04972
        longitude: 18.11944
        name: Dobrinje
        names_en: ~
        names_es: ~
        population: 3987
        timezone: Europe/Sarajevo
      - 
        alternate_names: ~
        ascii_name: Divicani
        geonamesid: 3202014
        latitude: 44.36667
        longitude: 17.32611
        name: Divičani
        names_en: ~
        names_es: ~
        population: 7251
        timezone: Europe/Sarajevo
      - 
        alternate_names: 
          - Citluk
          - Čitluk
        ascii_name: Citluk
        geonamesid: 3202564
        latitude: 43.22861
        longitude: 17.70083
        name: Čitluk
        names_en: ~
        names_es: ~
        population: 5718
        timezone: Europe/Sarajevo
      - 
        alternate_names: 
          - Cazin
          - Цазин
        ascii_name: Cazin
        geonamesid: 3202822
        latitude: 44.96694
        longitude: 15.94306
        name: Cazin
        names_en: 
          - Cazin
        names_es: ~
        population: 21741
        timezone: Europe/Sarajevo
      - 
        alternate_names: ~
        ascii_name: Capljina
        geonamesid: 3202873
        latitude: 43.12139
        longitude: 17.68444
        name: Čapljina
        names_en: ~
        names_es: ~
        population: 7923
        timezone: Europe/Sarajevo
      - 
        alternate_names: 
          - Busovaca
          - Busovača
        ascii_name: Busovaca
        geonamesid: 3202955
        latitude: 44.0975
        longitude: 17.87889
        name: Busovača
        names_en: ~
        names_es: ~
        population: 4776
        timezone: Europe/Sarajevo
      - 
        alternate_names: 
          - Bugojne
          - Bugojno
          - Бугойно
          - Бугојно
        ascii_name: Bugojno
        geonamesid: 3203099
        latitude: 44.05722
        longitude: 17.45083
        name: Bugojno
        names_en: 
          - Bugojno
        names_es: ~
        population: 41378
        timezone: Europe/Sarajevo
      - 
        alternate_names: 
          - "Bosansko Grahovo"
          - "Bosansko Grakhovo"
          - Grahovo
          - "Hrvatsko Grahovo"
        ascii_name: "Bosansko Grahovo"
        geonamesid: 3203644
        latitude: 44.17944
        longitude: 16.36389
        name: "Bosansko Grahovo"
        names_en: ~
        names_es: ~
        population: 5643
        timezone: Europe/Sarajevo
      - 
        alternate_names: 
          - "Bosanska Krupa"
          - Krupa
          - "Krupa na Uni"
          - "Босанска Крупа"
        ascii_name: "Bosanska Krupa"
        geonamesid: 3203653
        latitude: 44.8825
        longitude: 16.15139
        name: "Bosanska Krupa"
        names_en: ~
        names_es: ~
        population: 15193
        timezone: Europe/Sarajevo
      - 
        alternate_names: 
          - Blagaj
        ascii_name: Blagaj
        geonamesid: 3203970
        latitude: 43.2575
        longitude: 17.88861
        name: Blagaj
        names_en: ~
        names_es: ~
        population: 4715
        timezone: Europe/Sarajevo
      - 
        alternate_names: 
          - Bihac
          - Bihaç
          - Bihać
          - Bikhach
        ascii_name: Bihac
        geonamesid: 3204222
        latitude: 44.81694
        longitude: 15.87083
        name: Bihać
        names_en: 
          - Bihać
        names_es: 
          - Bihać
        population: 75641
        timezone: Europe/Sarajevo
      - 
        alternate_names: 
          - Jelah
        ascii_name: Jelah
        geonamesid: 3210439
        latitude: 44.65417
        longitude: 17.95806
        name: Jelah
        names_en: ~
        names_es: ~
        population: 5291
        timezone: Europe/Sarajevo
      - 
        alternate_names: ~
        ascii_name: Polje
        geonamesid: 3212590
        latitude: 43.88056
        longitude: 18.07444
        name: Polje
        names_en: ~
        names_es: ~
        population: 3799
        timezone: Europe/Sarajevo
      - 
        alternate_names: ~
        ascii_name: Ilici
        geonamesid: 3213083
        latitude: 43.34722
        longitude: 17.76806
        name: Ilići
        names_en: ~
        names_es: ~
        population: 3688
        timezone: Europe/Sarajevo
      - 
        alternate_names: ~
        ascii_name: Tesanjka
        geonamesid: 3253010
        latitude: 44.67306
        longitude: 18.01278
        name: Tešanjka
        names_en: ~
        names_es: ~
        population: 5666
        timezone: Europe/Sarajevo
      - 
        alternate_names: ~
        ascii_name: Kovaci
        geonamesid: 3257948
        latitude: 44.44917
        longitude: 18.205
        name: Kovači
        names_en: ~
        names_es: ~
        population: 6410
        timezone: Europe/Sarajevo
      - 
        alternate_names: ~
        ascii_name: Lijesnica
        geonamesid: 3258022
        latitude: 44.49417
        longitude: 18.07417
        name: Liješnica
        names_en: ~
        names_es: ~
        population: 3559
        timezone: Europe/Sarajevo
      - 
        alternate_names: ~
        ascii_name: Barice
        geonamesid: 3262877
        latitude: 44.54056
        longitude: 18.48111
        name: Barice
        names_en: ~
        names_es: ~
        population: 3697
        timezone: Europe/Sarajevo
      - 
        alternate_names: ~
        ascii_name: Skokovi
        geonamesid: 3278045
        latitude: 45.03139
        longitude: 15.91444
        name: Skokovi
        names_en: ~
        names_es: ~
        population: 3553
        timezone: Europe/Sarajevo
      - 
        alternate_names: ~
        ascii_name: Dreznica
        geonamesid: 3283848
        latitude: 43.52889
        longitude: 17.28194
        name: Drežnica
        names_en: ~
        names_es: ~
        population: 3908
        timezone: Europe/Sarajevo
      - 
        alternate_names: ~
        ascii_name: Kacuni
        geonamesid: 3289093
        latitude: 44.065
        longitude: 17.93861
        name: Kačuni
        names_en: ~
        names_es: ~
        population: 5042
        timezone: Europe/Sarajevo
      - 
        alternate_names: ~
        ascii_name: "Pajic Polje"
        geonamesid: 3293429
        latitude: 43.97583
        longitude: 17.5275
        name: "Pajić Polje"
        names_en: ~
        names_es: ~
        population: 4026
        timezone: Europe/Sarajevo
      - 
        alternate_names: 
          - Breza
          - "Gornja Breza"
        ascii_name: "Gornja Breza"
        geonamesid: 3295485
        latitude: 44.03694
        longitude: 18.24472
        name: "Gornja Breza"
        names_en: ~
        names_es: ~
        population: 3732
        timezone: Europe/Sarajevo
      - 
        alternate_names: 
          - Konjic
        ascii_name: Konjic
        geonamesid: 3337476
        latitude: 43.65194
        longitude: 17.96139
        name: Konjic
        names_en: ~
        names_es: ~
        population: 15950
        timezone: Europe/Sarajevo
      - 
        alternate_names: 
          - Jablanica
        ascii_name: Jablanica
        geonamesid: 3344411
        latitude: 43.66028
        longitude: 17.76167
        name: Jablanica
        names_en: ~
        names_es: ~
        population: 6209
        timezone: Europe/Sarajevo
    geonamesid: 3229999
    name: "Federation of Bosnia and Herzegovina"
    names_en: 
      - "Federation of Bosnia and Herzegovina"
    names_es: 
      - "Federacion de Bosnia-Herzegovina"
  - 
    ascii_name: "Republika Srpska"
    cities: 
      - 
        alternate_names: 
          - Zvonik
          - Zvornik
          - Зворник
        ascii_name: Zvornik
        geonamesid: 3186246
        latitude: 44.38694
        longitude: 19.10139
        name: Zvornik
        names_en: 
          - Zvornik
        names_es: ~
        population: 8026
        timezone: Europe/Sarajevo
      - 
        alternate_names: 
          - Vlasenice
        ascii_name: Vlasenica
        geonamesid: 3187524
        latitude: 44.18194
        longitude: 18.94056
        name: Vlasenica
        names_en: ~
        names_es: ~
        population: 4508
        timezone: Europe/Sarajevo
      - 
        alternate_names: 
          - Visegrad
          - Visegradas
          - Višegrad
          - Višegradas
        ascii_name: Visegrad
        geonamesid: 3187681
        latitude: 43.78472
        longitude: 19.29917
        name: Višegrad
        names_en: 
          - Višegrad
        names_es: ~
        population: 6087
        timezone: Europe/Sarajevo
      - 
        alternate_names: ~
        ascii_name: Trn
        geonamesid: 3188817
        latitude: 44.85972
        longitude: 17.23639
        name: Trn
        names_en: ~
        names_es: ~
        population: 7553
        timezone: Europe/Sarajevo
      - 
        alternate_names: 
          - Trebigne
          - Trebin'e
          - Trebine
          - Trebinje
        ascii_name: Trebinje
        geonamesid: 3188893
        latitude: 42.71194
        longitude: 18.34417
        name: Trebinje
        names_en: 
          - Trebinje
        names_es: ~
        population: 33178
        timezone: Europe/Sarajevo
      - 
        alternate_names: 
          - Teslic
          - Teslić
        ascii_name: Teslic
        geonamesid: 3189143
        latitude: 44.60639
        longitude: 17.85972
        name: Teslić
        names_en: ~
        names_es: ~
        population: 6405
        timezone: Europe/Sarajevo
      - 
        alternate_names: ~
        ascii_name: Svodna
        geonamesid: 3189236
        latitude: 45.03722
        longitude: 16.53833
        name: Svodna
        names_en: ~
        names_es: ~
        population: 4388
        timezone: Europe/Sarajevo
      - 
        alternate_names: 
          - Srebrenica
          - Srebrnica
          - sureburenitsu~a
          - Сребреница
        ascii_name: Srebrenica
        geonamesid: 3190159
        latitude: 44.10639
        longitude: 19.29694
        name: Srebrenica
        names_en: 
          - Srebrenica
        names_es: 
          - Srebrenica
        population: 2862
        timezone: Europe/Sarajevo
      - 
        alternate_names: 
          - Srbac
          - Srpac
          - Srpak
          - Svinjar
        ascii_name: Srbac
        geonamesid: 3190172
        latitude: 45.09778
        longitude: 17.525
        name: Srbac
        names_en: ~
        names_es: ~
        population: 7380
        timezone: Europe/Sarajevo
      - 
        alternate_names: 
          - Sokola
        ascii_name: Sokolac
        geonamesid: 3190385
        latitude: 43.93972
        longitude: 18.80167
        name: Sokolac
        names_en: ~
        names_es: ~
        population: 8842
        timezone: Europe/Sarajevo
      - 
        alternate_names: 
          - Knezevo
          - "Skender Vakuf"
        ascii_name: "Skender Vakuf"
        geonamesid: 3190733
        latitude: 44.49083
        longitude: 17.3775
        name: "Skender Vakuf"
        names_en: ~
        names_es: ~
        population: 6866
        timezone: Europe/Sarajevo
      - 
        alternate_names: 
          - Sipovo
          - Šipovo
        ascii_name: Sipovo
        geonamesid: 3190837
        latitude: 44.28139
        longitude: 17.08389
        name: Šipovo
        names_en: ~
        names_es: ~
        population: 10738
        timezone: Europe/Sarajevo
      - 
        alternate_names: 
          - Sejkovic
          - Sejkovici
          - Sekovici
          - Šejković
        ascii_name: Sekovici
        geonamesid: 3191156
        latitude: 44.29861
        longitude: 18.85278
        name: Šekovići
        names_en: ~
        names_es: ~
        population: 6315
        timezone: Europe/Sarajevo
      - 
        alternate_names: 
          - Rudo
          - Рудо
        ascii_name: Rudo
        geonamesid: 3191449
        latitude: 43.61778
        longitude: 19.36639
        name: Rudo
        names_en: ~
        names_es: ~
        population: 1760
        timezone: Europe/Sarajevo
      - 
        alternate_names: 
          - Jelengrad
        ascii_name: Rogatica
        geonamesid: 3191576
        latitude: 43.80083
        longitude: 19.0025
        name: Rogatica
        names_en: ~
        names_es: ~
        population: 4947
        timezone: Europe/Sarajevo
      - 
        alternate_names: ~
        ascii_name: Prnjavor
        geonamesid: 3192327
        latitude: 44.87028
        longitude: 17.66278
        name: Prnjavor
        names_en: ~
        names_es: ~
        population: 7099
        timezone: Europe/Sarajevo
      - 
        alternate_names: 
          - Priedora
          - Prijedor
          - Приедора
          - Приједор
        ascii_name: Prijedor
        geonamesid: 3192409
        latitude: 44.98139
        longitude: 16.71306
        name: Prijedor
        names_en: 
          - Prijedor
        names_es: ~
        population: 36347
        timezone: Europe/Sarajevo
      - 
        alternate_names: ~
        ascii_name: Priboj
        geonamesid: 3192449
        latitude: 44.60278
        longitude: 18.93139
        name: Priboj
        names_en: ~
        names_es: ~
        population: 4351
        timezone: Europe/Sarajevo
      - 
        alternate_names: ~
        ascii_name: Pribinic
        geonamesid: 3192456
        latitude: 44.61056
        longitude: 17.69056
        name: Pribinić
        names_en: ~
        names_es: ~
        population: 3558
        timezone: Europe/Sarajevo
      - 
        alternate_names: ~
        ascii_name: Popovi
        geonamesid: 3192718
        latitude: 44.76556
        longitude: 19.2875
        name: Popovi
        names_en: ~
        names_es: ~
        population: 1145
        timezone: Europe/Sarajevo
      - 
        alternate_names: 
          - Pale
          - Пале
        ascii_name: Pale
        geonamesid: 3193692
        latitude: 43.81611
        longitude: 18.56944
        name: Pale
        names_en: 
          - Pale
        names_es: ~
        population: 7458
        timezone: Europe/Sarajevo
      - 
        alternate_names: 
          - Omarska
          - Омарска
        ascii_name: Omarska
        geonamesid: 3194120
        latitude: 44.89
        longitude: 16.89917
        name: Omarska
        names_en: ~
        names_es: ~
        population: 6466
        timezone: Europe/Sarajevo
      - 
        alternate_names: ~
        ascii_name: Nevesinje
        geonamesid: 3194510
        latitude: 43.25861
        longitude: 18.11333
        name: Nevesinje
        names_en: ~
        names_es: ~
        population: 7313
        timezone: Europe/Sarajevo
      - 
        alternate_names: 
          - "Mrkonjic Grad"
          - "Mrkonjić Grad"
          - "Varcar Vakuf"
        ascii_name: "Mrkonjic Grad"
        geonamesid: 3194724
        latitude: 44.41583
        longitude: 17.08611
        name: "Mrkonjić Grad"
        names_en: ~
        names_es: ~
        population: 14737
        timezone: Europe/Sarajevo
      - 
        alternate_names: 
          - Modric
          - Modrič
        ascii_name: Modrica
        geonamesid: 3194943
        latitude: 44.95444
        longitude: 18.30361
        name: Modriča
        names_en: ~
        names_es: ~
        population: 5136
        timezone: Europe/Sarajevo
      - 
        alternate_names: 
          - Maslovare
          - Mastovare
        ascii_name: Maslovare
        geonamesid: 3195399
        latitude: 44.56556
        longitude: 17.53361
        name: Maslovare
        names_en: ~
        names_es: ~
        population: 4899
        timezone: Europe/Sarajevo
      - 
        alternate_names: 
          - Lopare
          - Лопаре
        ascii_name: Lopare
        geonamesid: 3196209
        latitude: 44.63778
        longitude: 18.84278
        name: Lopare
        names_en: ~
        names_es: ~
        population: 3614
        timezone: Europe/Sarajevo
      - 
        alternate_names: 
          - Ljubinje
        ascii_name: Ljubinje
        geonamesid: 3196364
        latitude: 42.95083
        longitude: 18.08861
        name: Ljubinje
        names_en: ~
        names_es: ~
        population: 4235
        timezone: Europe/Sarajevo
      - 
        alternate_names: 
          - "Banja Laktasi"
          - "Banja Laktaši"
          - Laktasi
          - "Laktasi Ilidza"
        ascii_name: Laktasi
        geonamesid: 3196792
        latitude: 44.90806
        longitude: 17.30083
        name: Laktaši
        names_en: ~
        names_es: ~
        population: 6464
        timezone: Europe/Sarajevo
      - 
        alternate_names: ~
        ascii_name: Kotor-Varos
        geonamesid: 3197532
        latitude: 44.61694
        longitude: 17.37167
        name: Kotor-Varoš
        names_en: ~
        names_es: ~
        population: 5068
        timezone: Europe/Sarajevo
      - 
        alternate_names: ~
        ascii_name: "Kalenderovci Donji"
        geonamesid: 3198462
        latitude: 44.945
        longitude: 17.83389
        name: "Kalenderovci Donji"
        names_en: ~
        names_es: ~
        population: 5890
        timezone: Europe/Sarajevo
      - 
        alternate_names: ~
        ascii_name: Janja
        geonamesid: 3198895
        latitude: 44.66528
        longitude: 19.24778
        name: Janja
        names_en: ~
        names_es: ~
        population: 5544
        timezone: Europe/Sarajevo
      - 
        alternate_names: 
          - "Han Pijesak"
        ascii_name: "Han Pijesak"
        geonamesid: 3199417
        latitude: 44.08083
        longitude: 18.9525
        name: "Han Pijesak"
        names_en: ~
        names_es: ~
        population: 4206
        timezone: Europe/Sarajevo
      - 
        alternate_names: 
          - Gacko
        ascii_name: Gacko
        geonamesid: 3200768
        latitude: 43.16722
        longitude: 18.53528
        name: Gacko
        names_en: ~
        names_es: ~
        population: 3417
        timezone: Europe/Sarajevo
      - 
        alternate_names: 
          - Srbinje
        ascii_name: Foca
        geonamesid: 3200837
        latitude: 43.505
        longitude: 18.77861
        name: Foča
        names_en: ~
        names_es: ~
        population: 14615
        timezone: Europe/Sarajevo
      - 
        alternate_names: 
          - Dobrlin
          - Dobrljin
        ascii_name: Dobrljin
        geonamesid: 3201928
        latitude: 45.15333
        longitude: 16.4775
        name: Dobrljin
        names_en: ~
        names_es: ~
        population: 3582
        timezone: Europe/Sarajevo
      - 
        alternate_names: 
          - Doboj
        ascii_name: Doboj
        geonamesid: 3201984
        latitude: 44.73472
        longitude: 18.08778
        name: Doboj
        names_en: ~
        names_es: ~
        population: 27235
        timezone: Europe/Sarajevo
      - 
        alternate_names: 
          - Derbend
          - Dervent
          - Derventa
          - drbnd
        ascii_name: Derventa
        geonamesid: 3202081
        latitude: 44.97722
        longitude: 17.91028
        name: Derventa
        names_en: 
          - Derventa
        names_es: ~
        population: 9773
        timezone: Europe/Sarajevo
      - 
        alternate_names: ~
        ascii_name: Cajnice
        geonamesid: 3202895
        latitude: 43.5575
        longitude: 19.07111
        name: Čajniče
        names_en: ~
        names_es: ~
        population: 3909
        timezone: Europe/Sarajevo
      - 
        alternate_names: 
          - Bratinac
        ascii_name: Bratunac
        geonamesid: 3203533
        latitude: 44.1875
        longitude: 19.33944
        name: Bratunac
        names_en: ~
        names_es: ~
        population: 4717
        timezone: Europe/Sarajevo
      - 
        alternate_names: 
          - "Bosanski Samac"
          - "Bosanski Shamac"
          - "Bosanski Šamac"
          - Samac
        ascii_name: "Bosanski Samac"
        geonamesid: 3203645
        latitude: 45.05917
        longitude: 18.46694
        name: "Bosanski Šamac"
        names_en: 
          - Šamac
        names_es: ~
        population: 3599
        timezone: Europe/Sarajevo
      - 
        alternate_names: 
          - "Bosanski Novi"
          - Novi
          - "Novi Grad"
        ascii_name: "Bosanski Novi"
        geonamesid: 3203647
        latitude: 45.04583
        longitude: 16.38028
        name: "Bosanski Novi"
        names_en: ~
        names_es: ~
        population: 8920
        timezone: Europe/Sarajevo
      - 
        alternate_names: 
          - "Bosanski Brod"
          - Brod
          - "Srpski Brod"
          - Брод
        ascii_name: "Bosanski Brod"
        geonamesid: 3203651
        latitude: 45.1375
        longitude: 17.98972
        name: "Bosanski Brod"
        names_en: 
          - "Bosanski Brod"
        names_es: ~
        population: 9249
        timezone: Europe/Sarajevo
      - 
        alternate_names: 
          - "Bosanska Kostajnica"
          - Kostajnica
          - "Srpska Kostajnica"
        ascii_name: Kostajnica
        geonamesid: 3203655
        latitude: 45.21972
        longitude: 16.53583
        name: Kostajnica
        names_en: ~
        names_es: ~
        population: 4739
        timezone: Europe/Sarajevo
      - 
        alternate_names: 
          - "Bosanska Gradiska"
          - "Bosanska Gradiška"
          - Gradiska
          - "Gradiska na Savi"
        ascii_name: "Bosanska Gradiska"
        geonamesid: 3203656
        latitude: 45.14111
        longitude: 17.25
        name: "Bosanska Gradiška"
        names_en: ~
        names_es: ~
        population: 13346
        timezone: Europe/Sarajevo
      - 
        alternate_names: 
          - "Bosanska Dubica"
          - "Kozarska Dubica"
        ascii_name: "Bosanska Dubica"
        geonamesid: 3203657
        latitude: 45.17667
        longitude: 16.80944
        name: "Bosanska Dubica"
        names_en: ~
        names_es: ~
        population: 9959
        timezone: Europe/Sarajevo
      - 
        alternate_names: ~
        ascii_name: Blatnica
        geonamesid: 3203950
        latitude: 44.48639
        longitude: 17.82333
        name: Blatnica
        names_en: ~
        names_es: ~
        population: 5676
        timezone: Europe/Sarajevo
      - 
        alternate_names: 
          - Bileca
          - Bilece
          - Bilegja
          - Bileća
        ascii_name: Bileca
        geonamesid: 3204161
        latitude: 42.87194
        longitude: 18.42972
        name: Bileća
        names_en: 
          - Bileća
        names_es: ~
        population: 13257
        timezone: Europe/Sarajevo
      - 
        alternate_names: 
          - Beline
          - Bieline
          - Bijelina
          - Bijeljina
        ascii_name: Bijeljina
        geonamesid: 3204186
        latitude: 44.75694
        longitude: 19.21611
        name: Bijeljina
        names_en: 
          - Bijeljina
        names_es: ~
        population: 37692
        timezone: Europe/Sarajevo
      - 
        alternate_names: 
          - "Bana Luka"
          - "Bania Louka"
          - "Bania Luka"
          - Banialuca
        ascii_name: "Banja Luka"
        geonamesid: 3204541
        latitude: 44.77583
        longitude: 17.18556
        name: "Banja Luka"
        names_en: 
          - "Banja Luka"
        names_es: 
          - "Bania Luka"
        population: 221106
        timezone: Europe/Sarajevo
      - 
        alternate_names: ~
        ascii_name: Balatun
        geonamesid: 3204590
        latitude: 44.86278
        longitude: 19.34139
        name: Balatun
        names_en: ~
        names_es: ~
        population: 1400
        timezone: Europe/Sarajevo
      - 
        alternate_names: ~
        ascii_name: Koran
        geonamesid: 3206012
        latitude: 43.81028
        longitude: 18.56889
        name: Koran
        names_en: ~
        names_es: ~
        population: 3395
        timezone: Europe/Sarajevo
      - 
        alternate_names: ~
        ascii_name: Dvorovi
        geonamesid: 3211537
        latitude: 44.80667
        longitude: 19.26056
        name: Dvorovi
        names_en: ~
        names_es: ~
        population: 1710
        timezone: Europe/Sarajevo
      - 
        alternate_names: ~
        ascii_name: Knezica
        geonamesid: 3211929
        latitude: 45.10278
        longitude: 16.6775
        name: Knežica
        names_en: ~
        names_es: ~
        population: 4792
        timezone: Europe/Sarajevo
      - 
        alternate_names: ~
        ascii_name: Celinac
        geonamesid: 3247554
        latitude: 44.72278
        longitude: 17.32778
        name: Čelinac
        names_en: ~
        names_es: ~
        population: 6670
        timezone: Europe/Sarajevo
      - 
        alternate_names: ~
        ascii_name: Piskavica
        geonamesid: 3248645
        latitude: 44.86806
        longitude: 16.97361
        name: Piskavica
        names_en: ~
        names_es: ~
        population: 3797
        timezone: Europe/Sarajevo
      - 
        alternate_names: ~
        ascii_name: Putisevac
        geonamesid: 3251418
        latitude: 44.53944
        longitude: 17.06278
        name: Putiševac
        names_en: ~
        names_es: ~
        population: 1064
        timezone: Europe/Sarajevo
    geonamesid: 3230000
    name: "Republika Srpska"
    names_en: ~
    names_es: 
      - "República Serbia"
  - 
    ascii_name: Brcko
    cities: 
      - 
        alternate_names: 
          - Brchko
          - Брчко
        ascii_name: Brcko
        geonamesid: 3203521
        latitude: 44.87278
        longitude: 18.80833
        name: Brčko
        names_en: ~
        names_es: ~
        population: 38479
        timezone: Europe/Sarajevo
    geonamesid: 3294903
    name: Brčko
    names_en: 
      - "Brčko District"
      - Brčko
    names_es: 
      - "Distrito Brcko"
      - Brcko
