--- 
geonamesid: 933860
iso: BW
name: Botswana
names_en: 
  - Botswana
names_es: 
  - Botsuana
regions: 
  - 
    ascii_name: "Southern District"
    cities: 
      - 
        alternate_names: 
          - Kanye
        ascii_name: Kanye
        geonamesid: 933685
        latitude: -24.98333
        longitude: 25.35
        name: Kanye
        names_en: 
          - Kanye
        names_es: ~
        population: 44716
        timezone: Africa/Gaborone
    geonamesid: 933043
    name: Southern
    names_en: ~
    names_es: ~
  - 
    ascii_name: "South East District"
    cities: 
      - 
        alternate_names: 
          - Kopong
          - "Kopong Villages"
        ascii_name: Kopong
        geonamesid: 933596
        latitude: -24.48333
        longitude: 25.88333
        name: Kopong
        names_en: ~
        names_es: ~
        population: 6895
        timezone: Africa/Gaborone
      - 
        alternate_names: 
          - Gaberones
          - "Gaberones Village"
          - Gaboronas
          - Gaborone
        ascii_name: Gaborone
        geonamesid: 933773
        latitude: -24.65451
        longitude: 25.90859
        name: Gaborone
        names_en: 
          - Gaborone
        names_es: 
          - Gaborone
        population: 208411
        timezone: Africa/Gaborone
    geonamesid: 933044
    name: "South East"
    names_en: ~
    names_es: ~
  - 
    ascii_name: "North East District"
    cities: 
      - 
        alternate_names: 
          - Masunga
          - Masungas
        ascii_name: Masunga
        geonamesid: 933390
        latitude: -20.62455
        longitude: 27.44875
        name: Masunga
        names_en: ~
        names_es: ~
        population: 3639
        timezone: Africa/Gaborone
      - 
        alternate_names: 
          - Francistown
          - Fransistaun
          - Франсистаун
        ascii_name: Francistown
        geonamesid: 933778
        latitude: -21.16667
        longitude: 27.51667
        name: Francistown
        names_en: 
          - Francistown
        names_es: ~
        population: 89979
        timezone: Africa/Gaborone
    geonamesid: 933210
    name: "North East"
    names_en: ~
    names_es: ~
  - 
    ascii_name: "North West District"
    cities: 
      - 
        alternate_names: 
          - Maun
          - Маун
        ascii_name: Maun
        geonamesid: 933366
        latitude: -19.98333
        longitude: 23.41667
        name: Maun
        names_en: 
          - Maun
        names_es: ~
        population: 49945
        timezone: Africa/Gaborone
      - 
        alternate_names: 
          - Kasane
        ascii_name: Kasane
        geonamesid: 933677
        latitude: -17.81667
        longitude: 25.15
        name: Kasane
        names_en: ~
        names_es: ~
        population: 9250
        timezone: Africa/Gaborone
    geonamesid: 933230
    name: "North West"
    names_en: ~
    names_es: ~
  - 
    ascii_name: "Kweneng District"
    cities: 
      - 
        alternate_names: 
          - Molepolole
          - Молепололе
        ascii_name: Molepolole
        geonamesid: 933305
        latitude: -24.41667
        longitude: 25.53333
        name: Molepolole
        names_en: 
          - Molepolole
        names_es: ~
        population: 63248
        timezone: Africa/Gaborone
      - 
        alternate_names: 
          - Mogoditsane
          - Mogoditshane
        ascii_name: Mogoditshane
        geonamesid: 933331
        latitude: -24.62694
        longitude: 25.86556
        name: Mogoditshane
        names_en: ~
        names_es: ~
        population: 43394
        timezone: Africa/Gaborone
      - 
        alternate_names: 
          - Gabane
          - Khabane
        ascii_name: Gabane
        geonamesid: 933777
        latitude: -24.66667
        longitude: 25.78222
        name: Gabane
        names_en: ~
        names_es: ~
        population: 12884
        timezone: Africa/Gaborone
      - 
        alternate_names: ~
        ascii_name: Metsemotlhaba
        geonamesid: 1106206
        latitude: -24.55139
        longitude: 25.80306
        name: Metsemotlhaba
        names_en: ~
        names_es: ~
        population: 5544
        timezone: Africa/Gaborone
      - 
        alternate_names: ~
        ascii_name: Mmopone
        geonamesid: 1106213
        latitude: -24.56694
        longitude: 25.87417
        name: Mmopone
        names_en: ~
        names_es: ~
        population: 4927
        timezone: Africa/Gaborone
    geonamesid: 933562
    name: Kweneng
    names_en: ~
    names_es: ~
  - 
    ascii_name: "Kgatleng District"
    cities: 
      - 
        alternate_names: 
          - Mochudi
          - "Mochudi Village"
          - Мочуди
        ascii_name: Mochudi
        geonamesid: 933340
        latitude: -24.41667
        longitude: 26.15
        name: Mochudi
        names_en: 
          - Mochudi
        names_es: ~
        population: 36962
        timezone: Africa/Gaborone
    geonamesid: 933654
    name: Kgatleng
    names_en: ~
    names_es: ~
  - 
    ascii_name: "Kgalagadi District"
    cities: 
      - 
        alternate_names: 
          - Tsabong
          - Tshabong
        ascii_name: Tshabong
        geonamesid: 932987
        latitude: -26.05
        longitude: 22.45
        name: Tshabong
        names_en: 
          - Tshabong
        names_es: ~
        population: 6591
        timezone: Africa/Gaborone
    geonamesid: 933657
    name: Kgalagadi
    names_en: ~
    names_es: ~
  - 
    ascii_name: "Ghanzi District"
    cities: 
      - 
        alternate_names: 
          - Ghanzi
          - Khanzi
        ascii_name: Ghanzi
        geonamesid: 933759
        latitude: -21.56667
        longitude: 21.78333
        name: Ghanzi
        names_en: 
          - Ghanzi
        names_es: ~
        population: 9934
        timezone: Africa/Gaborone
    geonamesid: 933758
    name: Ghanzi
    names_en: ~
    names_es: ~
  - 
    ascii_name: "Central District"
    cities: 
      - 
        alternate_names: ~
        ascii_name: Tamasane
        geonamesid: 933030
        latitude: -22.4184
        longitude: 27.40127
        name: Tamasane
        names_en: ~
        names_es: ~
        population: 1070
        timezone: Africa/Gaborone
      - 
        alternate_names: 
          - Serova
          - Serowe
          - Серова
        ascii_name: Serowe
        geonamesid: 933088
        latitude: -22.38333
        longitude: 26.71667
        name: Serowe
        names_en: 
          - Serowe
        names_es: ~
        population: 47419
        timezone: Africa/Gaborone
      - 
        alternate_names: 
          - Phikwe
          - Pikwe
          - Pikwe-Selibe
          - Selebi
        ascii_name: Selebi-Phikwe
        geonamesid: 933099
        latitude: -21.97903
        longitude: 27.84983
        name: Selebi-Phikwe
        names_en: ~
        names_es: ~
        population: 53727
        timezone: Africa/Gaborone
      - 
        alternate_names: 
          - "Palapaye Road"
          - Palapye
          - "Palapye Road"
          - Palatswe
        ascii_name: Palapye
        geonamesid: 933182
        latitude: -22.55
        longitude: 27.13333
        name: Palapye
        names_en: ~
        names_es: ~
        population: 30650
        timezone: Africa/Gaborone
      - 
        alternate_names: ~
        ascii_name: Kalamare
        geonamesid: 933696
        latitude: -22.93369
        longitude: 26.57032
        name: Kalamare
        names_en: ~
        names_es: ~
        population: 2339
        timezone: Africa/Gaborone
      - 
        alternate_names: 
          - Gobojango
          - Gubujango
          - Kobajango
          - Kobojango
        ascii_name: Gobojango
        geonamesid: 933753
        latitude: -21.8327
        longitude: 28.72882
        name: Gobojango
        names_en: ~
        names_es: ~
        population: 1756
        timezone: Africa/Gaborone
    geonamesid: 933851
    name: Central
    names_en: ~
    names_es: ~
