--- 
geonamesid: 3469034
iso: BR
name: Brazil
names_en: 
  - Brazil
  - "Federative Republic of Brazil"
names_es: 
  - Brasil
regions: 
  - 
    abbr: RN
    ascii_name: "Estado do Rio Grande do Norte"
    cities: 
      - 
        alternate_names: ~
        ascii_name: Upanema
        geonamesid: 3385736
        latitude: -5.64194
        longitude: -37.25778
        name: Upanema
        names_en: ~
        names_es: ~
        population: 6704
        timezone: America/Fortaleza
      - 
        alternate_names: 
          - Divinopolis
        ascii_name: Umarizal
        geonamesid: 3385826
        latitude: -5.99056
        longitude: -37.81444
        name: Umarizal
        names_en: ~
        names_es: ~
        population: 8780
        timezone: America/Fortaleza
      - 
        alternate_names: ~
        ascii_name: Touros
        geonamesid: 3386213
        latitude: -5.19889
        longitude: -35.46083
        name: Touros
        names_en: ~
        names_es: ~
        population: 7662
        timezone: America/Fortaleza
      - 
        alternate_names: 
          - Riacho
        ascii_name: Tangara
        geonamesid: 3386842
        latitude: -6.19944
        longitude: -35.80167
        name: Tangará
        names_en: ~
        names_es: ~
        population: 8067
        timezone: America/Fortaleza
      - 
        alternate_names: ~
        ascii_name: Taipu
        geonamesid: 3386957
        latitude: -5.62167
        longitude: -35.59667
        name: Taipu
        names_en: ~
        names_es: ~
        population: 4606
        timezone: America/Fortaleza
      - 
        alternate_names: ~
        ascii_name: "Severiano Melo"
        geonamesid: 3387644
        latitude: -5.77722
        longitude: -37.95778
        name: "Severiano Melo"
        names_en: ~
        names_es: ~
        population: 2503
        timezone: America/Fortaleza
      - 
        alternate_names: 
          - "Sao Thome"
          - "São Thomé"
        ascii_name: "Sao Tome"
        geonamesid: 3388092
        latitude: -5.9725
        longitude: -36.07528
        name: "São Tomé"
        names_en: ~
        names_es: ~
        population: 6137
        timezone: America/Fortaleza
      - 
        alternate_names: 
          - Potengy
          - "Sao Paulo do Potengi"
          - "São Paulo do Potengi"
        ascii_name: "Sao Paulo do Potengi"
        geonamesid: 3388238
        latitude: -5.895
        longitude: -35.76278
        name: "São Paulo do Potengi"
        names_en: ~
        names_es: ~
        population: 9333
        timezone: America/Fortaleza
      - 
        alternate_names: ~
        ascii_name: "Sao Miguel"
        geonamesid: 3388304
        latitude: -5.46667
        longitude: -35.36667
        name: "São Miguel"
        names_en: ~
        names_es: ~
        population: 12838
        timezone: America/Fortaleza
      - 
        alternate_names: 
          - Campestre
        ascii_name: "Sao Jose do Campestre"
        geonamesid: 3388437
        latitude: -6.31556
        longitude: -35.71389
        name: "São José do Campestre"
        names_en: ~
        names_es: ~
        population: 10254
        timezone: America/Fortaleza
      - 
        alternate_names: 
          - "Sao Jose Do Mipibu"
        ascii_name: "Sao Jose de Mipibu"
        geonamesid: 3388443
        latitude: -6.07472
        longitude: -35.23778
        name: "São José de Mipibu"
        names_en: ~
        names_es: ~
        population: 15298
        timezone: America/Fortaleza
      - 
        alternate_names: 
          - "Felipe Camarao"
          - "Felipe Camarão"
          - "Filipe Camarao"
          - "Filipe Camarão"
        ascii_name: "Sao Goncalo do Amarante"
        geonamesid: 3388713
        latitude: -5.79333
        longitude: -35.32944
        name: "São Gonçalo do Amarante"
        names_en: ~
        names_es: ~
        population: 10381
        timezone: America/Fortaleza
      - 
        alternate_names: 
          - "Padre Miguelinho"
        ascii_name: "Santo Antonio"
        geonamesid: 3389134
        latitude: -6.31056
        longitude: -35.47889
        name: "Santo Antônio"
        names_en: ~
        names_es: ~
        population: 12529
        timezone: America/Fortaleza
      - 
        alternate_names: 
          - "Sant'Anna dos Mattos"
        ascii_name: "Santana do Matos"
        geonamesid: 3389381
        latitude: -5.9575
        longitude: -36.65556
        name: "Santana do Matos"
        names_en: ~
        names_es: ~
        population: 8050
        timezone: America/Fortaleza
      - 
        alternate_names: ~
        ascii_name: "Santa Cruz"
        geonamesid: 3389673
        latitude: -6.22944
        longitude: -36.02278
        name: "Santa Cruz"
        names_en: ~
        names_es: ~
        population: 27775
        timezone: America/Fortaleza
      - 
        alternate_names: ~
        ascii_name: "Poco Branco"
        geonamesid: 3391744
        latitude: -5.62278
        longitude: -35.66278
        name: "Poço Branco"
        names_en: ~
        names_es: ~
        population: 7112
        timezone: America/Fortaleza
      - 
        alternate_names: 
          - Independencia
          - Pendencia
          - Pendência
        ascii_name: Pendencias
        geonamesid: 3392361
        latitude: -5.26
        longitude: -36.72222
        name: Pendências
        names_en: ~
        names_es: ~
        population: 9363
        timezone: America/Fortaleza
      - 
        alternate_names: ~
        ascii_name: "Pedro Velho"
        geonamesid: 3392425
        latitude: -6.43917
        longitude: -35.22139
        name: "Pedro Velho"
        names_en: ~
        names_es: ~
        population: 6366
        timezone: America/Fortaleza
      - 
        alternate_names: ~
        ascii_name: Patu
        geonamesid: 3392862
        latitude: -6.11
        longitude: -37.63667
        name: Patu
        names_en: ~
        names_es: ~
        population: 8841
        timezone: America/Fortaleza
      - 
        alternate_names: 
          - "Eduardo Gomes"
          - Parnamirim
        ascii_name: Parnamirim
        geonamesid: 3392998
        latitude: -5.91556
        longitude: -35.26278
        name: Parnamirim
        names_en: 
          - Parnamirim
        names_es: ~
        population: 150343
        timezone: America/Fortaleza
      - 
        alternate_names: ~
        ascii_name: Parelhas
        geonamesid: 3393017
        latitude: -6.68778
        longitude: -36.6575
        name: Parelhas
        names_en: ~
        names_es: ~
        population: 16377
        timezone: America/Fortaleza
      - 
        alternate_names: ~
        ascii_name: "Nova Cruz"
        geonamesid: 3393876
        latitude: -6.47806
        longitude: -35.43389
        name: "Nova Cruz"
        names_en: ~
        names_es: ~
        population: 23166
        timezone: America/Fortaleza
      - 
        alternate_names: 
          - Papari
          - Papary
        ascii_name: "Nisia Floresta"
        geonamesid: 3393922
        latitude: -6.09111
        longitude: -35.20861
        name: "Nísia Floresta"
        names_en: ~
        names_es: ~
        population: 10115
        timezone: America/Fortaleza
      - 
        alternate_names: 
          - Natal
          - Natalo
          - Натал
          - נאטאל
        ascii_name: Natal
        geonamesid: 3394023
        latitude: -5.795
        longitude: -35.20944
        name: Natal
        names_en: 
          - Natal
        names_es: 
          - Natal
        population: 763043
        timezone: America/Fortaleza
      - 
        alternate_names: ~
        ascii_name: "Monte Alegre"
        geonamesid: 3394594
        latitude: -5.88972
        longitude: -36.30139
        name: "Monte Alegre"
        names_en: ~
        names_es: ~
        population: 6643
        timezone: America/Fortaleza
      - 
        alternate_names: 
          - "Lagoa da Montanha"
          - "Lagôa da Montanha"
        ascii_name: Montanhas
        geonamesid: 3394612
        latitude: -6.48583
        longitude: -35.2875
        name: Montanhas
        names_en: ~
        names_es: ~
        population: 8442
        timezone: America/Fortaleza
      - 
        alternate_names: 
          - Mocoro
          - Moçoró
        ascii_name: Mossoro
        geonamesid: 3394682
        latitude: -5.1875
        longitude: -37.34417
        name: Mossoró
        names_en: ~
        names_es: ~
        population: 202005
        timezone: America/Fortaleza
      - 
        alternate_names: 
          - Macao
          - Macáo
        ascii_name: Macau
        geonamesid: 3395998
        latitude: -5.115
        longitude: -36.63444
        name: Macau
        names_en: ~
        names_es: ~
        population: 18070
        timezone: America/Fortaleza
      - 
        alternate_names: 
          - Macahyba
        ascii_name: Macaiba
        geonamesid: 3396048
        latitude: -5.85833
        longitude: -35.35389
        name: Macaíba
        names_en: ~
        names_es: ~
        population: 40015
        timezone: America/Fortaleza
      - 
        alternate_names: ~
        ascii_name: "Lagoa Nova"
        geonamesid: 3396662
        latitude: -6.1
        longitude: -36.48333
        name: "Lagoa Nova"
        names_en: ~
        names_es: ~
        population: 5984
        timezone: America/Fortaleza
      - 
        alternate_names: 
          - "Sao Miguel"
          - "Sao Miguel de Jucurutu"
          - "São Miguel"
          - "São Miguel de Jucurutú"
        ascii_name: Jucurutu
        geonamesid: 3397108
        latitude: -6.03389
        longitude: -37.02028
        name: Jucurutu
        names_en: ~
        names_es: ~
        population: 11535
        timezone: America/Fortaleza
      - 
        alternate_names: 
          - "Baixa Verde"
        ascii_name: "Joao Camara"
        geonamesid: 3397315
        latitude: -5.5375
        longitude: -35.81972
        name: "João Câmara"
        names_en: ~
        names_es: ~
        population: 19885
        timezone: America/Fortaleza
      - 
        alternate_names: ~
        ascii_name: "Jardim do Serido"
        geonamesid: 3397560
        latitude: -6.58444
        longitude: -36.77444
        name: "Jardim do Seridó"
        names_en: ~
        names_es: ~
        population: 9520
        timezone: America/Fortaleza
      - 
        alternate_names: 
          - "Jardim de Pirahanas"
        ascii_name: "Jardim de Piranhas"
        geonamesid: 3397562
        latitude: -6.37861
        longitude: -37.35194
        name: "Jardim de Piranhas"
        names_en: ~
        names_es: ~
        population: 10935
        timezone: America/Fortaleza
      - 
        alternate_names: 
          - Ipauguacu
          - Ipauguaçu
          - Sacramento
        ascii_name: Ipanguacu
        geonamesid: 3398145
        latitude: -5.49833
        longitude: -36.855
        name: Ipanguaçu
        names_en: ~
        names_es: ~
        population: 4624
        timezone: America/Fortaleza
      - 
        alternate_names: 
          - "Sao Sebastiao"
          - Sebastianopolis
          - Sebastianópolis
          - "São Sebastião"
        ascii_name: "Governador Dix Sept Rosado"
        geonamesid: 3398871
        latitude: -5.45889
        longitude: -37.52083
        name: "Governador Dix Sept Rosado"
        names_en: ~
        names_es: ~
        population: 6626
        timezone: America/Fortaleza
      - 
        alternate_names: 
          - Goyanninha
        ascii_name: Goianinha
        geonamesid: 3398902
        latitude: -6.26472
        longitude: -35.2125
        name: Goianinha
        names_en: ~
        names_es: ~
        population: 13433
        timezone: America/Fortaleza
      - 
        alternate_names: 
          - Extremos
          - Extremoz
          - Extremós
          - Extremóz
        ascii_name: Extremoz
        geonamesid: 3400567
        latitude: -5.70556
        longitude: -35.30722
        name: Extremoz
        names_en: ~
        names_es: ~
        population: 17991
        timezone: America/Fortaleza
      - 
        alternate_names: 
          - "Curraes Novos"
        ascii_name: "Currais Novos"
        geonamesid: 3401283
        latitude: -6.26083
        longitude: -36.51778
        name: "Currais Novos"
        names_en: ~
        names_es: ~
        population: 35560
        timezone: America/Fortaleza
      - 
        alternate_names: ~
        ascii_name: "Cerro Cora"
        geonamesid: 3402284
        latitude: -6.04556
        longitude: -36.34583
        name: "Cerro Corá"
        names_en: ~
        names_es: ~
        population: 4927
        timezone: America/Fortaleza
      - 
        alternate_names: ~
        ascii_name: "Ceara Mirim"
        geonamesid: 3402360
        latitude: -5.63444
        longitude: -35.42556
        name: "Ceará Mirim"
        names_en: ~
        names_es: ~
        population: 32667
        timezone: America/Fortaleza
      - 
        alternate_names: 
          - Carahubas
          - Carauba
          - Caraúba
        ascii_name: Caraubas
        geonamesid: 3402944
        latitude: -5.7925
        longitude: -37.55667
        name: Caraúbas
        names_en: ~
        names_es: ~
        population: 12462
        timezone: America/Fortaleza
      - 
        alternate_names: ~
        ascii_name: Canguaretama
        geonamesid: 3403362
        latitude: -6.38
        longitude: -35.12889
        name: Canguaretama
        names_en: ~
        names_es: ~
        population: 18873
        timezone: America/Fortaleza
      - 
        alternate_names: 
          - Kajko
          - Кайко
        ascii_name: Caico
        geonamesid: 3404117
        latitude: -6.45833
        longitude: -37.09778
        name: Caicó
        names_en: ~
        names_es: ~
        population: 54934
        timezone: America/Fortaleza
      - 
        alternate_names: ~
        ascii_name: Brejinho
        geonamesid: 3404924
        latitude: -6.19083
        longitude: -35.35667
        name: Brejinho
        names_en: ~
        names_es: ~
        population: 7625
        timezone: America/Fortaleza
      - 
        alternate_names: 
          - "Currais Barauna"
          - "Currais Baraúna"
        ascii_name: Barauna
        geonamesid: 3406457
        latitude: -5.08
        longitude: -37.61667
        name: Baraúna
        names_en: ~
        names_es: ~
        population: 14112
        timezone: America/Fortaleza
      - 
        alternate_names: 
          - Arez
        ascii_name: Ares
        geonamesid: 3407151
        latitude: -6.19444
        longitude: -35.16028
        name: Arês
        names_en: ~
        names_es: ~
        population: 7231
        timezone: America/Fortaleza
      - 
        alternate_names: ~
        ascii_name: "Areia Branca"
        geonamesid: 3407194
        latitude: -4.95611
        longitude: -37.13694
        name: "Areia Branca"
        names_en: ~
        names_es: ~
        population: 18372
        timezone: America/Fortaleza
      - 
        alternate_names: 
          - Apody
        ascii_name: Apodi
        geonamesid: 3407440
        latitude: -5.66417
        longitude: -37.79889
        name: Apodi
        names_en: ~
        names_es: ~
        population: 16757
        timezone: America/Fortaleza
      - 
        alternate_names: ~
        ascii_name: Angicos
        geonamesid: 3407544
        latitude: -5.66556
        longitude: -36.60111
        name: Angicos
        names_en: ~
        names_es: ~
        population: 7728
        timezone: America/Fortaleza
      - 
        alternate_names: ~
        ascii_name: Alexandria
        geonamesid: 3407977
        latitude: -6.4125
        longitude: -38.01583
        name: Alexandria
        names_en: ~
        names_es: ~
        population: 9769
        timezone: America/Fortaleza
      - 
        alternate_names: 
          - "Alfonso Bezerra"
        ascii_name: "Afonso Bezerra"
        geonamesid: 3408272
        latitude: -5.49833
        longitude: -36.50556
        name: "Afonso Bezerra"
        names_en: ~
        names_es: ~
        population: 6947
        timezone: America/Fortaleza
      - 
        alternate_names: 
          - Assu
        ascii_name: Acu
        geonamesid: 3408337
        latitude: -5.57667
        longitude: -36.90861
        name: Açu
        names_en: ~
        names_es: ~
        population: 36125
        timezone: America/Fortaleza
    geonamesid: 3390290
    name: "Rio Grande do Norte"
    names_en: ~
    names_es: ~
  - 
    abbr: PI
    ascii_name: "Estado do Piaui"
    cities: 
      - 
        alternate_names: 
          - Berlengas
          - Valenca
          - Valença
        ascii_name: "Valenca do Piaui"
        geonamesid: 3385592
        latitude: -6.4075
        longitude: -41.74556
        name: "Valença do Piauí"
        names_en: ~
        names_es: ~
        population: 15881
        timezone: America/Fortaleza
      - 
        alternate_names: 
          - Urussuhy
          - Urussui
          - Urussuí
        ascii_name: Urucui
        geonamesid: 3385658
        latitude: -7.22944
        longitude: -44.55611
        name: Uruçuí
        names_en: ~
        names_es: ~
        population: 12243
        timezone: America/Fortaleza
      - 
        alternate_names: ~
        ascii_name: Uniao
        geonamesid: 3385745
        latitude: -4.58583
        longitude: -42.86417
        name: União
        names_en: ~
        names_es: ~
        population: 15677
        timezone: America/Fortaleza
      - 
        alternate_names: 
          - Poti
          - Teresina
          - Terezina
          - Theresina
        ascii_name: Teresina
        geonamesid: 3386496
        latitude: -5.08917
        longitude: -42.80194
        name: Teresina
        names_en: 
          - Teresina
        names_es: 
          - Teresina
        population: 744512
        timezone: America/Fortaleza
      - 
        alternate_names: ~
        ascii_name: "Simplicio Mendes"
        geonamesid: 3387620
        latitude: -7.85389
        longitude: -41.91028
        name: "Simplício Mendes"
        names_en: ~
        names_es: ~
        population: 7076
        timezone: America/Fortaleza
      - 
        alternate_names: ~
        ascii_name: Simoes
        geonamesid: 3387625
        latitude: -7.59889
        longitude: -40.81778
        name: Simões
        names_en: ~
        names_es: ~
        population: 4332
        timezone: America/Fortaleza
      - 
        alternate_names: 
          - "Raimundo Nonato"
          - "Sao Raymundo Nonato"
        ascii_name: "Sao Raimundo Nonato"
        geonamesid: 3388145
        latitude: -9.01528
        longitude: -42.69944
        name: "São Raimundo Nonato"
        names_en: ~
        names_es: ~
        population: 19569
        timezone: America/Fortaleza
      - 
        alternate_names: 
          - "Sao Pedro"
          - "São Pedro"
        ascii_name: "Sao Pedro do Piaui"
        geonamesid: 3388173
        latitude: -5.92944
        longitude: -42.71861
        name: "São Pedro do Piauí"
        names_en: ~
        names_es: ~
        population: 7408
        timezone: America/Fortaleza
      - 
        alternate_names: 
          - Deliciosa
          - "Sao Miguel"
          - "São Miguel"
          - Tapuio
        ascii_name: "Sao Miguel do Tapuio"
        geonamesid: 3388266
        latitude: -5.50361
        longitude: -41.32333
        name: "São Miguel do Tapuio"
        names_en: ~
        names_es: ~
        population: 7964
        timezone: America/Fortaleza
      - 
        alternate_names: 
          - "Sao Joao Do Piauhy"
          - "São Joao Do Piauhy"
        ascii_name: "Sao Joao do Piaui"
        geonamesid: 3388618
        latitude: -8.35806
        longitude: -42.24667
        name: "São João do Piauí"
        names_en: ~
        names_es: ~
        population: 12688
        timezone: America/Fortaleza
      - 
        alternate_names: ~
        ascii_name: Regeneracao
        geonamesid: 3390700
        latitude: -6.23778
        longitude: -42.68833
        name: Regeneração
        names_en: ~
        names_es: ~
        population: 13608
        timezone: America/Fortaleza
      - 
        alternate_names: 
          - "Joao Pessoa"
          - "João Pessoa"
        ascii_name: Porto
        geonamesid: 3391408
        latitude: -3.89333
        longitude: -42.71
        name: Porto
        names_en: ~
        names_es: ~
        population: 6535
        timezone: America/Fortaleza
      - 
        alternate_names: 
          - Periperi
          - Peripery
          - Periperí
        ascii_name: Piripiri
        geonamesid: 3391908
        latitude: -4.27333
        longitude: -41.77694
        name: Piripiri
        names_en: ~
        names_es: ~
        population: 44864
        timezone: America/Fortaleza
      - 
        alternate_names: ~
        ascii_name: Piracuruca
        geonamesid: 3391991
        latitude: -3.92806
        longitude: -41.70917
        name: Piracuruca
        names_en: ~
        names_es: ~
        population: 18852
        timezone: America/Fortaleza
      - 
        alternate_names: 
          - Patrocinio
          - Patrocínio
          - "Pio Nono"
          - "Pio Nôno"
        ascii_name: "Pio IX"
        geonamesid: 3392020
        latitude: -6.8375
        longitude: -40.57917
        name: "Pio IX"
        names_en: ~
        names_es: ~
        population: 4973
        timezone: America/Fortaleza
      - 
        alternate_names: 
          - Pimenteira
        ascii_name: Pimenteiras
        geonamesid: 3392095
        latitude: -6.24528
        longitude: -41.41917
        name: Pimenteiras
        names_en: ~
        names_es: ~
        population: 3819
        timezone: America/Fortaleza
      - 
        alternate_names: 
          - Pikos
          - Pikus
          - Пикус
        ascii_name: Picos
        geonamesid: 3392167
        latitude: -7.07694
        longitude: -41.46694
        name: Picos
        names_en: 
          - Pikos
          - Pikus
        names_es: ~
        population: 57495
        timezone: America/Fortaleza
      - 
        alternate_names: 
          - Itamaraty
          - Matoes
          - Matões
          - "Pedro Segundo"
        ascii_name: "Pedro II"
        geonamesid: 3392431
        latitude: -4.42472
        longitude: -41.45861
        name: "Pedro II"
        names_en: ~
        names_es: ~
        population: 22038
        timezone: America/Fortaleza
      - 
        alternate_names: 
          - Feitoria
          - Parnahiba
          - Parnahyba
          - Parnaiba
        ascii_name: Parnaiba
        geonamesid: 3393001
        latitude: -2.90472
        longitude: -41.77667
        name: Parnaíba
        names_en: ~
        names_es: ~
        population: 138008
        timezone: America/Fortaleza
      - 
        alternate_names: 
          - Belem
          - Belém
        ascii_name: Palmeirais
        geonamesid: 3393240
        latitude: -5.97778
        longitude: -43.06333
        name: Palmeirais
        names_en: ~
        names_es: ~
        population: 4262
        timezone: America/Fortaleza
      - 
        alternate_names: 
          - Mocha
        ascii_name: Oeiras
        geonamesid: 3393764
        latitude: -7.02528
        longitude: -42.13111
        name: Oeiras
        names_en: ~
        names_es: ~
        population: 21071
        timezone: America/Fortaleza
      - 
        alternate_names: 
          - Gil
          - Natal
        ascii_name: "Monsenhor Gil"
        geonamesid: 3394621
        latitude: -5.56417
        longitude: -42.60778
        name: "Monsenhor Gil"
        names_en: ~
        names_es: ~
        population: 4751
        timezone: America/Fortaleza
      - 
        alternate_names: ~
        ascii_name: "Miguel Alves"
        geonamesid: 3394892
        latitude: -4.16556
        longitude: -42.89528
        name: "Miguel Alves"
        names_en: ~
        names_es: ~
        population: 10438
        timezone: America/Fortaleza
      - 
        alternate_names: ~
        ascii_name: "Matias Olimpio"
        geonamesid: 3395125
        latitude: -3.71583
        longitude: -42.55556
        name: "Matias Olímpio"
        names_en: ~
        names_es: ~
        population: 4012
        timezone: America/Fortaleza
      - 
        alternate_names: 
          - "Joaquim Tavora"
          - "Joaquim Távora"
          - "Porto Alegre"
          - "Pôrto Alegre"
        ascii_name: Luzilandia
        geonamesid: 3396101
        latitude: -3.45778
        longitude: -42.37028
        name: Luzilândia
        names_en: ~
        names_es: ~
        population: 12999
        timezone: America/Fortaleza
      - 
        alternate_names: 
          - Amarracao
          - Amarração
          - "Luis Correia"
          - "Luís Correia"
        ascii_name: "Luis Correia"
        geonamesid: 3396121
        latitude: -2.87917
        longitude: -41.66694
        name: "Luís Correia"
        names_en: ~
        names_es: ~
        population: 11479
        timezone: America/Fortaleza
      - 
        alternate_names: 
          - Livramento
        ascii_name: "Jose de Freitas"
        geonamesid: 3397230
        latitude: -4.75639
        longitude: -42.57556
        name: "José de Freitas"
        names_en: ~
        names_es: ~
        population: 21432
        timezone: America/Fortaleza
      - 
        alternate_names: ~
        ascii_name: Jaicos
        geonamesid: 3397660
        latitude: -7.35917
        longitude: -41.13778
        name: Jaicós
        names_en: ~
        names_es: ~
        population: 7107
        timezone: America/Fortaleza
      - 
        alternate_names: 
          - Peri-Peri
          - Piriperi
        ascii_name: Itaueira
        geonamesid: 3397865
        latitude: -7.60333
        longitude: -43.02556
        name: Itaueira
        names_en: ~
        names_es: ~
        population: 5146
        timezone: America/Fortaleza
      - 
        alternate_names: 
          - Jenipapo
        ascii_name: Itainopolis
        geonamesid: 3397976
        latitude: -7.44694
        longitude: -41.47833
        name: Itainópolis
        names_en: ~
        names_es: ~
        population: 2922
        timezone: America/Fortaleza
      - 
        alternate_names: 
          - Inhumas
        ascii_name: Inhuma
        geonamesid: 3398178
        latitude: -6.66833
        longitude: -41.70778
        name: Inhuma
        names_en: ~
        names_es: ~
        population: 7056
        timezone: America/Fortaleza
      - 
        alternate_names: 
          - Gilboes
          - Gilboés
        ascii_name: Gilbues
        geonamesid: 3398931
        latitude: -9.83167
        longitude: -45.34389
        name: Gilbués
        names_en: ~
        names_es: ~
        population: 4920
        timezone: America/Fortaleza
      - 
        alternate_names: 
          - Colonia
          - Colônia
          - Florian
          - Manga
        ascii_name: Floriano
        geonamesid: 3399506
        latitude: -6.76694
        longitude: -43.0225
        name: Floriano
        names_en: ~
        names_es: ~
        population: 48587
        timezone: America/Fortaleza
      - 
        alternate_names: 
          - "Boa Esperanca"
          - "Boa Esperança"
          - "Retiro da Boa Esperanca"
          - "Retiro da Boa Esperança"
        ascii_name: Esperantina
        geonamesid: 3400740
        latitude: -3.90167
        longitude: -42.23361
        name: Esperantina
        names_en: ~
        names_es: ~
        population: 21044
        timezone: America/Fortaleza
      - 
        alternate_names: 
          - "Elesboa Veloso"
        ascii_name: "Elesbao Veloso"
        geonamesid: 3400920
        latitude: -6.20194
        longitude: -42.14028
        name: "Elesbão Veloso"
        names_en: ~
        names_es: ~
        population: 10430
        timezone: America/Fortaleza
      - 
        alternate_names: 
          - "Dermeval Lobao"
          - "Dermeval Lobão"
          - Lobao
          - Lobão
        ascii_name: "Demerval Lobao"
        geonamesid: 3401106
        latitude: -5.35833
        longitude: -42.67639
        name: "Demerval Lobão"
        names_en: ~
        names_es: ~
        population: 15265
        timezone: America/Fortaleza
      - 
        alternate_names: ~
        ascii_name: Cocal
        geonamesid: 3402050
        latitude: -3.47194
        longitude: -41.5575
        name: Cocal
        names_en: ~
        names_es: ~
        population: 12097
        timezone: America/Fortaleza
      - 
        alternate_names: 
          - Castello
          - Castelo
          - Costello
          - Marvao
        ascii_name: "Castelo do Piaui"
        geonamesid: 3402548
        latitude: -5.32222
        longitude: -41.5525
        name: "Castelo do Piauí"
        names_en: ~
        names_es: ~
        population: 8589
        timezone: America/Fortaleza
      - 
        alternate_names: ~
        ascii_name: "Canto do Buriti"
        geonamesid: 3403251
        latitude: -8.11
        longitude: -42.94444
        name: "Canto do Buriti"
        names_en: ~
        names_es: ~
        population: 11714
        timezone: America/Fortaleza
      - 
        alternate_names: ~
        ascii_name: "Campo Maior"
        geonamesid: 3403566
        latitude: -4.82778
        longitude: -42.16861
        name: "Campo Maior"
        names_en: ~
        names_es: ~
        population: 31739
        timezone: America/Fortaleza
      - 
        alternate_names: 
          - "Baixo Longa"
          - "Baixo Longá"
          - "Burity dos Lopes"
        ascii_name: "Buriti dos Lopes"
        geonamesid: 3404713
        latitude: -3.175
        longitude: -41.86694
        name: "Buriti dos Lopes"
        names_en: ~
        names_es: ~
        population: 9475
        timezone: America/Fortaleza
      - 
        alternate_names: 
          - "Bom Jesus do Gurgueia"
        ascii_name: "Bom Jesus"
        geonamesid: 3405304
        latitude: -9.07444
        longitude: -44.35861
        name: "Bom Jesus"
        names_en: ~
        names_es: ~
        population: 12666
        timezone: America/Fortaleza
      - 
        alternate_names: ~
        ascii_name: Beneditinos
        geonamesid: 3405796
        latitude: -5.45
        longitude: -42.36667
        name: Beneditinos
        names_en: ~
        names_es: ~
        population: 5005
        timezone: America/Fortaleza
      - 
        alternate_names: 
          - "Campos Sales"
        ascii_name: Batalha
        geonamesid: 3406001
        latitude: -4.025
        longitude: -42.075
        name: Batalha
        names_en: ~
        names_es: ~
        population: 8744
        timezone: America/Fortaleza
      - 
        alternate_names: 
          - Barras
          - "Barras do Maratahoan"
          - "Barras do Maratoam"
          - Баррас
        ascii_name: Barras
        geonamesid: 3406263
        latitude: -4.24444
        longitude: -42.29444
        name: Barras
        names_en: ~
        names_es: ~
        population: 21597
        timezone: America/Fortaleza
      - 
        alternate_names: 
          - "Sao Goncalo"
          - "São Gonçalo"
        ascii_name: Amarante
        geonamesid: 3407756
        latitude: -6.24111
        longitude: -42.85472
        name: Amarante
        names_en: ~
        names_es: ~
        population: 8828
        timezone: America/Fortaleza
      - 
        alternate_names: ~
        ascii_name: Altos
        geonamesid: 3407797
        latitude: -5.03806
        longitude: -42.46
        name: Altos
        names_en: ~
        names_es: ~
        population: 28768
        timezone: America/Fortaleza
      - 
        alternate_names: 
          - Humildes
        ascii_name: "Alto Longa"
        geonamesid: 3407805
        latitude: -5.25111
        longitude: -42.21028
        name: "Alto Longá"
        names_en: ~
        names_es: ~
        population: 4435
        timezone: America/Fortaleza
      - 
        alternate_names: ~
        ascii_name: "Agua Branca"
        geonamesid: 3408221
        latitude: -5.89222
        longitude: -42.63611
        name: "Água Branca"
        names_en: ~
        names_es: ~
        population: 13912
        timezone: America/Fortaleza
    geonamesid: 3392213
    name: Piauí
    names_en: ~
    names_es: ~
  - 
    abbr: PE
    ascii_name: "Estado de Pernambuco"
    cities: 
      - 
        alternate_names: 
          - Victoria
          - Vitoria
          - Vitorija-de-Santu-Antan
          - Vitória
        ascii_name: "Vitoria de Santo Antao"
        geonamesid: 3384987
        latitude: -8.11806
        longitude: -35.29139
        name: "Vitória de Santo Antão"
        names_en: ~
        names_es: ~
        population: 107383
        timezone: America/Recife
      - 
        alternate_names: ~
        ascii_name: Vicencia
        geonamesid: 3385118
        latitude: -7.65694
        longitude: -35.32667
        name: Vicência
        names_en: ~
        names_es: ~
        population: 10378
        timezone: America/Recife
      - 
        alternate_names: 
          - "Santa Clara"
        ascii_name: Tupanatinga
        geonamesid: 3385920
        latitude: -8.75333
        longitude: -37.33972
        name: Tupanatinga
        names_en: ~
        names_es: ~
        population: 5768
        timezone: America/Recife
      - 
        alternate_names: ~
        ascii_name: Trindade
        geonamesid: 3386042
        latitude: -7.76194
        longitude: -40.26778
        name: Trindade
        names_en: ~
        names_es: ~
        population: 19313
        timezone: America/Recife
      - 
        alternate_names: 
          - Toritama
          - Torres
          - Торитама
        ascii_name: Toritama
        geonamesid: 3386264
        latitude: -8.00667
        longitude: -36.05667
        name: Toritama
        names_en: ~
        names_es: ~
        population: 23940
        timezone: America/Recife
      - 
        alternate_names: 
          - Gurjao
          - Gurjão
        ascii_name: Timbauba
        geonamesid: 3386396
        latitude: -7.50528
        longitude: -35.31833
        name: Timbaúba
        names_en: ~
        names_es: ~
        population: 45121
        timezone: America/Recife
      - 
        alternate_names: 
          - "Jaquaritinga do Norte"
          - Taquaretinga
          - Taquaritinga
        ascii_name: "Taquaritinga do Norte"
        geonamesid: 3386622
        latitude: -7.90306
        longitude: -36.04417
        name: "Taquaritinga do Norte"
        names_en: ~
        names_es: ~
        population: 13379
        timezone: America/Recife
      - 
        alternate_names: ~
        ascii_name: Tamandare
        geonamesid: 3386931
        latitude: -8.75972
        longitude: -35.10472
        name: Tamandaré
        names_en: ~
        names_es: ~
        population: 17954
        timezone: America/Recife
      - 
        alternate_names: 
          - "Espirito Santo"
          - Madeira
        ascii_name: Tabira
        geonamesid: 3387082
        latitude: -7.59083
        longitude: -37.53944
        name: Tabira
        names_en: ~
        names_es: ~
        population: 16926
        timezone: America/Recife
      - 
        alternate_names: ~
        ascii_name: Surubim
        geonamesid: 3387115
        latitude: -7.83306
        longitude: -35.75472
        name: Surubim
        names_en: ~
        names_es: ~
        population: 34580
        timezone: America/Recife
      - 
        alternate_names: 
          - "Alagoa de Baixo"
        ascii_name: Sertania
        geonamesid: 3387663
        latitude: -8.07361
        longitude: -37.26444
        name: Sertânia
        names_en: ~
        names_es: ~
        population: 18190
        timezone: America/Recife
      - 
        alternate_names: 
          - "Vila Bela"
          - "Villa Bella"
        ascii_name: "Serra Talhada"
        geonamesid: 3387786
        latitude: -7.99194
        longitude: -38.29833
        name: "Serra Talhada"
        names_en: ~
        names_es: ~
        population: 51203
        timezone: America/Recife
      - 
        alternate_names: 
          - San-Lorensu-da-Mata
          - "Sao Lourenco"
          - "Sao Lourenco da Matta"
          - "São Lourenço"
        ascii_name: "Sao Lourenco da Mata"
        geonamesid: 3388376
        latitude: -8.00222
        longitude: -35.01833
        name: "São Lourenço da Mata"
        names_en: ~
        names_es: ~
        population: 88416
        timezone: America/Recife
      - 
        alternate_names: 
          - Queimadas
          - "Sao Jose da Ingazeira"
          - "Sao Jose das Queimadas"
          - "Sao Jose do Egypto"
        ascii_name: "Sao Jose do Egito"
        geonamesid: 3388435
        latitude: -7.47889
        longitude: -37.27444
        name: "São José do Egito"
        names_en: ~
        names_es: ~
        population: 18218
        timezone: America/Recife
      - 
        alternate_names: 
          - Belmonte
          - Manicobal
          - Manissobal
          - Maniçobal
        ascii_name: "Sao Jose do Belmonte"
        geonamesid: 3388440
        latitude: -7.86139
        longitude: -38.75972
        name: "São José do Belmonte"
        names_en: ~
        names_es: ~
        population: 14211
        timezone: America/Recife
      - 
        alternate_names: 
          - Puiracu
          - Puirassu
          - Puirassú
          - Puiraçu
        ascii_name: "Sao Jose da Coroa Grande"
        geonamesid: 3388456
        latitude: -8.89778
        longitude: -35.14778
        name: "São José da Coroa Grande"
        names_en: ~
        names_es: ~
        population: 11512
        timezone: America/Recife
      - 
        alternate_names: 
          - Camaratuba
          - "Sao Joaquim"
          - "São Joaquim"
        ascii_name: "Sao Joaquim do Monte"
        geonamesid: 3388567
        latitude: -8.4325
        longitude: -35.80444
        name: "São Joaquim do Monte"
        names_en: ~
        names_es: ~
        population: 13520
        timezone: America/Recife
      - 
        alternate_names: ~
        ascii_name: "Sao Joao"
        geonamesid: 3388660
        latitude: -8.87556
        longitude: -36.36667
        name: "São João"
        names_en: ~
        names_es: ~
        population: 6926
        timezone: America/Recife
      - 
        alternate_names: 
          - "Boa Vista"
          - Coripos
          - Coripós
          - "Santa Maria Boa Vista"
        ascii_name: "Santa Maria da Boa Vista"
        geonamesid: 3389462
        latitude: -8.80778
        longitude: -39.82556
        name: "Santa Maria da Boa Vista"
        names_en: ~
        names_es: ~
        population: 14695
        timezone: America/Bahia
      - 
        alternate_names: 
          - Capibaribe
          - "Santa Cruz"
        ascii_name: "Santa Cruz do Capibaribe"
        geonamesid: 3389652
        latitude: -7.9575
        longitude: -36.20472
        name: "Santa Cruz do Capibaribe"
        names_en: ~
        names_es: ~
        population: 76450
        timezone: America/Recife
      - 
        alternate_names: 
          - Salgejru
          - Salqueiro
          - Салгейру
        ascii_name: Salgueiro
        geonamesid: 3389860
        latitude: -8.07417
        longitude: -39.11917
        name: Salgueiro
        names_en: ~
        names_es: ~
        population: 42152
        timezone: America/Recife
      - 
        alternate_names: ~
        ascii_name: "Rio Formoso"
        geonamesid: 3390295
        latitude: -8.66361
        longitude: -35.15861
        name: "Rio Formoso"
        names_en: ~
        names_es: ~
        population: 15518
        timezone: America/Recife
      - 
        alternate_names: ~
        ascii_name: Ribeirao
        geonamesid: 3390326
        latitude: -8.51444
        longitude: -35.37778
        name: Ribeirão
        names_en: ~
        names_es: ~
        population: 29818
        timezone: America/Recife
      - 
        alternate_names: 
          - Arrecife
          - Mauricea
          - Mauricéa
          - Pernambuco
        ascii_name: Recife
        geonamesid: 3390760
        latitude: -8.05389
        longitude: -34.88111
        name: Recife
        names_en: 
          - Recife
        names_es: 
          - Recife
        population: 1478098
        timezone: America/Recife
      - 
        alternate_names: ~
        ascii_name: Quipapa
        geonamesid: 3390965
        latitude: -8.82778
        longitude: -36.01167
        name: Quipapá
        names_en: ~
        names_es: ~
        population: 11533
        timezone: America/Recife
      - 
        alternate_names: 
          - "Sao Joao dos Pombos"
          - "São João dos Pombos"
        ascii_name: Pombos
        geonamesid: 3391556
        latitude: -8.14139
        longitude: -35.39583
        name: Pombos
        names_en: ~
        names_es: ~
        population: 15894
        timezone: America/Recife
      - 
        alternate_names: 
          - Petrolina
          - Петролина
        ascii_name: Petrolina
        geonamesid: 3392242
        latitude: -9.39861
        longitude: -40.50083
        name: Petrolina
        names_en: ~
        names_es: ~
        population: 194650
        timezone: America/Recife
      - 
        alternate_names: 
          - Itaparica
          - Jatoba
          - Jatobe
          - Jatobá
        ascii_name: Jatoba
        geonamesid: 3392243
        latitude: -9.18306
        longitude: -38.26889
        name: Jatobá
        names_en: ~
        names_es: ~
        population: 20575
        timezone: America/Recife
      - 
        alternate_names: ~
        ascii_name: Pesqueira
        geonamesid: 3392251
        latitude: -8.35778
        longitude: -36.69639
        name: Pesqueira
        names_en: ~
        names_es: ~
        population: 41896
        timezone: America/Recife
      - 
        alternate_names: ~
        ascii_name: Pedra
        geonamesid: 3392657
        latitude: -8.49694
        longitude: -36.94083
        name: Pedra
        names_en: ~
        names_es: ~
        population: 11196
        timezone: America/Recife
      - 
        alternate_names: 
          - Paulista
          - Паулиста
        ascii_name: Paulista
        geonamesid: 3392740
        latitude: -7.94083
        longitude: -34.87306
        name: Paulista
        names_en: 
          - Paulista
        names_es: ~
        population: 289971
        timezone: America/Recife
      - 
        alternate_names: 
          - Malhada
          - Pacira
          - "Pedra Tapada"
        ascii_name: Passira
        geonamesid: 3392916
        latitude: -7.995
        longitude: -35.58056
        name: Passira
        names_en: ~
        names_es: ~
        population: 12664
        timezone: America/Recife
      - 
        alternate_names: 
          - Leopoldina
        ascii_name: Parnamirim
        geonamesid: 3392997
        latitude: -8.09056
        longitude: -39.57833
        name: Parnamirim
        names_en: ~
        names_es: ~
        population: 7928
        timezone: America/Recife
      - 
        alternate_names: ~
        ascii_name: Palmares
        geonamesid: 3393264
        latitude: -8.68333
        longitude: -35.59167
        name: Palmares
        names_en: ~
        names_es: ~
        population: 41679
        timezone: America/Recife
      - 
        alternate_names: 
          - Ouricury
        ascii_name: Ouricuri
        geonamesid: 3393452
        latitude: -7.8825
        longitude: -40.08167
        name: Ouricuri
        names_en: ~
        names_es: ~
        population: 29317
        timezone: America/Recife
      - 
        alternate_names: 
          - Queimadas
        ascii_name: Orobo
        geonamesid: 3393470
        latitude: -7.745
        longitude: -35.60222
        name: Orobó
        names_en: ~
        names_es: ~
        population: 5884
        timezone: America/Recife
      - 
        alternate_names: 
          - Olinda
          - olinda
          - Олинда
          - אולינדה
        ascii_name: Olinda
        geonamesid: 3393536
        latitude: -8.00889
        longitude: -34.85528
        name: Olinda
        names_en: 
          - Olinda
        names_es: 
          - Olinda
        population: 366754
        timezone: America/Recife
      - 
        alternate_names: 
          - Nazar-da-Mata
          - Nazare
          - Nazareth
          - Nazaré
        ascii_name: "Nazare da Mata"
        geonamesid: 3393972
        latitude: -7.74167
        longitude: -35.22778
        name: "Nazaré da Mata"
        names_en: ~
        names_es: ~
        population: 26485
        timezone: America/Recife
      - 
        alternate_names: ~
        ascii_name: Moreno
        geonamesid: 3394453
        latitude: -8.11861
        longitude: -35.09222
        name: Moreno
        names_en: ~
        names_es: ~
        population: 45237
        timezone: America/Recife
      - 
        alternate_names: 
          - Marayal
        ascii_name: Maraial
        geonamesid: 3395456
        latitude: -8.7825
        longitude: -35.80889
        name: Maraial
        names_en: ~
        names_es: ~
        population: 14203
        timezone: America/Recife
      - 
        alternate_names: 
          - Macapa
          - Macapá
        ascii_name: Macaparana
        geonamesid: 3396009
        latitude: -7.55472
        longitude: -35.45306
        name: Macaparana
        names_en: ~
        names_es: ~
        population: 14362
        timezone: America/Recife
      - 
        alternate_names: ~
        ascii_name: Limoeiro
        geonamesid: 3396277
        latitude: -7.87472
        longitude: -35.45028
        name: Limoeiro
        names_en: ~
        names_es: ~
        population: 42328
        timezone: America/Recife
      - 
        alternate_names: 
          - Lagedo
          - Lazhedu
          - Лажеду
        ascii_name: Lajedo
        geonamesid: 3396496
        latitude: -8.66361
        longitude: -36.32
        name: Lajedo
        names_en: ~
        names_es: ~
        population: 25261
        timezone: America/Recife
      - 
        alternate_names: ~
        ascii_name: "Lagoa do Itaenga"
        geonamesid: 3396769
        latitude: -7.93611
        longitude: -35.29028
        name: "Lagoa do Itaenga"
        names_en: ~
        names_es: ~
        population: 17719
        timezone: America/Recife
      - 
        alternate_names: ~
        ascii_name: "Joaquim Nabuco"
        geonamesid: 3397262
        latitude: -8.62444
        longitude: -35.53333
        name: "Joaquim Nabuco"
        names_en: ~
        names_es: ~
        population: 9965
        timezone: America/Recife
      - 
        alternate_names: ~
        ascii_name: "Joao Alfredo"
        geonamesid: 3397319
        latitude: -7.85583
        longitude: -35.58833
        name: "João Alfredo"
        names_en: ~
        names_es: ~
        population: 11334
        timezone: America/Recife
      - 
        alternate_names: 
          - Areias
        ascii_name: Itaquitinga
        geonamesid: 3397886
        latitude: -7.66778
        longitude: -35.10167
        name: Itaquitinga
        names_en: ~
        names_es: ~
        population: 11128
        timezone: America/Recife
      - 
        alternate_names: 
          - Itapicuma
          - Itapiçuma
        ascii_name: Itapissuma
        geonamesid: 3397904
        latitude: -7.77639
        longitude: -34.89222
        name: Itapissuma
        names_en: ~
        names_es: ~
        population: 16673
        timezone: America/Recife
      - 
        alternate_names: 
          - "Baixa Verde"
          - Pilar
        ascii_name: Itamaraca
        geonamesid: 3397963
        latitude: -7.74778
        longitude: -34.82556
        name: Itamaracá
        names_en: ~
        names_es: ~
        population: 14969
        timezone: America/Noronha
      - 
        alternate_names: 
          - "Pao Ferro"
          - "Pau Ferro"
          - "Páo Ferro"
        ascii_name: Itaiba
        geonamesid: 3397983
        latitude: -8.9475
        longitude: -37.42278
        name: Itaíba
        names_en: ~
        names_es: ~
        population: 13864
        timezone: America/Recife
      - 
        alternate_names: 
          - Poco-Verde
          - Poço-Verde
        ascii_name: Ipubi
        geonamesid: 3398105
        latitude: -7.65194
        longitude: -40.14889
        name: Ipubi
        names_en: ~
        names_es: ~
        population: 16424
        timezone: America/Recife
      - 
        alternate_names: 
          - Ipozhuka
          - Pojuca
          - Ипожука
        ascii_name: Ipojuca
        geonamesid: 3398115
        latitude: -8.39889
        longitude: -35.06389
        name: Ipojuca
        names_en: ~
        names_es: ~
        population: 53364
        timezone: America/Recife
      - 
        alternate_names: 
          - Igaracu
          - Igaraçu
          - Iguaracu
          - Iguarassu
        ascii_name: Igarassu
        geonamesid: 3398352
        latitude: -7.83417
        longitude: -34.90639
        name: Igarassu
        names_en: ~
        names_es: ~
        population: 86457
        timezone: America/Recife
      - 
        alternate_names: 
          - Mirim
        ascii_name: Ibimirim
        geonamesid: 3398401
        latitude: -8.54056
        longitude: -37.69028
        name: Ibimirim
        names_en: ~
        names_es: ~
        population: 12272
        timezone: America/Recife
      - 
        alternate_names: 
          - Barra
          - "Barra de Sao Joao"
          - "Barra de São João"
          - Guabiraba
        ascii_name: Guabiraba
        geonamesid: 3398622
        latitude: -8.41667
        longitude: -35.66667
        name: Guabiraba
        names_en: ~
        names_es: ~
        population: 9285
        timezone: America/Recife
      - 
        alternate_names: 
          - Gravata
          - Gravatá
        ascii_name: Gravata
        geonamesid: 3398691
        latitude: -8.20111
        longitude: -35.56472
        name: Gravatá
        names_en: 
          - Gravatá
        names_es: 
          - Gravatá
        population: 61249
        timezone: America/Recife
      - 
        alternate_names: 
          - Gojana
          - Goyanna
          - Гояна
        ascii_name: Goiana
        geonamesid: 3398904
        latitude: -7.56056
        longitude: -35.0025
        name: Goiana
        names_en: ~
        names_es: ~
        population: 43980
        timezone: America/Recife
      - 
        alternate_names: 
          - "Gloria de Goyta"
          - "Gloria de Goytá"
        ascii_name: "Gloria do Goita"
        geonamesid: 3398920
        latitude: -8.00167
        longitude: -35.29278
        name: "Glória do Goitá"
        names_en: ~
        names_es: ~
        population: 17374
        timezone: America/Recife
      - 
        alternate_names: 
          - Garan'juns
          - Гараньюнс
        ascii_name: Garanhuns
        geonamesid: 3399058
        latitude: -8.89028
        longitude: -36.49278
        name: Garanhuns
        names_en: ~
        names_es: ~
        population: 110085
        timezone: America/Recife
      - 
        alternate_names: 
          - Camelleira
          - Gamelleira
        ascii_name: Gameleira
        geonamesid: 3399132
        latitude: -8.58444
        longitude: -35.38667
        name: Gameleira
        names_en: ~
        names_es: ~
        population: 19423
        timezone: America/Recife
      - 
        alternate_names: ~
        ascii_name: Floresta
        geonamesid: 3399518
        latitude: -8.60111
        longitude: -38.56861
        name: Floresta
        names_en: ~
        names_es: ~
        population: 18100
        timezone: America/Recife
      - 
        alternate_names: 
          - "Flores da Ribeira de Pajeu"
          - "Flôres da Ribeira de Pajeú"
        ascii_name: Flores
        geonamesid: 3399539
        latitude: -7.86806
        longitude: -37.97472
        name: Flores
        names_en: ~
        names_es: ~
        population: 11692
        timezone: America/Recife
      - 
        alternate_names: 
          - Jardim
        ascii_name: "Feira Nova"
        geonamesid: 3399679
        latitude: -7.95083
        longitude: -35.38917
        name: "Feira Nova"
        names_en: ~
        names_es: ~
        population: 12984
        timezone: America/Recife
      - 
        alternate_names: 
          - "Novo Exu"
        ascii_name: Exu
        geonamesid: 3400541
        latitude: -7.51194
        longitude: -39.72417
        name: Exu
        names_en: ~
        names_es: ~
        population: 10875
        timezone: America/Recife
      - 
        alternate_names: ~
        ascii_name: Escada
        geonamesid: 3400804
        latitude: -8.35917
        longitude: -35.22361
        name: Escada
        names_en: ~
        names_es: ~
        population: 48083
        timezone: America/Recife
      - 
        alternate_names: ~
        ascii_name: Custodia
        geonamesid: 3401138
        latitude: -8.0875
        longitude: -37.64306
        name: Custódia
        names_en: ~
        names_es: ~
        population: 18107
        timezone: America/Recife
      - 
        alternate_names: 
          - Cupyra
        ascii_name: Cupira
        geonamesid: 3401340
        latitude: -8.61667
        longitude: -35.95
        name: Cupira
        names_en: ~
        names_es: ~
        population: 19096
        timezone: America/Recife
      - 
        alternate_names: 
          - Malhada
          - Malhadinha
        ascii_name: Cumaru
        geonamesid: 3401404
        latitude: -8.00611
        longitude: -35.69722
        name: Cumaru
        names_en: ~
        names_es: ~
        population: 6861
        timezone: America/Recife
      - 
        alternate_names: 
          - Goianinha
          - Goyanninha
        ascii_name: Condado
        geonamesid: 3401830
        latitude: -7.58583
        longitude: -35.10583
        name: Condado
        names_en: ~
        names_es: ~
        population: 19585
        timezone: America/Recife
      - 
        alternate_names: ~
        ascii_name: "Cha Grande"
        geonamesid: 3402271
        latitude: -8.23833
        longitude: -35.46167
        name: "Chã Grande"
        names_en: ~
        names_es: ~
        population: 17112
        timezone: America/Recife
      - 
        alternate_names: ~
        ascii_name: Catende
        geonamesid: 3402528
        latitude: -8.66667
        longitude: -35.71667
        name: Catende
        names_en: ~
        names_es: ~
        population: 23322
        timezone: America/Recife
      - 
        alternate_names: 
          - Caruaru
          - Karuaru
          - Каруару
        ascii_name: Caruaru
        geonamesid: 3402655
        latitude: -8.28333
        longitude: -35.97611
        name: Caruaru
        names_en: 
          - Caruaru
        names_es: 
          - Caruaru
        population: 235371
        timezone: America/Recife
      - 
        alternate_names: 
          - Karpina
          - Карпина
        ascii_name: Carpina
        geonamesid: 3402721
        latitude: -7.85083
        longitude: -35.25472
        name: Carpina
        names_en: ~
        names_es: ~
        population: 70689
        timezone: America/Recife
      - 
        alternate_names: ~
        ascii_name: Carnaiba
        geonamesid: 3402848
        latitude: -8.7
        longitude: -37.66667
        name: Carnaíba
        names_en: ~
        names_es: ~
        population: 6019
        timezone: America/Recife
      - 
        alternate_names: 
          - Capoeira
        ascii_name: Capoeiras
        geonamesid: 3403082
        latitude: -8.73472
        longitude: -36.62667
        name: Capoeiras
        names_en: ~
        names_es: ~
        population: 4861
        timezone: America/Recife
      - 
        alternate_names: ~
        ascii_name: Canhotinho
        geonamesid: 3403360
        latitude: -8.88222
        longitude: -36.19111
        name: Canhotinho
        names_en: ~
        names_es: ~
        population: 12074
        timezone: America/Recife
      - 
        alternate_names: 
          - Camocim
          - Camocituba
        ascii_name: "Camocim de Sao Felix"
        geonamesid: 3403685
        latitude: -8.35861
        longitude: -35.76194
        name: "Camocim de São Félix"
        names_en: ~
        names_es: ~
        population: 10270
        timezone: America/Recife
      - 
        alternate_names: ~
        ascii_name: Caetes
        geonamesid: 3404231
        latitude: -8.77306
        longitude: -36.6225
        name: Caetés
        names_en: ~
        names_es: ~
        population: 5386
        timezone: America/Recife
      - 
        alternate_names: ~
        ascii_name: Cachoeirinha
        geonamesid: 3404355
        latitude: -8.48639
        longitude: -36.23306
        name: Cachoeirinha
        names_en: ~
        names_es: ~
        population: 12905
        timezone: America/Recife
      - 
        alternate_names: ~
        ascii_name: Cabrobo
        geonamesid: 3404513
        latitude: -8.51417
        longitude: -39.31
        name: Cabrobó
        names_en: ~
        names_es: ~
        population: 16096
        timezone: America/Recife
      - 
        alternate_names: ~
        ascii_name: Cabo
        geonamesid: 3404545
        latitude: -8.28333
        longitude: -35.03333
        name: Cabo
        names_en: ~
        names_es: ~
        population: 143105
        timezone: America/Recife
      - 
        alternate_names: 
          - Buiki
          - "Vila Nova de Buique"
          - "Vila Nova de Buíque"
          - Буики
        ascii_name: Buique
        geonamesid: 3404766
        latitude: -8.62306
        longitude: -37.15583
        name: Buíque
        names_en: ~
        names_es: ~
        population: 20324
        timezone: America/Recife
      - 
        alternate_names: 
          - "Madre de Deus"
        ascii_name: "Brejo da Madre de Deus"
        geonamesid: 3404862
        latitude: -8.14583
        longitude: -36.37111
        name: "Brejo da Madre de Deus"
        names_en: ~
        names_es: ~
        population: 27369
        timezone: America/Recife
      - 
        alternate_names: ~
        ascii_name: Bonito
        geonamesid: 3405172
        latitude: -8.47028
        longitude: -35.72861
        name: Bonito
        names_en: ~
        names_es: ~
        population: 8865
        timezone: America/Recife
      - 
        alternate_names: ~
        ascii_name: "Bom Jardim"
        geonamesid: 3405339
        latitude: -7.79583
        longitude: -35.58722
        name: "Bom Jardim"
        names_en: ~
        names_es: ~
        population: 13523
        timezone: America/Recife
      - 
        alternate_names: ~
        ascii_name: "Bom Conselho"
        geonamesid: 3405380
        latitude: -9.16972
        longitude: -36.67972
        name: "Bom Conselho"
        names_en: ~
        names_es: ~
        population: 27800
        timezone: America/Recife
      - 
        alternate_names: 
          - Bezerrus
          - Безеррус
        ascii_name: Bezerros
        geonamesid: 3405738
        latitude: -8.23333
        longitude: -35.79694
        name: Bezerros
        names_en: ~
        names_es: ~
        population: 51436
        timezone: America/Recife
      - 
        alternate_names: 
          - "Bello Jardim"
        ascii_name: "Belo Jardim"
        geonamesid: 3405812
        latitude: -8.33556
        longitude: -36.42417
        name: "Belo Jardim"
        names_en: ~
        names_es: ~
        population: 49922
        timezone: America/Recife
      - 
        alternate_names: 
          - Belem
          - "Belem de Cabroba"
          - "Belem do Sao Francisco"
          - Belém
        ascii_name: "Belem de Sao Francisco"
        geonamesid: 3405852
        latitude: -8.75389
        longitude: -38.96583
        name: "Belém de São Francisco"
        names_en: ~
        names_es: ~
        population: 11124
        timezone: America/Recife
      - 
        alternate_names: ~
        ascii_name: Barreiros
        geonamesid: 3406160
        latitude: -8.81833
        longitude: -35.18639
        name: Barreiros
        names_en: ~
        names_es: ~
        population: 35565
        timezone: America/Recife
      - 
        alternate_names: 
          - Arkoverdi
          - "Rio Branco"
          - Арковерди
        ascii_name: Arcoverde
        geonamesid: 3407216
        latitude: -8.41889
        longitude: -37.05389
        name: Arcoverde
        names_en: ~
        names_es: ~
        population: 57163
        timezone: America/Recife
      - 
        alternate_names: 
          - Araripina
          - "Sao Goncalo"
          - "São Gonçalo"
          - Арарипина
        ascii_name: Araripina
        geonamesid: 3407243
        latitude: -7.57611
        longitude: -40.49833
        name: Araripina
        names_en: ~
        names_es: ~
        population: 38569
        timezone: America/Recife
      - 
        alternate_names: 
          - Arassoiaba
          - "Cha do Estevam"
          - "Cha do Estevao"
          - "Châ do Estevam"
        ascii_name: Aracoiaba
        geonamesid: 3407366
        latitude: -7.79028
        longitude: -35.09083
        name: Araçoiaba
        names_en: ~
        names_es: ~
        population: 13095
        timezone: America/Recife
      - 
        alternate_names: 
          - Amaragi
          - Amaragy
        ascii_name: Amaraji
        geonamesid: 3407758
        latitude: -8.38306
        longitude: -35.4525
        name: Amaraji
        names_en: ~
        names_es: ~
        population: 16660
        timezone: America/Recife
      - 
        alternate_names: ~
        ascii_name: Altinho
        geonamesid: 3407871
        latitude: -8.48972
        longitude: -36.05944
        name: Altinho
        names_en: ~
        names_es: ~
        population: 11913
        timezone: America/Recife
      - 
        alternate_names: 
          - "Aguas Bellas"
        ascii_name: "Aguas Belas"
        geonamesid: 3408166
        latitude: -9.11139
        longitude: -37.12306
        name: "Águas Belas"
        names_en: ~
        names_es: ~
        population: 22563
        timezone: America/Recife
      - 
        alternate_names: ~
        ascii_name: "Agua Preta"
        geonamesid: 3408175
        latitude: -8.7075
        longitude: -35.53056
        name: "Água Preta"
        names_en: ~
        names_es: ~
        population: 16444
        timezone: America/Recife
      - 
        alternate_names: 
          - Bebedouro
        ascii_name: Agrestina
        geonamesid: 3408251
        latitude: -8.45806
        longitude: -35.94472
        name: Agrestina
        names_en: ~
        names_es: ~
        population: 14452
        timezone: America/Recife
      - 
        alternate_names: 
          - Afogados
          - "Passagem dos Afogados"
        ascii_name: "Afogados da Ingazeira"
        geonamesid: 3408274
        latitude: -7.75083
        longitude: -37.63917
        name: "Afogados da Ingazeira"
        names_en: ~
        names_es: ~
        population: 25060
        timezone: America/Recife
      - 
        alternate_names: 
          - "Abreu e Lima"
          - Maricota
        ascii_name: "Abreu e Lima"
        geonamesid: 3408404
        latitude: -7.91167
        longitude: -34.90278
        name: "Abreu e Lima"
        names_en: 
          - "Abreu e Lima"
        names_es: ~
        population: 81959
        timezone: America/Recife
      - 
        alternate_names: ~
        ascii_name: "Fernando de Noronha (Distrito Estadual)"
        geonamesid: 6317136
        latitude: -3.84028
        longitude: -32.41083
        name: "Fernando de Noronha (Distrito Estadual)"
        names_en: ~
        names_es: ~
        population: 3012
        timezone: America/Noronha
      - 
        alternate_names: ~
        ascii_name: "Jaboatao dos Guararapes"
        geonamesid: 6317344
        latitude: -8.11278
        longitude: -35.01472
        name: "Jaboatão dos Guararapes"
        names_en: ~
        names_es: ~
        population: 630008
        timezone: America/Recife
    geonamesid: 3392268
    name: Pernambuco
    names_en: ~
    names_es: ~
  - 
    abbr: PB
    ascii_name: "Estado da Paraiba"
    cities: 
      - 
        alternate_names: 
          - Conde
          - Jacoca
        ascii_name: Conde
        geonamesid: 3385077
        latitude: -7.25972
        longitude: -34.9075
        name: Conde
        names_en: ~
        names_es: ~
        population: 15859
        timezone: America/Fortaleza
      - 
        alternate_names: ~
        ascii_name: Umbuzeiro
        geonamesid: 3385778
        latitude: -7.69556
        longitude: -35.66361
        name: Umbuzeiro
        names_en: ~
        names_es: ~
        population: 4588
        timezone: America/Fortaleza
      - 
        alternate_names: 
          - Belem
          - Belém
          - Canaa
          - Canaã
        ascii_name: Uirauna
        geonamesid: 3385850
        latitude: -6.51833
        longitude: -38.41222
        name: Uiraúna
        names_en: ~
        names_es: ~
        population: 7823
        timezone: America/Fortaleza
      - 
        alternate_names: ~
        ascii_name: Triunfo
        geonamesid: 3386027
        latitude: -6.56667
        longitude: -38.6
        name: Triunfo
        names_en: ~
        names_es: ~
        population: 3871
        timezone: America/Fortaleza
      - 
        alternate_names: ~
        ascii_name: Teixeira
        geonamesid: 3386533
        latitude: -7.22278
        longitude: -37.25417
        name: Teixeira
        names_en: ~
        names_es: ~
        population: 9954
        timezone: America/Fortaleza
      - 
        alternate_names: ~
        ascii_name: Tavares
        geonamesid: 3386543
        latitude: -7.63583
        longitude: -37.87833
        name: Tavares
        names_en: ~
        names_es: ~
        population: 4939
        timezone: America/Fortaleza
      - 
        alternate_names: 
          - Batalhao
          - Batalhão
        ascii_name: Taperoa
        geonamesid: 3386693
        latitude: -7.2075
        longitude: -36.82667
        name: Taperoá
        names_en: ~
        names_es: ~
        population: 8879
        timezone: America/Fortaleza
      - 
        alternate_names: 
          - "Sao Thome"
          - "Sao Tome"
          - "São Thomé"
          - "São Tomé"
        ascii_name: Sume
        geonamesid: 3387130
        latitude: -7.67167
        longitude: -36.88
        name: Sumé
        names_en: ~
        names_es: ~
        population: 10440
        timezone: America/Fortaleza
      - 
        alternate_names: 
          - Souza
        ascii_name: Sousa
        geonamesid: 3387202
        latitude: -6.75917
        longitude: -38.22806
        name: Sousa
        names_en: ~
        names_es: ~
        population: 47927
        timezone: America/Fortaleza
      - 
        alternate_names: 
          - Ibiapinopolis
          - Ibiapinópolis
        ascii_name: Soledade
        geonamesid: 3387258
        latitude: -7.05722
        longitude: -36.36278
        name: Soledade
        names_en: ~
        names_es: ~
        population: 8090
        timezone: America/Fortaleza
      - 
        alternate_names: 
          - Moreno
        ascii_name: Solanea
        geonamesid: 3387266
        latitude: -6.755
        longitude: -35.54
        name: Solânea
        names_en: ~
        names_es: ~
        population: 17030
        timezone: America/Fortaleza
      - 
        alternate_names: ~
        ascii_name: "Serra Branca"
        geonamesid: 3387880
        latitude: -6.53333
        longitude: -38.26667
        name: "Serra Branca"
        names_en: ~
        names_es: ~
        population: 8765
        timezone: America/Fortaleza
      - 
        alternate_names: 
          - Jatoba
          - Jatobá
        ascii_name: "Sao Jose de Piranhas"
        geonamesid: 3388442
        latitude: -7.12056
        longitude: -38.50194
        name: "São José de Piranhas"
        names_en: ~
        names_es: ~
        population: 7628
        timezone: America/Fortaleza
      - 
        alternate_names: ~
        ascii_name: "Sao Bento"
        geonamesid: 3388991
        latitude: -6.28333
        longitude: -37.75
        name: "São Bento"
        names_en: ~
        names_es: ~
        population: 24749
        timezone: America/Fortaleza
      - 
        alternate_names: ~
        ascii_name: "Santa Rita"
        geonamesid: 3389321
        latitude: -7.11389
        longitude: -34.97806
        name: "Santa Rita"
        names_en: ~
        names_es: ~
        population: 119893
        timezone: America/Fortaleza
      - 
        alternate_names: ~
        ascii_name: "Santa Luzia"
        geonamesid: 3389560
        latitude: -6.87222
        longitude: -36.91861
        name: "Santa Luzia"
        names_en: ~
        names_es: ~
        population: 13243
        timezone: America/Fortaleza
      - 
        alternate_names: 
          - Abura
          - Aburá
          - Ibura
          - Salgada
        ascii_name: "Salgado de Sao Felix"
        geonamesid: 3389873
        latitude: -7.35694
        longitude: -35.44056
        name: "Salgado de São Félix"
        names_en: ~
        names_es: ~
        population: 4266
        timezone: America/Fortaleza
      - 
        alternate_names: ~
        ascii_name: "Rio Tinto"
        geonamesid: 3390280
        latitude: -6.80306
        longitude: -35.08056
        name: "Rio Tinto"
        names_en: ~
        names_es: ~
        population: 11804
        timezone: America/Fortaleza
      - 
        alternate_names: 
          - "Lagoa do Remigio"
          - "Lagôa do Remigio"
          - Remigio
          - Remígio
        ascii_name: Remigio
        geonamesid: 3390674
        latitude: -6.93333
        longitude: -35.78333
        name: Remígio
        names_en: ~
        names_es: ~
        population: 9659
        timezone: America/Fortaleza
      - 
        alternate_names: ~
        ascii_name: Puxinana
        geonamesid: 3391130
        latitude: -7.16111
        longitude: -35.96056
        name: Puxinanã
        names_en: ~
        names_es: ~
        population: 3210
        timezone: America/Fortaleza
      - 
        alternate_names: 
          - Princesa
          - "Princess Isabel"
          - Princeza
        ascii_name: "Princesa Isabel"
        geonamesid: 3391172
        latitude: -7.73667
        longitude: -37.99333
        name: "Princesa Isabel"
        names_en: ~
        names_es: ~
        population: 12616
        timezone: America/Fortaleza
      - 
        alternate_names: ~
        ascii_name: Pombal
        geonamesid: 3391571
        latitude: -6.77028
        longitude: -37.80167
        name: Pombal
        names_en: ~
        names_es: ~
        population: 21751
        timezone: America/Fortaleza
      - 
        alternate_names: 
          - Joffily
          - Jóffily
        ascii_name: Pocinhos
        geonamesid: 3391762
        latitude: -7.07667
        longitude: -36.06111
        name: Pocinhos
        names_en: ~
        names_es: ~
        population: 7803
        timezone: America/Fortaleza
      - 
        alternate_names: ~
        ascii_name: Pitimbu
        geonamesid: 3391889
        latitude: -7.47056
        longitude: -34.80861
        name: Pitimbu
        names_en: ~
        names_es: ~
        population: 7862
        timezone: America/Fortaleza
      - 
        alternate_names: ~
        ascii_name: Pirpirituba
        geonamesid: 3391895
        latitude: -6.78
        longitude: -35.49861
        name: Pirpirituba
        names_en: ~
        names_es: ~
        population: 8355
        timezone: America/Fortaleza
      - 
        alternate_names: ~
        ascii_name: Pilar
        geonamesid: 3392127
        latitude: -7.26722
        longitude: -35.26
        name: Pilar
        names_en: ~
        names_es: ~
        population: 7588
        timezone: America/Fortaleza
      - 
        alternate_names: 
          - Picuhy
        ascii_name: Picui
        geonamesid: 3392145
        latitude: -6.51056
        longitude: -36.34694
        name: Picuí
        names_en: ~
        names_es: ~
        population: 10779
        timezone: America/Fortaleza
      - 
        alternate_names: ~
        ascii_name: Pianco
        geonamesid: 3392225
        latitude: -7.19806
        longitude: -37.92917
        name: Piancó
        names_en: ~
        names_es: ~
        population: 10481
        timezone: America/Fortaleza
      - 
        alternate_names: ~
        ascii_name: "Pedras de Fogo"
        geonamesid: 3392478
        latitude: -7.40194
        longitude: -35.11639
        name: "Pedras de Fogo"
        names_en: ~
        names_es: ~
        population: 13894
        timezone: America/Recife
      - 
        alternate_names: 
          - Paulista
          - Piranha
          - Паулиста
        ascii_name: Paulista
        geonamesid: 3392742
        latitude: -6.59389
        longitude: -37.62417
        name: Paulista
        names_en: ~
        names_es: ~
        population: 3677
        timezone: America/Fortaleza
      - 
        alternate_names: ~
        ascii_name: Patos
        geonamesid: 3392887
        latitude: -7.02444
        longitude: -37.28
        name: Patos
        names_en: ~
        names_es: ~
        population: 92575
        timezone: America/Fortaleza
      - 
        alternate_names: ~
        ascii_name: "Nova Floresta"
        geonamesid: 3393867
        latitude: -6.45528
        longitude: -36.20333
        name: "Nova Floresta"
        names_en: ~
        names_es: ~
        population: 8623
        timezone: America/Fortaleza
      - 
        alternate_names: ~
        ascii_name: Natuba
        geonamesid: 3394018
        latitude: -7.64139
        longitude: -35.55
        name: Natuba
        names_en: ~
        names_es: ~
        population: 3333
        timezone: America/Fortaleza
      - 
        alternate_names: 
          - Camarazal
        ascii_name: Mulungu
        geonamesid: 3394238
        latitude: -7.02444
        longitude: -35.46194
        name: Mulungu
        names_en: ~
        names_es: ~
        population: 4181
        timezone: America/Fortaleza
      - 
        alternate_names: 
          - "Alagoa do Monteiro"
          - "Alagôa do Monteiro"
          - Monterio
        ascii_name: Monteiro
        geonamesid: 3394549
        latitude: -7.88944
        longitude: -37.12
        name: Monteiro
        names_en: ~
        names_es: ~
        population: 17726
        timezone: America/Fortaleza
      - 
        alternate_names: 
          - Mojeiro
        ascii_name: Mogeiro
        geonamesid: 3394669
        latitude: -7.29944
        longitude: -35.47944
        name: Mogeiro
        names_en: ~
        names_es: ~
        population: 4767
        timezone: America/Fortaleza
      - 
        alternate_names: 
          - Macarandiba
          - Macaranduba
          - Massarandiba
          - Maçarandiba
        ascii_name: Massaranduba
        geonamesid: 3395215
        latitude: -7.20028
        longitude: -35.78917
        name: Massaranduba
        names_en: ~
        names_es: ~
        population: 3153
        timezone: America/Fortaleza
      - 
        alternate_names: 
          - Araca
          - Araça
        ascii_name: Mari
        geonamesid: 3395380
        latitude: -7.06
        longitude: -35.31944
        name: Mari
        names_en: ~
        names_es: ~
        population: 17535
        timezone: America/Fortaleza
      - 
        alternate_names: 
          - "Alagoa Nova"
          - "Alagôa Nova"
        ascii_name: Manaira
        geonamesid: 3395689
        latitude: -7.70611
        longitude: -38.15444
        name: Manaíra
        names_en: ~
        names_es: ~
        population: 4913
        timezone: America/Fortaleza
      - 
        alternate_names: ~
        ascii_name: Mamanguape
        geonamesid: 3395717
        latitude: -6.83861
        longitude: -35.12611
        name: Mamanguape
        names_en: ~
        names_es: ~
        population: 27606
        timezone: America/Fortaleza
      - 
        alternate_names: 
          - Ipaarana
          - Ipauarana
          - Ipuarana
        ascii_name: "Lagoa Seca"
        geonamesid: 3396620
        latitude: -7.17083
        longitude: -35.85361
        name: "Lagoa Seca"
        names_en: ~
        names_es: ~
        population: 8103
        timezone: America/Fortaleza
      - 
        alternate_names: 
          - Barra
          - Ibiapina
        ascii_name: Juru
        geonamesid: 3397003
        latitude: -7.53694
        longitude: -37.81861
        name: Juru
        names_en: ~
        names_es: ~
        population: 3796
        timezone: America/Fortaleza
      - 
        alternate_names: 
          - Jupiranga
          - Serrinha
        ascii_name: Juripiranga
        geonamesid: 3397008
        latitude: -7.37333
        longitude: -35.23806
        name: Juripiranga
        names_en: ~
        names_es: ~
        population: 8320
        timezone: America/Fortaleza
      - 
        alternate_names: ~
        ascii_name: Juazeirinho
        geonamesid: 3397175
        latitude: -6.81667
        longitude: -38.05
        name: Juàzeirinho
        names_en: ~
        names_es: ~
        population: 8846
        timezone: America/Fortaleza
      - 
        alternate_names: 
          - "Cidade Felipea"
          - "Cidade Felipéa"
          - Fredericia
          - Frederícia
        ascii_name: "Joao Pessoa"
        geonamesid: 3397277
        latitude: -7.115
        longitude: -34.86306
        name: "João Pessoa"
        names_en: 
          - "João Pessoa"
        names_es: 
          - "João Pessoa"
        population: 650883
        timezone: America/Fortaleza
      - 
        alternate_names: ~
        ascii_name: Jacarau
        geonamesid: 3397800
        latitude: -6.61222
        longitude: -35.29278
        name: Jacaraú
        names_en: ~
        names_es: ~
        population: 7035
        timezone: America/Fortaleza
      - 
        alternate_names: ~
        ascii_name: Itatuba
        geonamesid: 3397875
        latitude: -7.375
        longitude: -35.62833
        name: Itatuba
        names_en: ~
        names_es: ~
        population: 4951
        timezone: America/Fortaleza
      - 
        alternate_names: 
          - Misericordia
          - Misericórdia
        ascii_name: Itaporanga
        geonamesid: 3397898
        latitude: -7.30444
        longitude: -38.15028
        name: Itaporanga
        names_en: ~
        names_es: ~
        population: 15890
        timezone: America/Fortaleza
      - 
        alternate_names: 
          - Itabayanna
          - Itambe
          - Tabaiana
        ascii_name: Itabaiana
        geonamesid: 3398003
        latitude: -7.32861
        longitude: -35.3325
        name: Itabaiana
        names_en: ~
        names_es: ~
        population: 19100
        timezone: America/Fortaleza
      - 
        alternate_names: ~
        ascii_name: Inga
        geonamesid: 3398224
        latitude: -7.28083
        longitude: -35.60444
        name: Ingá
        names_en: ~
        names_es: ~
        population: 8751
        timezone: America/Fortaleza
      - 
        alternate_names: 
          - Immaculada
        ascii_name: Imaculada
        geonamesid: 3398299
        latitude: -7.38972
        longitude: -37.50917
        name: Imaculada
        names_en: ~
        names_es: ~
        population: 4014
        timezone: America/Fortaleza
      - 
        alternate_names: 
          - Curinhaem
          - Curinhãem
        ascii_name: Gurinhem
        geonamesid: 3398485
        latitude: -7.12389
        longitude: -35.42444
        name: Gurinhém
        names_en: ~
        names_es: ~
        population: 5618
        timezone: America/Fortaleza
      - 
        alternate_names: ~
        ascii_name: Guarabira
        geonamesid: 3398570
        latitude: -6.85472
        longitude: -35.49
        name: Guarabira
        names_en: ~
        names_es: ~
        population: 43749
        timezone: America/Fortaleza
      - 
        alternate_names: ~
        ascii_name: Fagundes
        geonamesid: 3400515
        latitude: -7.355
        longitude: -35.775
        name: Fagundes
        names_en: ~
        names_es: ~
        population: 5137
        timezone: America/Fortaleza
      - 
        alternate_names: ~
        ascii_name: Esperanca
        geonamesid: 3400752
        latitude: -7.03306
        longitude: -35.85722
        name: Esperança
        names_en: ~
        names_es: ~
        population: 18817
        timezone: America/Fortaleza
      - 
        alternate_names: ~
        ascii_name: "Dona Ines"
        geonamesid: 3400963
        latitude: -6.61667
        longitude: -35.63333
        name: "Dona Inês"
        names_en: ~
        names_es: ~
        population: 3709
        timezone: America/Fortaleza
      - 
        alternate_names: ~
        ascii_name: Desterro
        geonamesid: 3401060
        latitude: -7.29056
        longitude: -37.09389
        name: Desterro
        names_en: ~
        names_es: ~
        population: 5374
        timezone: America/Fortaleza
      - 
        alternate_names: 
          - "Serra do Cuite"
          - "Serra do Cuité"
        ascii_name: Cuite
        geonamesid: 3401419
        latitude: -6.48361
        longitude: -36.15361
        name: Cuité
        names_en: ~
        names_es: ~
        population: 11391
        timezone: America/Fortaleza
      - 
        alternate_names: 
          - "Espirito Santo"
          - Maguari
        ascii_name: "Cruz do Espirito Santo"
        geonamesid: 3401457
        latitude: -7.14
        longitude: -35.08639
        name: "Cruz do Espírito Santo"
        names_en: ~
        names_es: ~
        population: 5812
        timezone: America/Fortaleza
      - 
        alternate_names: 
          - Curema
          - "Santa Rita da Curema"
        ascii_name: Coremas
        geonamesid: 3401725
        latitude: -7.01444
        longitude: -37.94583
        name: Coremas
        names_en: ~
        names_es: ~
        population: 11897
        timezone: America/Fortaleza
      - 
        alternate_names: 
          - Catule-do-Rocha
          - Catulé-do-Rocha
        ascii_name: "Catole do Rocha"
        geonamesid: 3402465
        latitude: -6.34389
        longitude: -37.74667
        name: "Catolé do Rocha"
        names_en: ~
        names_es: ~
        population: 19812
        timezone: America/Fortaleza
      - 
        alternate_names: 
          - "Campina Grande"
          - Kampina-Grande
          - kanpinagurande
          - Кампина-Гранде
        ascii_name: "Campina Grande"
        geonamesid: 3403642
        latitude: -7.23056
        longitude: -35.88111
        name: "Campina Grande"
        names_en: 
          - "Campina Grande"
        names_es: 
          - "Campina Grande"
        population: 348936
        timezone: America/Fortaleza
      - 
        alternate_names: ~
        ascii_name: Cajazeiras
        geonamesid: 3404020
        latitude: -6.89028
        longitude: -38.55528
        name: Cajazeiras
        names_en: ~
        names_es: ~
        population: 43913
        timezone: America/Fortaleza
      - 
        alternate_names: 
          - "Cacimbo de Dentro"
        ascii_name: "Cacimba de Dentro"
        geonamesid: 3404306
        latitude: -6.64167
        longitude: -35.79
        name: "Cacimba de Dentro"
        names_en: ~
        names_es: ~
        population: 7447
        timezone: America/Fortaleza
      - 
        alternate_names: 
          - Cabedello
          - Cabedelos
        ascii_name: Cabedelo
        geonamesid: 3404558
        latitude: -6.98111
        longitude: -34.83389
        name: Cabedelo
        names_en: ~
        names_es: ~
        population: 54839
        timezone: America/Fortaleza
      - 
        alternate_names: 
          - Boca-da-Mata
          - "Bocca de Matta"
        ascii_name: Caapora
        geonamesid: 3404656
        latitude: -7.51556
        longitude: -34.90833
        name: Caaporã
        names_en: ~
        names_es: ~
        population: 13769
        timezone: America/Fortaleza
      - 
        alternate_names: ~
        ascii_name: "Boqueirao (1)"
        geonamesid: 3405061
        latitude: -7.5
        longitude: -36.13333
        name: "Boqueirão (1)"
        names_en: ~
        names_es: ~
        population: 11566
        timezone: America/Fortaleza
      - 
        alternate_names: ~
        ascii_name: "Belem do Brejo do Cruz"
        geonamesid: 3405851
        latitude: -6.18861
        longitude: -37.53583
        name: "Belém do Brejo do Cruz"
        names_en: ~
        names_es: ~
        population: 8777
        timezone: America/Fortaleza
      - 
        alternate_names: 
          - Belem
          - "Belem de Caicara"
          - "Belém de Caiçara"
          - Curimatau
        ascii_name: Belem
        geonamesid: 3405863
        latitude: -6.69167
        longitude: -35.53333
        name: Belém
        names_en: ~
        names_es: ~
        population: 15550
        timezone: America/Fortaleza
      - 
        alternate_names: ~
        ascii_name: Bayeux
        geonamesid: 3405940
        latitude: -7.125
        longitude: -34.93222
        name: Bayeux
        names_en: ~
        names_es: ~
        population: 91056
        timezone: America/Fortaleza
      - 
        alternate_names: ~
        ascii_name: Bananeiras
        geonamesid: 3406503
        latitude: -6.75
        longitude: -35.63333
        name: Bananeiras
        names_en: ~
        names_es: ~
        population: 7371
        timezone: America/Fortaleza
      - 
        alternate_names: ~
        ascii_name: Aroeiras
        geonamesid: 3407091
        latitude: -7.54528
        longitude: -35.7075
        name: Aroeiras
        names_en: ~
        names_es: ~
        population: 7019
        timezone: America/Fortaleza
      - 
        alternate_names: ~
        ascii_name: Areia
        geonamesid: 3407210
        latitude: -6.96333
        longitude: -35.69167
        name: Areia
        names_en: ~
        names_es: ~
        population: 13824
        timezone: America/Fortaleza
      - 
        alternate_names: ~
        ascii_name: Araruna
        geonamesid: 3407239
        latitude: -6.55833
        longitude: -35.74167
        name: Araruna
        names_en: ~
        names_es: ~
        population: 7667
        timezone: America/Fortaleza
      - 
        alternate_names: ~
        ascii_name: Arara
        geonamesid: 3407297
        latitude: -6.82833
        longitude: -35.75833
        name: Arara
        names_en: ~
        names_es: ~
        population: 7641
        timezone: America/Fortaleza
      - 
        alternate_names: ~
        ascii_name: Alhandra
        geonamesid: 3407940
        latitude: -7.43861
        longitude: -34.91444
        name: Alhandra
        names_en: ~
        names_es: ~
        population: 10788
        timezone: America/Fortaleza
      - 
        alternate_names: 
          - Tauatuba
        ascii_name: Alagoinha
        geonamesid: 3408094
        latitude: -6.95
        longitude: -35.545
        name: Alagoinha
        names_en: ~
        names_es: ~
        population: 7474
        timezone: America/Fortaleza
      - 
        alternate_names: 
          - Larangeiras
          - Laranjeiras
        ascii_name: "Alagoa Nova"
        geonamesid: 3408097
        latitude: -7.07083
        longitude: -35.75833
        name: "Alagoa Nova"
        names_en: ~
        names_es: ~
        population: 9182
        timezone: America/Fortaleza
      - 
        alternate_names: ~
        ascii_name: "Alagoa Grande"
        geonamesid: 3408100
        latitude: -7.15833
        longitude: -35.63
        name: "Alagoa Grande"
        names_en: ~
        names_es: ~
        population: 16406
        timezone: America/Fortaleza
    geonamesid: 3393098
    name: Paraíba
    names_en: ~
    names_es: ~
  - 
    abbr: PA
    ascii_name: "Estado do Para"
    cities: 
      - 
        alternate_names: 
          - Vizeu
        ascii_name: Viseu
        geonamesid: 3385022
        latitude: -1.19667
        longitude: -46.14
        name: Viseu
        names_en: ~
        names_es: ~
        population: 18958
        timezone: America/Santarem
      - 
        alternate_names: ~
        ascii_name: Vigia
        geonamesid: 3385088
        latitude: -0.85833
        longitude: -48.14167
        name: Vigia
        names_en: ~
        names_es: ~
        population: 29229
        timezone: America/Santarem
      - 
        alternate_names: 
          - Alcobaca
          - Alcobaça
        ascii_name: Tucurui
        geonamesid: 3385935
        latitude: -3.76611
        longitude: -49.6725
        name: Tucuruí
        names_en: ~
        names_es: ~
        population: 76337
        timezone: America/Santarem
      - 
        alternate_names: ~
        ascii_name: Tucuma
        geonamesid: 3385980
        latitude: -0.18333
        longitude: -50.05
        name: Tucumã
        names_en: ~
        names_es: ~
        population: 15030
        timezone: America/Santarem
      - 
        alternate_names: ~
        ascii_name: "Tome Acu"
        geonamesid: 3386279
        latitude: -2.41889
        longitude: -48.15222
        name: "Tomé Açu"
        names_en: ~
        names_es: ~
        population: 34053
        timezone: America/Santarem
      - 
        alternate_names: ~
        ascii_name: "Terra Santa"
        geonamesid: 3386467
        latitude: -2.10417
        longitude: -56.48694
        name: "Terra Santa"
        names_en: ~
        names_es: ~
        population: 13512
        timezone: America/Santarem
      - 
        alternate_names: ~
        ascii_name: Soure
        geonamesid: 3387204
        latitude: -0.71667
        longitude: -48.52333
        name: Soure
        names_en: ~
        names_es: ~
        population: 18212
        timezone: America/Santarem
      - 
        alternate_names: ~
        ascii_name: "Senador Jose Porfirio"
        geonamesid: 3387928
        latitude: -2.59083
        longitude: -51.95417
        name: "Senador José Porfírio"
        names_en: ~
        names_es: ~
        population: 5708
        timezone: America/Santarem
      - 
        alternate_names: 
          - Guama
          - Guamá
        ascii_name: "Sao Miguel do Guama"
        geonamesid: 3388270
        latitude: -1.62667
        longitude: -47.48333
        name: "São Miguel do Guamá"
        names_en: ~
        names_es: ~
        population: 28265
        timezone: America/Santarem
      - 
        alternate_names: ~
        ascii_name: "Sao Joao de Pirabas"
        geonamesid: 3388626
        latitude: -0.77472
        longitude: -47.17722
        name: "São João de Pirabas"
        names_en: ~
        names_es: ~
        population: 10065
        timezone: America/Santarem
      - 
        alternate_names: ~
        ascii_name: "Sao Geraldo do Araguaia"
        geonamesid: 3388760
        latitude: -6.40056
        longitude: -48.555
        name: "São Geraldo do Araguaia"
        names_en: ~
        names_es: ~
        population: 12925
        timezone: America/Araguaina
      - 
        alternate_names: 
          - "Sao Felix"
          - "São Felix"
        ascii_name: "Sao Felix do Xingu"
        geonamesid: 3388847
        latitude: -6.64472
        longitude: -51.995
        name: "São Félix do Xingu"
        names_en: ~
        names_es: ~
        population: 16477
        timezone: America/Santarem
      - 
        alternate_names: 
          - "Sao Caetano de Odivellas"
          - "São Caetano de Odivellas"
        ascii_name: "Sao Caetano de Odivelas"
        geonamesid: 3388926
        latitude: -0.75
        longitude: -48.02
        name: "São Caetano de Odivelas"
        names_en: ~
        names_es: ~
        population: 8862
        timezone: America/Santarem
      - 
        alternate_names: 
          - "Santo Antonio"
          - "Santo Antonio de Taua"
          - "Santo Antônio"
          - "Santo Antônio de Tauá"
        ascii_name: "Santo Antonio do Taua"
        geonamesid: 3389062
        latitude: -1.15194
        longitude: -48.12944
        name: "Santo Antônio do Tauá"
        names_en: ~
        names_es: ~
        population: 8921
        timezone: America/Santarem
      - 
        alternate_names: 
          - Santarem
          - Santaren
          - Santarém
          - Сантарен
        ascii_name: Santarem
        geonamesid: 3389353
        latitude: -2.44306
        longitude: -54.70833
        name: Santarém
        names_en: 
          - Santarém
        names_es: 
          - Santarém
        population: 189047
        timezone: America/Santarem
      - 
        alternate_names: 
          - "Santa Maria"
        ascii_name: "Santa Maria do Para"
        geonamesid: 3389459
        latitude: -1.35028
        longitude: -47.57556
        name: "Santa Maria do Pará"
        names_en: ~
        names_es: ~
        population: 12915
        timezone: America/Santarem
      - 
        alternate_names: 
          - Salinas
        ascii_name: Salinopolis
        geonamesid: 3389822
        latitude: -0.61361
        longitude: -47.35611
        name: Salinópolis
        names_en: ~
        names_es: ~
        population: 40998
        timezone: America/Santarem
      - 
        alternate_names: ~
        ascii_name: Prainha
        geonamesid: 3391287
        latitude: -1.8
        longitude: -53.48
        name: Prainha
        names_en: ~
        names_es: ~
        population: 6481
        timezone: America/Santarem
      - 
        alternate_names: 
          - "Porto de Mos"
          - "Pôrto de Mós"
        ascii_name: "Porto de Moz"
        geonamesid: 3391387
        latitude: -1.74833
        longitude: -52.23833
        name: "Porto de Moz"
        names_en: ~
        names_es: ~
        population: 9912
        timezone: America/Santarem
      - 
        alternate_names: ~
        ascii_name: Portel
        geonamesid: 3391412
        latitude: -1.93556
        longitude: -50.82111
        name: Portel
        names_en: ~
        names_es: ~
        population: 21315
        timezone: America/Belem
      - 
        alternate_names: ~
        ascii_name: Paragominas
        geonamesid: 3393106
        latitude: -2.96667
        longitude: -47.48333
        name: Paragominas
        names_en: ~
        names_es: ~
        population: 69613
        timezone: America/Santarem
      - 
        alternate_names: ~
        ascii_name: Ourem
        geonamesid: 3393455
        latitude: -1.55194
        longitude: -47.11444
        name: Ourém
        names_en: ~
        names_es: ~
        population: 8145
        timezone: America/Santarem
      - 
        alternate_names: ~
        ascii_name: Oriximina
        geonamesid: 3393471
        latitude: -1.76556
        longitude: -55.86611
        name: Oriximiná
        names_en: ~
        names_es: ~
        population: 35581
        timezone: America/Santarem
      - 
        alternate_names: 
          - Araticu
        ascii_name: "Oeiras do Para"
        geonamesid: 3393762
        latitude: -2.00306
        longitude: -49.85444
        name: "Oeiras do Pará"
        names_en: ~
        names_es: ~
        population: 10162
        timezone: America/Santarem
      - 
        alternate_names: ~
        ascii_name: Abidos
        geonamesid: 3393768
        latitude: -1.9175
        longitude: -55.51806
        name: Ábidos
        names_en: ~
        names_es: ~
        population: 24970
        timezone: America/Santarem
      - 
        alternate_names: ~
        ascii_name: Muana
        geonamesid: 3394326
        latitude: -1.52833
        longitude: -49.21667
        name: Muaná
        names_en: ~
        names_es: ~
        population: 7464
        timezone: America/Santarem
      - 
        alternate_names: ~
        ascii_name: "Monte Alegre"
        geonamesid: 3394605
        latitude: -2.00778
        longitude: -54.06917
        name: "Monte Alegre"
        names_en: ~
        names_es: ~
        population: 22840
        timezone: America/Santarem
      - 
        alternate_names: ~
        ascii_name: Moju
        geonamesid: 3394661
        latitude: -1.88389
        longitude: -48.76889
        name: Moju
        names_en: ~
        names_es: ~
        population: 21510
        timezone: America/Santarem
      - 
        alternate_names: ~
        ascii_name: Mocajuba
        geonamesid: 3394745
        latitude: -2.58417
        longitude: -49.50722
        name: Mocajuba
        names_en: ~
        names_es: ~
        population: 16567
        timezone: America/Santarem
      - 
        alternate_names: ~
        ascii_name: Marapanim
        geonamesid: 3395440
        latitude: -0.7175
        longitude: -47.69972
        name: Marapanim
        names_en: ~
        names_es: ~
        population: 10236
        timezone: America/Belem
      - 
        alternate_names: 
          - Cintra
          - Maracana
          - Maracanã
        ascii_name: Maracana
        geonamesid: 3395483
        latitude: -0.76667
        longitude: -47.45
        name: Maracanã
        names_en: ~
        names_es: ~
        population: 12682
        timezone: America/Belem
      - 
        alternate_names: 
          - Maraba
          - Marabá
          - Marada
        ascii_name: Maraba
        geonamesid: 3395503
        latitude: -5.36861
        longitude: -49.11778
        name: Marabá
        names_en: 
          - Marabá
        names_es: ~
        population: 145860
        timezone: America/Santarem
      - 
        alternate_names: 
          - Limoeiro
        ascii_name: "Limoeiro do Ajuru"
        geonamesid: 3396268
        latitude: -1.89528
        longitude: -49.38056
        name: "Limoeiro do Ajuru"
        names_en: ~
        names_es: ~
        population: 4109
        timezone: America/Santarem
      - 
        alternate_names: 
          - "Jurity Novo"
          - "Juruty Novo"
        ascii_name: Juruti
        geonamesid: 3396979
        latitude: -2.15222
        longitude: -56.09222
        name: Juruti
        names_en: ~
        names_es: ~
        population: 13333
        timezone: America/Santarem
      - 
        alternate_names: ~
        ascii_name: Jacareacanga
        geonamesid: 3397763
        latitude: -6.22222
        longitude: -57.75278
        name: Jacareacanga
        names_en: ~
        names_es: ~
        population: 1402
        timezone: America/Santarem
      - 
        alternate_names: ~
        ascii_name: Itupiranga
        geonamesid: 3397851
        latitude: -5.13472
        longitude: -49.32667
        name: Itupiranga
        names_en: ~
        names_es: ~
        population: 21301
        timezone: America/Santarem
