--- 
geonamesid: 732800
iso: BG
name: Bulgaria
names_en: 
  - Bulgaria
names_es: 
  - Bulgaria
regions: 
  - 
    ascii_name: "Oblast Razgrad"
    cities: 
      - 
        alternate_names: 
          - Sawet
          - Zavet
          - Zavjet
          - Zavot
        ascii_name: Zavet
        geonamesid: 725435
        latitude: 43.76667
        longitude: 26.66667
        name: Zavet
        names_en: ~
        names_es: ~
        population: 3589
        timezone: Europe/Sofia
      - 
        alternate_names: 
          - Ashiklar
          - Samuil
          - Самуил
        ascii_name: Samuil
        geonamesid: 727455
        latitude: 43.51667
        longitude: 26.75
        name: Samuil
        names_en: ~
        names_es: ~
        population: 2283
        timezone: Europe/Sofia
      - 
        alternate_names: 
          - Rasgrad
          - Razgrad
          - Разград
        ascii_name: Razgrad
        geonamesid: 727696
        latitude: 43.53333
        longitude: 26.51667
        name: Razgrad
        names_en: ~
        names_es: ~
        population: 38285
        timezone: Europe/Sofia
      - 
        alternate_names: 
          - Kobadin
          - Kobadun
          - Kobadŭn
          - Kubadin
        ascii_name: Loznitsa
        geonamesid: 729530
        latitude: 43.36667
        longitude: 26.6
        name: Loznitsa
        names_en: ~
        names_es: ~
        population: 2971
        timezone: Europe/Sofia
      - 
        alternate_names: 
          - Balbunar
          - Kubrat
          - Кубрат
        ascii_name: Kubrat
        geonamesid: 729839
        latitude: 43.8
        longitude: 26.5
        name: Kubrat
        names_en: ~
        names_es: ~
        population: 8980
        timezone: Europe/Sofia
      - 
        alternate_names: 
          - "Car Kalojan"
          - Khlebarovo
          - Torlak
          - Torlaki
        ascii_name: "Tsar Kaloyan"
        geonamesid: 730415
        latitude: 43.61667
        longitude: 26.25
        name: "Tsar Kaloyan"
        names_en: ~
        names_es: ~
        population: 3994
        timezone: Europe/Sofia
      - 
        alternate_names: 
          - Isperich
          - Isperih
          - Isperikh
          - Kemallar
        ascii_name: Isperikh
        geonamesid: 730866
        latitude: 43.71667
        longitude: 26.83333
        name: Isperikh
        names_en: ~
        names_es: ~
        population: 9735
        timezone: Europe/Sofia
    geonamesid: 453751
    name: Razgrad
    names_en: ~
    names_es: ~
  - 
    ascii_name: "Oblast Montana"
    cities: 
      - 
        alternate_names: 
          - Jakimovo
          - Kotenovtsi
          - Progorelets
          - Voynitsi
        ascii_name: Yakimovo
        geonamesid: 725588
        latitude: 43.64306
        longitude: 23.36778
        name: Yakimovo
        names_en: ~
        names_es: ~
        population: 2665
        timezone: Europe/Sofia
      - 
        alternate_names: 
          - Varshets
          - Varshetz
          - Vershets
          - Vresec
        ascii_name: Vurshets
        geonamesid: 725623
        latitude: 43.19528
        longitude: 23.28611
        name: Vŭrshets
        names_en: ~
        names_es: ~
        population: 7512
        timezone: Europe/Sofia
      - 
        alternate_names: 
          - Valchedarma
          - Valtchedram
          - Valtchidarma
          - Vlcdrma
        ascii_name: Vulchedrum
        geonamesid: 725683
        latitude: 43.69639
        longitude: 23.44472
        name: Vŭlchedrŭm
        names_en: ~
        names_es: ~
        population: 5207
        timezone: Europe/Sofia
      - 
        alternate_names: 
          - Ferdinand
          - Ferdinandovo
          - "Golyama Kutlovitsa"
          - "Khristo Mikhaylov"
        ascii_name: Montana
        geonamesid: 729114
        latitude: 43.4125
        longitude: 23.225
        name: Montana
        names_en: ~
        names_es: ~
        population: 47445
        timezone: Europe/Sofia
      - 
        alternate_names: 
          - Medkovec
          - Medkovets
          - Medkovetz
          - Metkovec
        ascii_name: Medkovets
        geonamesid: 729174
        latitude: 43.62972
        longitude: 23.18111
        name: Medkovets
        names_en: ~
        names_es: ~
        population: 2690
        timezone: Europe/Sofia
      - 
        alternate_names: 
          - "Aligina Makhala"
          - "Dzhembek Makhala"
          - "Kalen Potok"
          - Lom
        ascii_name: Lom
        geonamesid: 729581
        latitude: 43.81389
        longitude: 23.23611
        name: Lom
        names_en: ~
        names_es: ~
        population: 26594
        timezone: Europe/Sofia
      - 
        alternate_names: 
          - Chiporovtsi
          - Chiporovtsu
          - Chiporovtsŭ
          - Chiprovci
        ascii_name: Chiprovtsi
        geonamesid: 732456
        latitude: 43.38417
        longitude: 22.88083
        name: Chiprovtsi
        names_en: ~
        names_es: ~
        population: 2080
        timezone: Europe/Sofia
      - 
        alternate_names: 
          - Brusarci
          - Brusartsi
          - Brussarz
          - Брусарци
        ascii_name: Brusartsi
        geonamesid: 732862
        latitude: 43.66667
        longitude: 23.06667
        name: Brusartsi
        names_en: ~
        names_es: ~
        population: 1734
        timezone: Europe/Sofia
      - 
        alternate_names: 
          - Boichinovtsi
          - Bojchinovci
          - Bojtschinowzi
          - Boychinovtsi
        ascii_name: Boychinovtsi
        geonamesid: 732986
        latitude: 43.47222
        longitude: 23.33583
        name: Boychinovtsi
        names_en: ~
        names_es: ~
        population: 2181
        timezone: Europe/Sofia
      - 
        alternate_names: 
          - Berkovica
          - Berkovitsa
          - Berkovitsay
          - Berkovitza
        ascii_name: Berkovitsa
        geonamesid: 733264
        latitude: 43.23611
        longitude: 23.12583
        name: Berkovitsa
        names_en: ~
        names_es: ~
        population: 15027
        timezone: Europe/Sofia
    geonamesid: 453753
    name: Montana
    names_en: ~
    names_es: ~
  - 
    ascii_name: "Oblast Vratsa"
    cities: 
      - 
        alternate_names: 
          - Vraca
          - Vratca
          - Vratsa
          - Vrattsa
        ascii_name: Vratsa
        geonamesid: 725712
        latitude: 43.21
        longitude: 23.5625
        name: Vratsa
        names_en: ~
        names_es: ~
        population: 64941
        timezone: Europe/Sofia
      - 
        alternate_names: 
          - Roman
          - Роман
        ascii_name: Roman
        geonamesid: 727598
        latitude: 43.15
        longitude: 23.91667
        name: Roman
        names_en: ~
        names_es: ~
        population: 3571
        timezone: Europe/Sofia
      - 
        alternate_names: 
          - Orechovo
          - Orechowo
          - Orehovo
          - Orejekhovo
        ascii_name: Oryakhovo
        geonamesid: 728565
        latitude: 43.73333
        longitude: 23.96667
        name: Oryakhovo
        names_en: ~
        names_es: ~
        population: 5706
        timezone: Europe/Sofia
      - 
        alternate_names: 
          - Buk'ovtsi
          - Bukiowzi
          - Bukyuvtsy
          - Mizija
        ascii_name: Miziya
        geonamesid: 729040
        latitude: 43.68333
        longitude: 23.85
        name: Miziya
        names_en: ~
        names_es: ~
        population: 3712
        timezone: Europe/Sofia
      - 
        alternate_names: 
          - Mesdra
          - Mezdra
          - Mezhdra
          - Mizara
        ascii_name: Mezdra
        geonamesid: 729134
        latitude: 43.15
        longitude: 23.7
        name: Mezdra
        names_en: ~
        names_es: ~
        population: 11975
        timezone: Europe/Sofia
      - 
        alternate_names: 
          - Krivdol
          - Krivodol
          - "Krivodolska Makhala"
          - Kriwodol
        ascii_name: Krivodol
        geonamesid: 729909
        latitude: 43.37444
        longitude: 23.48444
        name: Krivodol
        names_en: ~
        names_es: ~
        population: 3651
        timezone: Europe/Sofia
      - 
        alternate_names: 
          - Koslodui
          - Kozlodui
          - Kozloduj
          - Kozloduy
        ascii_name: Kozloduy
        geonamesid: 730013
        latitude: 43.78333
        longitude: 23.73333
        name: Kozloduy
        names_en: ~
        names_es: ~
        population: 14717
        timezone: Europe/Sofia
      - 
        alternate_names: 
          - Kneja
          - Knesha
          - Kneza
          - Knezha
        ascii_name: Knezha
        geonamesid: 730287
        latitude: 43.5
        longitude: 24.08333
        name: Knezha
        names_en: ~
        names_es: ~
        population: 6889
        timezone: Europe/Sofia
      - 
        alternate_names: 
          - Chairedin
          - Eredin
          - Hajredin
          - Khairedin
        ascii_name: Khayredin
        geonamesid: 730425
        latitude: 43.6
        longitude: 23.66667
        name: Khayredin
        names_en: ~
        names_es: ~
        population: 2228
        timezone: Europe/Sofia
      - 
        alternate_names: 
          - "Bela Slatina"
          - "Biela Slatina"
          - "Bjala Slatina"
          - "Bjela Slatina"
        ascii_name: "Byala Slatina"
        geonamesid: 732704
        latitude: 43.46667
        longitude: 23.93333
        name: "Byala Slatina"
        names_en: ~
        names_es: ~
        population: 13307
        timezone: Europe/Sofia
      - 
        alternate_names: 
          - Borovan
          - Borowan
          - Борован
        ascii_name: Borovan
        geonamesid: 733058
        latitude: 43.43333
        longitude: 23.75
        name: Borovan
        names_en: ~
        names_es: ~
        population: 2941
        timezone: Europe/Sofia
    geonamesid: 725713
    name: Vratsa
    names_en: ~
    names_es: ~
  - 
    ascii_name: "Oblast Varna"
    cities: 
      - 
        alternate_names: 
          - Belevo
          - Belewo
          - Beloslav
          - Beloslaw
        ascii_name: Beloslav
        geonamesid: 725213
        latitude: 43.18333
        longitude: 27.7
        name: Beloslav
        names_en: ~
        names_es: ~
        population: 7989
        timezone: Europe/Sofia
      - 
        alternate_names: 
          - "Kurt Dere"
          - Vulchidol
          - Vŭlchidol
          - "Waltschi Dol"
        ascii_name: Vulchidol
        geonamesid: 725679
        latitude: 43.4
        longitude: 27.55
        name: Vŭlchidol
        names_en: ~
        names_es: ~
        population: 3697
        timezone: Europe/Sofia
      - 
        alternate_names: 
          - Asya-Tepe
          - "Jasi Tepe"
          - Vetrino
          - Vyetreno
        ascii_name: Vetrino
        geonamesid: 725924
        latitude: 43.31667
        longitude: 27.43333
        name: Vetrino
        names_en: ~
        names_es: ~
        population: 1368
        timezone: Europe/Sofia
      - 
        alternate_names: 
          - Barna
          - Odessos
          - Odessus
          - Stalin
        ascii_name: Varna
        geonamesid: 726050
        latitude: 43.21667
        longitude: 27.91667
        name: Varna
        names_en: 
          - Varna
        names_es: 
          - Varna
        population: 312770
        timezone: Europe/Sofia
      - 
        alternate_names: 
          - Kozludza
          - Kozludzha
          - Kozludža
          - Novgradets
        ascii_name: Suvorovo
        geonamesid: 726591
        latitude: 43.33333
        longitude: 27.6
        name: Suvorovo
        names_en: ~
        names_es: ~
        population: 4563
        timezone: Europe/Sofia
      - 
        alternate_names: 
          - Pravodi
          - Provadia
          - Provadidija
          - Provadija
        ascii_name: Provadiya
        geonamesid: 727921
        latitude: 43.18333
        longitude: 27.43333
        name: Provadiya
        names_en: ~
        names_es: ~
        population: 13755
        timezone: Europe/Sofia
      - 
        alternate_names: 
          - Kiten
          - Mukhalii
          - Китен
        ascii_name: Kiten
        geonamesid: 730337
        latitude: 43.08333
        longitude: 27.31667
        name: Kiten
        names_en: ~
        names_es: ~
        population: 1115
        timezone: Europe/Sofia
      - 
        alternate_names: 
          - "Dolen Chiflik"
          - "Dolen Tchiflik"
          - "Dolni Chifl"
          - "Dolni Chiflik"
        ascii_name: "Dolni Chiflik"
        geonamesid: 731453
        latitude: 42.98333
        longitude: 27.71667
        name: "Dolni Chiflik"
        names_en: ~
        names_es: ~
        population: 7169
        timezone: Europe/Sofia
      - 
        alternate_names: 
          - Dalgopol
          - Delgopol
          - Dulgopol
          - Dŭlgopol
        ascii_name: Dulgopol
        geonamesid: 731822
        latitude: 43.05
        longitude: 27.35
        name: Dŭlgopol
        names_en: ~
        names_es: ~
        population: 5272
        timezone: Europe/Sofia
      - 
        alternate_names: 
          - Devne
          - Devnja
          - Dewnja
          - Девня
        ascii_name: Devnya
        geonamesid: 732280
        latitude: 43.22222
        longitude: 27.56944
        name: Devnya
        names_en: ~
        names_es: ~
        population: 8171
        timezone: Europe/Sofia
      - 
        alternate_names: 
          - "Ak Dere"
          - Bela
          - Biela
          - Bjala
        ascii_name: Byala
        geonamesid: 732721
        latitude: 42.88333
        longitude: 27.88333
        name: Byala
        names_en: ~
        names_es: ~
        population: 2327
        timezone: Europe/Sofia
      - 
        alternate_names: 
          - Adzemler
          - Adzhemler
          - Adžemler
          - Aksakov
        ascii_name: Aksakovo
        geonamesid: 733716
        latitude: 43.25
        longitude: 27.81667
        name: Aksakovo
        names_en: ~
        names_es: ~
        population: 7132
        timezone: Europe/Sofia
      - 
        alternate_names: 
          - "Golden Sands"
          - "Zlatni pjasuci"
          - "Zolotye Peski"
          - "Златни пясъци"
        ascii_name: "Zlatni Pyasatsi"
        geonamesid: 6355004
        latitude: 43.285
        longitude: 28.0418
        name: "Zlatni Pyasatsi"
        names_en: 
          - "Golden Sands"
        names_es: ~
        population: 9760
        timezone: Europe/Sofia
    geonamesid: 726051
    name: Varna
    names_en: ~
    names_es: ~
  - 
    ascii_name: "Oblast Dobrich"
    cities: 
      - 
        alternate_names: 
          - Bazargic
          - Dobric
          - Dobrich
          - Dobricz
        ascii_name: Dobrich
        geonamesid: 726418
        latitude: 43.56667
        longitude: 27.83333
        name: Dobrich
        names_en: 
          - Dobrich
        names_es: ~
        population: 94831
        timezone: Europe/Sofia
      - 
        alternate_names: 
          - "Curt Bunar"
          - Curtburnar
          - "Dshami Machala"
          - "Kurt Bunar"
        ascii_name: Tervel
        geonamesid: 726474
        latitude: 43.75
        longitude: 27.4
        name: Tervel
        names_en: ~
        names_es: ~
        population: 6808
        timezone: Europe/Sofia
      - 
        alternate_names: 
          - Sabla
          - Shabla
          - Şabla
          - Шабла
        ascii_name: Shabla
        geonamesid: 727329
        latitude: 43.53333
        longitude: 28.53333
        name: Shabla
        names_en: ~
        names_es: ~
        population: 3901
        timezone: Europe/Sofia
      - 
        alternate_names: 
          - Armuchi
          - Armutli
          - Armutlia
          - Armutlii
        ascii_name: Krushari
        geonamesid: 729880
        latitude: 43.81667
        longitude: 27.75
        name: Krushari
        names_en: ~
        names_es: ~
        population: 1722
        timezone: Europe/Sofia
      - 
        alternate_names: 
          - Cavarna
          - Kavarna
          - Kawarna
          - Каварна
        ascii_name: Kavarna
        geonamesid: 730518
        latitude: 43.43333
        longitude: 28.33333
        name: Kavarna
        names_en: ~
        names_es: ~
        population: 11205
        timezone: Europe/Sofia
      - 
        alternate_names: 
          - Casim
          - "General Tosevo"
          - "General Toševo"
          - General-Toshevo
        ascii_name: General-Toshevo
        geonamesid: 731464
        latitude: 43.7
        longitude: 28.03333
        name: General-Toshevo
        names_en: ~
        names_es: ~
        population: 7758
        timezone: Europe/Sofia
      - 
        alternate_names: 
          - Balchik
          - Balchiq
          - Balcic
          - Baltchik
        ascii_name: Balchik
        geonamesid: 733515
        latitude: 43.41667
        longitude: 28.16667
        name: Balchik
        names_en: 
          - Baltchik
        names_es: ~
        population: 13000
        timezone: Europe/Sofia
    geonamesid: 726419
    name: Dobrich
    names_en: ~
    names_es: ~
  - 
    ascii_name: "Oblast Sofiya"
    cities: 
      - 
        alternate_names: 
          - Slatiza
          - Zlatica
          - Zlatitza
          - Zlatiza
        ascii_name: Zlatitsa
        geonamesid: 725283
        latitude: 42.71667
        longitude: 24.13333
        name: Zlatitsa
        names_en: ~
        names_es: ~
        population: 5786
        timezone: Europe/Sofia
      - 
        alternate_names: 
          - Svogbe
          - Svoge
          - Svoghe
          - Svoghé
        ascii_name: Svoge
        geonamesid: 726524
        latitude: 42.96667
        longitude: 23.35
        name: Svoge
        names_en: ~
        names_es: ~
        population: 8964
        timezone: Europe/Sofia
      - 
        alternate_names: 
          - Slivica
          - Slivnica
          - Slivnitza
          - Sliwniza
        ascii_name: Slivnitsa
        geonamesid: 727069
        latitude: 42.85
        longitude: 23.03333
        name: Slivnitsa
        names_en: ~
        names_es: ~
        population: 7545
        timezone: Europe/Sofia
      - 
        alternate_names: 
          - Samakov
          - Samokov
          - Samokow
          - Samovkov
        ascii_name: Samokov
        geonamesid: 727462
        latitude: 42.33333
        longitude: 23.55
        name: Samokov
        names_en: ~
        names_es: ~
        population: 26765
        timezone: Europe/Sofia
      - 
        alternate_names: 
          - Pravec
          - Pravetz
          - Prawez
          - Правец
        ascii_name: Pravets
        geonamesid: 728011
        latitude: 42.88333
        longitude: 23.91667
        name: Pravets
        names_en: ~
        names_es: ~
        population: 4400
        timezone: Europe/Sofia
      - 
        alternate_names: 
          - Pirdop
          - Пирдоп
        ascii_name: Pirdop
        geonamesid: 728251
        latitude: 42.7
        longitude: 24.18333
        name: Pirdop
        names_en: ~
        names_es: ~
        population: 8136
        timezone: Europe/Sofia
      - 
        alternate_names: 
          - Mirkovo
          - Mirkowo
          - Мирково
        ascii_name: Mirkovo
        geonamesid: 729064
        latitude: 42.7
        longitude: 23.98333
        name: Mirkovo
        names_en: ~
        names_es: ~
        population: 1882
        timezone: Europe/Sofia
      - 
        alternate_names: 
          - Kostinbrod
          - Костинброд
        ascii_name: Kostinbrod
        geonamesid: 730084
        latitude: 42.81667
        longitude: 23.21667
        name: Kostinbrod
        names_en: ~
        names_es: ~
        population: 12175
        timezone: Europe/Sofia
      - 
        alternate_names: 
          - "Avrat Alan"
          - Koprivcica
          - Koprivichtitza
          - Koprivscica
        ascii_name: Koprivshtitsa
        geonamesid: 730159
        latitude: 42.63333
        longitude: 24.35
        name: Koprivshtitsa
        names_en: ~
        names_es: ~
        population: 2885
        timezone: Europe/Sofia
      - 
        alternate_names: 
          - Ichtiman
          - Ihtiman
          - Ikhitman
          - Ikhtiman
        ascii_name: Ikhtiman
        geonamesid: 730919
        latitude: 42.43333
        longitude: 23.81667
        name: Ikhtiman
        names_en: ~
        names_es: ~
        population: 14154
        timezone: Europe/Sofia
      - 
        alternate_names: 
          - "Gorna Malina"
          - "Горна Малина"
        ascii_name: "Gorna Malina"
        geonamesid: 731239
        latitude: 42.68333
        longitude: 23.7
        name: "Gorna Malina"
        names_en: ~
        names_es: ~
        population: 1501
        timezone: Europe/Sofia
      - 
        alternate_names: 
          - Glotnitsa
          - Godec
          - Godech
          - Godetch
        ascii_name: Godech
        geonamesid: 731384
        latitude: 43.015
        longitude: 23.04417
        name: Godech
        names_en: ~
        names_es: ~
        population: 5154
        timezone: Europe/Sofia
      - 
        alternate_names: 
          - Etropole
          - Etropolje
          - Етрополе
        ascii_name: Etropole
        geonamesid: 731626
        latitude: 42.83333
        longitude: 24.0
        name: Etropole
        names_en: ~
        names_es: ~
        population: 11031
        timezone: Europe/Sofia
      - 
        alternate_names: 
          - "Elin Pelin"
          - Novoselci
          - Novoseltsi
          - Novosseltzi
        ascii_name: "Elin Pelin"
        geonamesid: 731675
        latitude: 42.66667
        longitude: 23.6
        name: "Elin Pelin"
        names_en: ~
        names_es: ~
        population: 7373
        timezone: Europe/Sofia
      - 
        alternate_names: 
          - Dragoman
          - Драгоман
        ascii_name: Dragoman
        geonamesid: 731961
        latitude: 42.91889
        longitude: 22.93167
        name: Dragoman
        names_en: ~
        names_es: ~
        population: 3814
        timezone: Europe/Sofia
      - 
        alternate_names: 
          - Banja
          - "Dolna Bania"
          - "Dolna Banja"
          - "Dolna Banya"
        ascii_name: "Dolna Banya"
        geonamesid: 732145
        latitude: 42.3
        longitude: 23.76667
        name: "Dolna Banya"
        names_en: ~
        names_es: ~
        population: 4990
        timezone: Europe/Sofia
      - 
        alternate_names: 
          - Celopec
          - Chelopech
          - Tschelopetsch
          - Čelopeč
        ascii_name: Chelopech
        geonamesid: 732636
        latitude: 42.7
        longitude: 24.08333
        name: Chelopech
        names_en: ~
        names_es: ~
        population: 1760
        timezone: Europe/Sofia
      - 
        alternate_names: 
          - Chavdar
          - Kolanlare
          - Kolanlari
          - Radoslavo
        ascii_name: Chavdar
        geonamesid: 732655
        latitude: 42.65
        longitude: 24.05
        name: Chavdar
        names_en: ~
        names_es: ~
        population: 1398
        timezone: Europe/Sofia
      - 
        alternate_names: 
          - Bojurishe
          - Boshurischte
          - Bozhurishhe
          - Bozhurishte
        ascii_name: Bozhurishte
        geonamesid: 732954
        latitude: 42.75
        longitude: 23.2
        name: Bozhurishte
        names_en: ~
        names_es: ~
        population: 4360
        timezone: Europe/Sofia
      - 
        alternate_names: 
          - Botevgrad
          - Botewgrad
          - Orchanie
          - Orhanie
        ascii_name: Botevgrad
        geonamesid: 733014
        latitude: 42.9
        longitude: 23.78333
        name: Botevgrad
        names_en: ~
        names_es: ~
        population: 20909
        timezone: Europe/Sofia
      - 
        alternate_names: 
          - Anton
          - Lashene
          - Lezhene
          - Ludzhene
        ascii_name: Anton
        geonamesid: 733660
        latitude: 42.75
        longitude: 24.28333
        name: Anton
        names_en: ~
        names_es: ~
        population: 1697
        timezone: Europe/Sofia
    geonamesid: 727012
    name: Sofiya
    names_en: ~
    names_es: ~
  - 
    ascii_name: "Oblast Ruse"
    cities: 
      - 
        alternate_names: 
          - Vetova
          - Vetovo
          - Vjetevo
          - Vyetovo
        ascii_name: Vetovo
        geonamesid: 725935
        latitude: 43.7
        longitude: 26.26667
        name: Vetovo
        names_en: ~
        names_es: ~
        population: 5175
        timezone: Europe/Sofia
      - 
        alternate_names: 
          - Causevo
          - Causkioj
          - Causovo
          - Cauševo
        ascii_name: Tsenovo
        geonamesid: 726245
        latitude: 43.53333
        longitude: 25.65
        name: Tsenovo
        names_en: ~
        names_es: ~
        population: 2229
        timezone: Europe/Sofia
      - 
        alternate_names: 
          - Kashikler
          - "Slivo Pole"
          - "Sliwo Pole"
          - "Сливо Поле"
        ascii_name: "Slivo Pole"
        geonamesid: 727067
        latitude: 43.95
        longitude: 26.2
        name: "Slivo Pole"
        names_en: ~
        names_es: ~
        population: 3252
        timezone: Europe/Sofia
      - 
        alternate_names: 
          - Senevo
          - Senovo
          - Senowo
          - Syenovo
        ascii_name: Senovo
        geonamesid: 727358
        latitude: 43.65
        longitude: 26.36667
        name: Senovo
        names_en: ~
        names_es: ~
        population: 1459
        timezone: Europe/Sofia
      - 
        alternate_names: 
          - Roese
          - Rousse
          - Roussé
          - Roustchouk
        ascii_name: Ruse
        geonamesid: 727523
        latitude: 43.85639
        longitude: 25.97083
        name: Ruse
        names_en: 
          - Rousse
        names_es: 
          - Ruse
        population: 156238
        timezone: Europe/Sofia
      - 
        alternate_names: 
          - Ivanovo
          - Iwanowo
          - Иваново
        ascii_name: Ivanovo
        geonamesid: 730852
        latitude: 43.7
        longitude: 25.98333
        name: Ivanovo
        names_en: ~
        names_es: ~
        population: 1031
        timezone: Europe/Sofia
      - 
        alternate_names: 
          - Damogila
          - "Dbb Mogili"
          - "Dve mogili"
          - "Dwe Mogili"
        ascii_name: "Dve Mogili"
        geonamesid: 731771
        latitude: 43.6
        longitude: 25.86667
        name: "Dve Mogili"
        names_en: ~
        names_es: ~
        population: 4526
        timezone: Europe/Sofia
      - 
        alternate_names: 
          - Borovo
          - "Gorna Manastiritsa"
          - Gorna-Manastiriza
          - Gorna-Monastir
        ascii_name: Borovo
        geonamesid: 733043
        latitude: 43.5
        longitude: 25.8
        name: Borovo
        names_en: ~
        names_es: ~
        population: 2467
        timezone: Europe/Sofia
    geonamesid: 727524
    name: Ruse
    names_en: ~
    names_es: ~
  - 
    ascii_name: "Oblast Plovdiv"
    cities: 
      - 
        alternate_names: 
          - "Golemo Konare"
          - "Goljamo Konare"
          - "Goljemo Konare"
          - "Goljemo Konari"
        ascii_name: Suedinenie
        geonamesid: 726657
        latitude: 42.26667
        longitude: 24.55
        name: Sŭedinenie
        names_en: ~
        names_es: ~
        population: 6427
        timezone: Europe/Sofia
      - 
        alternate_names: 
          - "Gara Krichim"
          - Krichim
          - "Novi Krichim"
          - Stambolijski
        ascii_name: Stamboliyski
        geonamesid: 726890
        latitude: 42.13333
        longitude: 24.53333
        name: Stamboliyski
        names_en: ~
        names_es: ~
        population: 12070
        timezone: Europe/Sofia
      - 
        alternate_names: 
          - Cheshnegir
          - Cheshnigurovo
          - Cheshnigŭrovo
          - Sadova
        ascii_name: Sadovo
        geonamesid: 727479
        latitude: 42.13333
        longitude: 24.93333
        name: Sadovo
        names_en: ~
        names_es: ~
        population: 2656
        timezone: Europe/Sofia
      - 
        alternate_names: 
          - "General Niklaevo"
          - "General Nikolaevo"
          - "General Nikolaewo"
          - Kalich
        ascii_name: Rakovski
        geonamesid: 727791
        latitude: 42.3
        longitude: 24.96667
        name: Rakovski
        names_en: ~
        names_es: ~
        population: 15782
        timezone: Europe/Sofia
      - 
        alternate_names: 
          - Eumolpias
          - Filiba
          - Filibe
          - Filipopol
        ascii_name: Plovdiv
        geonamesid: 728193
        latitude: 42.15
        longitude: 24.75
        name: Plovdiv
        names_en: 
          - Plovdiv
        names_es: 
          - Plovdiv
        population: 340494
        timezone: Europe/Sofia
      - 
        alternate_names: 
          - Perishchitsa
          - Peruschtiza
          - Perushchitsa
          - Perushhica
        ascii_name: Perushtitsa
        geonamesid: 728321
        latitude: 42.05
        longitude: 24.55
        name: Perushtitsa
        names_en: ~
        names_es: ~
        population: 5350
        timezone: Europe/Sofia
      - 
        alternate_names: 
          - Laki
          - Luki
          - Lŭki
          - Лъки
        ascii_name: Luki
        geonamesid: 729509
        latitude: 41.85
        longitude: 24.81667
        name: Lŭki
        names_en: ~
        names_es: ~
        population: 3258
        timezone: Europe/Sofia
      - 
        alternate_names: 
          - Krichim
          - Kricim
          - Kricima
          - Krinchim
        ascii_name: Krichim
        geonamesid: 729936
        latitude: 42.05
        longitude: 24.46667
        name: Krichim
        names_en: ~
        names_es: ~
        population: 8580
        timezone: Europe/Sofia
      - 
        alternate_names: 
          - Derbend
          - Klissoura
          - Klissura
          - Klisura
        ascii_name: Klisura
        geonamesid: 730301
        latitude: 42.7
        longitude: 24.45
        name: Klisura
        names_en: ~
        names_es: ~
        population: 1485
        timezone: Europe/Sofia
      - 
        alternate_names: 
          - Banja
          - Banya
          - Chissar
          - Hisar
        ascii_name: Khisarya
        geonamesid: 730419
        latitude: 42.5
        longitude: 24.7
        name: Khisarya
        names_en: ~
        names_es: ~
        population: 7903
        timezone: Europe/Sofia
      - 
        alternate_names: 
          - "Grad Karlove"
          - Karliova
          - Karlovo
          - Karlowo
        ascii_name: Karlovo
        geonamesid: 730565
        latitude: 42.63333
        longitude: 24.8
        name: Karlovo
        names_en: 
          - Karlovo
        names_es: ~
        population: 19958
        timezone: Europe/Sofia
      - 
        alternate_names: 
          - Kalojanovo
          - Kalojanowo
          - Kaloyanovo
          - Seldzhikovo
        ascii_name: Kaloyanovo
        geonamesid: 730733
        latitude: 42.35
        longitude: 24.73333
        name: Kaloyanovo
        names_en: ~
        names_es: ~
        population: 2782
        timezone: Europe/Sofia
      - 
        alternate_names: 
          - Kalofer
          - Kaloter
          - Калофер
        ascii_name: Kalofer
        geonamesid: 730744
        latitude: 42.61667
        longitude: 24.98333
        name: Kalofer
        names_en: ~
        names_es: ~
        population: 3248
        timezone: Europe/Sofia
      - 
        alternate_names: 
          - D'ovlen
          - Devin
          - Devine
          - Dewin
        ascii_name: Devin
        geonamesid: 732285
        latitude: 41.74327
        longitude: 24.40003
        name: Devin
        names_en: 
          - Devin
        names_es: ~
        population: 7393
        timezone: Europe/Sofia
      - 
        alternate_names: 
          - Abrashlare
          - Abraslare
          - Bresowo
          - Brezovo
        ascii_name: Brezovo
        geonamesid: 732874
        latitude: 42.35
        longitude: 25.08333
        name: Brezovo
        names_en: ~
        names_es: ~
        population: 1947
        timezone: Europe/Sofia
      - 
        alternate_names: 
          - Asenovgrad
          - Assenovgrad
          - Assenovgrade
          - Assenowgrad
        ascii_name: Asenovgrad
        geonamesid: 733618
        latitude: 42.01667
        longitude: 24.86667
        name: Asenovgrad
        names_en: ~
        names_es: ~
        population: 52170
        timezone: Europe/Sofia
    geonamesid: 728194
    name: Plovdiv
    names_en: ~
    names_es: ~
  - 
    ascii_name: "Oblast Pleven"
    cities: 
      - 
        alternate_names: 
          - Slavianovo
          - Slavjanovo
          - Slavyanovo
          - Slawjanowo
        ascii_name: Slavyanovo
        geonamesid: 727087
        latitude: 43.46667
        longitude: 24.86667
        name: Slavyanovo
        names_en: ~
        names_es: ~
        population: 4793
        timezone: Europe/Sofia
      - 
        alternate_names: 
          - Pordim
          - Pordime
          - Porodim
          - Пордим
        ascii_name: Pordim
        geonamesid: 728056
        latitude: 43.38333
        longitude: 24.85
        name: Pordim
        names_en: ~
        names_es: ~
        population: 2230
        timezone: Europe/Sofia
      - 
        alternate_names: 
          - Pleven
          - Plevna
          - Plevne
          - Plewen
        ascii_name: Pleven
        geonamesid: 728203
        latitude: 43.41667
        longitude: 24.61667
        name: Pleven
        names_en: 
          - Pleven
        names_es: 
          - Pleven
        population: 118675
        timezone: Europe/Sofia
      - 
        alternate_names: 
          - Iskur
          - Iskŭr
          - Machalata
          - Machlata
        ascii_name: Iskur
        geonamesid: 728348
        latitude: 43.45
        longitude: 24.26667
        name: Iskŭr
        names_en: ~
        names_es: ~
        population: 4329
        timezone: Europe/Sofia
      - 
        alternate_names: 
          - Nicopol
          - Nikopil
          - Nikopol
          - Nikopoli
        ascii_name: Nikopol
        geonamesid: 728782
        latitude: 43.7
        longitude: 24.9
        name: Nikopol
        names_en: ~
        names_es: ~
        population: 4137
        timezone: Europe/Sofia
      - 
        alternate_names: 
          - "Kara Agach"
          - Levski
          - Lewski
          - "Turski Karaagach"
        ascii_name: Levski
        geonamesid: 729636
        latitude: 43.36667
        longitude: 25.13333
        name: Levski
        names_en: ~
        names_es: ~
        population: 11467
        timezone: Europe/Sofia
      - 
        alternate_names: 
          - Koinare
          - Kojnare
          - Koynare
          - Койнаре
        ascii_name: Koynare
        geonamesid: 730040
        latitude: 43.35
        longitude: 24.13333
        name: Koynare
        names_en: ~
        names_es: ~
        population: 2926
        timezone: Europe/Sofia
      - 
        alternate_names: 
          - Galyantsi
          - Golenci
          - Guleanci
          - Guljanci
        ascii_name: Gulyantsi
        geonamesid: 730982
        latitude: 43.63333
        longitude: 24.7
        name: Gulyantsi
        names_en: ~
        names_es: ~
        population: 3589
        timezone: Europe/Sofia
      - 
        alternate_names: 
          - Diubnik
          - "Dolni Dabnik"
          - "Dolni Dibnik"
          - "Dolni Dobnik"
        ascii_name: "Dolni Dubnik"
        geonamesid: 732099
        latitude: 43.4
        longitude: 24.43333
        name: "Dolni Dŭbnik"
        names_en: ~
        names_es: ~
        population: 5259
        timezone: Europe/Sofia
      - 
        alternate_names: 
          - "Dolna Metropolja"
          - "Dolna Mitropolia"
          - "Dolna Mitropolija"
          - "Dolna Netropol Mitropoliya"
        ascii_name: "Dolna Mitropoliya"
        geonamesid: 732122
        latitude: 43.46667
        longitude: 24.53333
        name: "Dolna Mitropoliya"
        names_en: ~
        names_es: ~
        population: 3479
        timezone: Europe/Sofia
      - 
        alternate_names: 
          - Cerven-Breg
          - "Cherven brjag"
          - Cherven-Breg
          - Cherven-Bryeg
        ascii_name: "Cherven Bryag"
        geonamesid: 732491
        latitude: 43.26667
        longitude: 24.1
        name: "Cherven Bryag"
        names_en: ~
        names_es: ~
        population: 21688
        timezone: Europe/Sofia
      - 
        alternate_names: 
          - Beleke
          - Belene
          - Belina
          - Bjelene
        ascii_name: Belene
        geonamesid: 733359
        latitude: 43.65
        longitude: 25.11667
        name: Belene
        names_en: ~
        names_es: ~
        population: 9781
        timezone: Europe/Sofia
    geonamesid: 728204
    name: Pleven
    names_en: ~
    names_es: ~
  - 
    ascii_name: "Oblast Pernik"
    cities: 
      - 
        alternate_names: 
          - Belovo
          - Bjelovo
          - Byelovo
          - Semen
        ascii_name: Zemen
        geonamesid: 725402
        latitude: 42.47889
        longitude: 22.74917
        name: Zemen
        names_en: ~
        names_es: ~
        population: 2107
        timezone: Europe/Sofia
      - 
        alternate_names: 
          - Tran
          - Tren
          - Trin
          - Trn
        ascii_name: Trun
        geonamesid: 726307
        latitude: 42.83528
        longitude: 22.65167
        name: Trŭn
        names_en: ~
        names_es: ~
        population: 3102
        timezone: Europe/Sofia
      - 
        alternate_names: 
          - Batanovci
          - Batanovitsi
          - Batanovtsi
          - Batanovtzi
        ascii_name: Batanovtsi
        geonamesid: 726489
        latitude: 42.59972
        longitude: 22.95056
        name: Batanovtsi
        names_en: ~
        names_es: ~
        population: 2519
        timezone: Europe/Sofia
      - 
        alternate_names: 
          - Radomir
          - Радомир
        ascii_name: Radomir
        geonamesid: 727832
        latitude: 42.54444
        longitude: 22.95778
        name: Radomir
        names_en: ~
        names_es: ~
        population: 14755
        timezone: Europe/Sofia
      - 
        alternate_names: 
          - Dimitrovo
          - Pernik
          - Перник
        ascii_name: Pernik
        geonamesid: 728330
        latitude: 42.6
        longitude: 23.03333
        name: Pernik
        names_en: ~
        names_es: ~
        population: 82467
        timezone: Europe/Sofia
      - 
        alternate_names: 
          - Berznik
          - Bresnik
          - Breznik
          - Brjeznik
        ascii_name: Breznik
        geonamesid: 732883
        latitude: 42.74139
        longitude: 22.89806
        name: Breznik
        names_en: ~
        names_es: ~
        population: 4004
        timezone: Europe/Sofia
    geonamesid: 728331
    name: Pernik
    names_en: ~
    names_es: ~
  - 
    ascii_name: "Oblast Pazardzhik"
    cities: 
      - 
        alternate_names: 
          - Velingrad
          - Велинград
        ascii_name: Velingrad
        geonamesid: 725988
        latitude: 42.02724
        longitude: 23.99569
        name: Velingrad
        names_en: ~
        names_es: ~
        population: 24036
        timezone: Europe/Sofia
      - 
        alternate_names: 
          - Strelca
          - Strelcha
          - Streltscha
          - Strelča
        ascii_name: Strelcha
        geonamesid: 726723
        latitude: 42.5
        longitude: 24.31667
        name: Strelcha
        names_en: ~
        names_es: ~
        population: 4545
        timezone: Europe/Sofia
      - 
        alternate_names: 
          - Sarambei
          - Sarambey
          - Saran'ovo
          - Saran-Bey
        ascii_name: Septemvri
        geonamesid: 727354
        latitude: 42.21667
        longitude: 24.1
        name: Septemvri
        names_en: ~
        names_es: ~
        population: 8745
        timezone: Europe/Sofia
      - 
        alternate_names: 
          - Rakitovo
          - Rakitowo
          - Ракитово
        ascii_name: Rakitovo
        geonamesid: 727801
        latitude: 41.98333
        longitude: 24.08333
        name: Rakitovo
        names_en: ~
        names_es: ~
        population: 8376
        timezone: Europe/Sofia
      - 
        alternate_names: 
          - Momarsko
          - Pechtera
          - Pescera
          - Peschtera
        ascii_name: Peshtera
        geonamesid: 728317
        latitude: 42.03333
        longitude: 24.3
        name: Peshtera
        names_en: ~
        names_es: ~
        population: 18676
        timezone: Europe/Sofia
      - 
        alternate_names: 
          - Pasardschik
          - Pasardshik
          - Pazardjik
          - Pazardzhik
        ascii_name: Pazardzhik
        geonamesid: 728378
        latitude: 42.2
        longitude: 24.33333
        name: Pazardzhik
        names_en: 
          - Pazardzhik
        names_es: 
          - Pazardzhik
        population: 75977
        timezone: Europe/Sofia
      - 
        alternate_names: 
          - Otalkioj
          - Otalkiöj
          - Panaghiourichte
          - Panaghiourichté
        ascii_name: Panagyurishte
        geonamesid: 728448
        latitude: 42.5
        longitude: 24.18333
        name: Panagyurishte
        names_en: ~
        names_es: ~
        population: 19389
        timezone: Europe/Sofia
      - 
        alternate_names: 
          - Lesicevo
          - Lesichevo
          - Lesichovo
          - Lesicovo
        ascii_name: Lesichevo
        geonamesid: 729667
        latitude: 42.35
        longitude: 24.11667
        name: Lesichevo
        names_en: ~
        names_es: ~
        population: 1206
        timezone: Europe/Sofia
      - 
        alternate_names: 
          - Bracigovo
          - Bratzigovo
          - Brazigowo
          - Брацигово
        ascii_name: Bratsigovo
        geonamesid: 732924
        latitude: 42.01667
        longitude: 24.36667
        name: Bratsigovo
        names_en: ~
        names_es: ~
        population: 4577
        timezone: Europe/Sofia
      - 
        alternate_names: 
          - Beljovo
          - Belovo
          - "Gara Bel'oro"
          - "Gara Byelovo"
        ascii_name: Belovo
        geonamesid: 733286
        latitude: 42.21667
        longitude: 24.01667
        name: Belovo
        names_en: ~
        names_es: ~
        population: 4155
        timezone: Europe/Sofia
      - 
        alternate_names: 
          - Batak
          - Батак
        ascii_name: Batak
        geonamesid: 733433
        latitude: 41.95
        longitude: 24.21667
        name: Batak
        names_en: ~
        names_es: ~
        population: 3917
        timezone: Europe/Sofia
    geonamesid: 728379
    name: Pazardzhit
    names_en: ~
    names_es: ~
  - 
    ascii_name: "Oblast Lovech"
    cities: 
      - 
        alternate_names: 
          - Ablanitsa
          - Iablanica
          - Jablanica
          - Jablaniza
        ascii_name: Yablanitsa
        geonamesid: 725611
        latitude: 43.03139
        longitude: 24.11278
        name: Yablanitsa
        names_en: ~
        names_es: ~
        population: 3237
        timezone: Europe/Sofia
      - 
        alternate_names: 
          - Ugarchin
          - Ugarcin
          - Ugartschin
          - Ugarčin
        ascii_name: Ugurchin
        geonamesid: 726114
        latitude: 43.1
        longitude: 24.41667
        name: Ugŭrchin
        names_en: ~
        names_es: ~
        population: 2965
        timezone: Europe/Sofia
      - 
        alternate_names: 
          - Troian
          - Trojan
          - Troïan
          - Троян
        ascii_name: Troyan
        geonamesid: 726320
        latitude: 42.89427
        longitude: 24.71589
        name: Troyan
        names_en: ~
        names_es: ~
        population: 21162
        timezone: Europe/Sofia
      - 
        alternate_names: 
          - Teteven
          - Tetevene
          - Tetewene
          - Тетевен
        ascii_name: Teteven
        geonamesid: 726464
        latitude: 42.91667
        longitude: 24.26667
        name: Teteven
        names_en: ~
        names_es: ~
        population: 10790
        timezone: Europe/Sofia
      - 
        alternate_names: 
          - "Gorni Lukovit"
          - Loukovit
          - Lukovit
          - Lukowit
        ascii_name: Lukovit
        geonamesid: 729507
        latitude: 43.2
        longitude: 24.16667
        name: Lukovit
        names_en: ~
        names_es: ~
        population: 9792
        timezone: Europe/Sofia
      - 
        alternate_names: 
          - Lovca
          - Lovcha
          - Lovec
          - Lovech
        ascii_name: Lovech
        geonamesid: 729559
        latitude: 43.13333
        longitude: 24.71667
        name: Lovech
        names_en: ~
        names_es: ~
        population: 42211
        timezone: Europe/Sofia
      - 
        alternate_names: 
          - Letnica
          - Letnitza
          - Letniza
          - Lietnica
        ascii_name: Letnitsa
        geonamesid: 729646
        latitude: 43.31167
        longitude: 25.07333
        name: Letnitsa
        names_en: ~
        names_es: ~
        population: 3528
        timezone: Europe/Sofia
      - 
        alternate_names: 
          - Aprilci
          - Apriltzi
          - Априлци
        ascii_name: Apriltsi
        geonamesid: 733649
        latitude: 42.84142
        longitude: 24.91759
        name: Apriltsi
        names_en: ~
        names_es: ~
        population: 3851
        timezone: Europe/Sofia
    geonamesid: 729560
    name: Lovech
    names_en: ~
    names_es: ~
  - 
    ascii_name: "Oblast Khaskovo"
    cities: 
      - 
        alternate_names: 
          - Kavaklii
          - Kavakly
          - Topolovgrad
          - Topolovgrade
        ascii_name: Topolovgrad
        geonamesid: 726384
        latitude: 42.08333
        longitude: 26.33333
        name: Topolovgrad
        names_en: ~
        names_es: ~
        population: 6464
        timezone: Europe/Sofia
      - 
        alternate_names: 
          - Mustafa-Pasha
          - Mustafapasa
          - Mustafapaşa
          - Slivengrad
        ascii_name: Svilengrad
        geonamesid: 726546
        latitude: 41.76667
        longitude: 26.2
        name: Svilengrad
        names_en: ~
        names_es: ~
        population: 19279
        timezone: Europe/Sofia
      - 
        alternate_names: 
          - Maritsa
          - Seimen
          - Sejmen
          - Semenli
        ascii_name: Simeonovgrad
        geonamesid: 727217
        latitude: 42.03333
        longitude: 25.83333
        name: Simeonovgrad
        names_en: ~
        names_es: ~
        population: 7388
        timezone: Europe/Sofia
      - 
        alternate_names: 
          - "Mineralni Bani"
          - "Минерални Бани"
        ascii_name: "Mineralni Bani"
        geonamesid: 729073
        latitude: 41.91667
        longitude: 25.35
        name: "Mineralni Bani"
        names_en: ~
        names_es: ~
        population: 1367
        timezone: Europe/Sofia
      - 
        alternate_names: 
          - Dupnitsa
          - Dupniza
          - Madjarovo
          - Madzharovo
        ascii_name: Madzharovo
        geonamesid: 729428
        latitude: 41.63333
        longitude: 25.86667
        name: Madzharovo
        names_en: ~
        names_es: ~
        population: 1319
        timezone: Europe/Sofia
      - 
        alternate_names: 
          - Khebibchevo
          - Lioubimetz
          - Ljubimec
          - Ljubimetz
        ascii_name: Lyubimets
        geonamesid: 729466
        latitude: 41.83333
        longitude: 26.08333
        name: Lyubimets
        names_en: ~
        names_es: ~
        population: 8065
        timezone: Europe/Sofia
      - 
        alternate_names: 
          - Chaskoi
          - Chaskovo
          - Chaskowo
          - Chasköi
        ascii_name: Khaskovo
        geonamesid: 730435
        latitude: 41.94028
        longitude: 25.56944
        name: Khaskovo
        names_en: ~
        names_es: ~
        population: 79699
        timezone: Europe/Sofia
      - 
        alternate_names: 
          - Charmanlii
          - Harmanli
          - Harmanlii
          - Harmanlu
        ascii_name: Kharmanli
        geonamesid: 730442
        latitude: 41.93333
        longitude: 25.9
        name: Kharmanli
        names_en: ~
        names_es: ~
        population: 18931
        timezone: Europe/Sofia
      - 
        alternate_names: 
          - Ivailovgrad
          - Ivajlovgrad
          - Ivatlovgrade
          - Iwailowgrad
        ascii_name: Ivaylovgrad
        geonamesid: 730837
        latitude: 41.53333
        longitude: 26.13333
        name: Ivaylovgrad
        names_en: ~
        names_es: ~
        population: 3969
        timezone: Europe/Sofia
      - 
        alternate_names: 
          - Elena
          - Jelena
          - Елена
        ascii_name: Elena
        geonamesid: 731696
        latitude: 42.93333
        longitude: 25.88333
        name: Elena
        names_en: ~
        names_es: ~
        population: 6042
        timezone: Europe/Sofia
      - 
        alternate_names: 
          - Dimitrovgrad
          - Димитровград
        ascii_name: Dimitrovgrad
        geonamesid: 732263
        latitude: 42.05
        longitude: 25.6
        name: Dimitrovgrad
        names_en: ~
        names_es: ~
        population: 43288
        timezone: Europe/Sofia
    geonamesid: 730436
    name: Khaskovo
    names_en: ~
    names_es: ~
  - 
    ascii_name: "Oblast Sofiya-Grad"
    cities: 
      - 
        alternate_names: 
          - Safia
          - Serdica
          - Sofia
          - Sofie
        ascii_name: Sofia
        geonamesid: 727011
        latitude: 42.69751
        longitude: 23.32415
        name: Sofia
        names_en: 
          - Sofia
        names_es: 
          - Sofía
        population: 1152556
        timezone: Europe/Sofia
      - 
        alternate_names: 
          - Buchowo
          - Buhovo
          - Bukhovo
          - Бухово
        ascii_name: Bukhovo
        geonamesid: 732825
        latitude: 42.76667
        longitude: 23.56667
        name: Bukhovo
        names_en: ~
        names_es: ~
        population: 3283
        timezone: Europe/Sofia
    geonamesid: 731061
    name: Sofiya-Grad
    names_en: ~
    names_es: ~
  - 
    ascii_name: "Oblast Burgas"
    cities: 
      - 
        alternate_names: 
          - Manasturkioy
          - Manastŭrkioy
          - Monasturkioy
          - Monastŭrkioy
        ascii_name: "Sveti Vlas"
        geonamesid: 725816
        latitude: 42.7136
        longitude: 27.75867
        name: "Sveti Vlas"
        names_en: 
          - "Saint Vlas"
        names_es: ~
        population: 3875
        timezone: Europe/Sofia
      - 
        alternate_names: 
          - Sungulare
          - Sungulari
          - Sungurlar
          - Sungurlare
        ascii_name: Sungurlare
        geonamesid: 726629
        latitude: 42.76667
        longitude: 26.78333
        name: Sungurlare
        names_en: ~
        names_es: ~
        population: 3834
        timezone: Europe/Sofia
      - 
        alternate_names: 
          - Apollonia
          - Sizebolu
          - Sizopol
          - Sosopol
        ascii_name: Sozopol
        geonamesid: 726963
        latitude: 42.41667
        longitude: 27.7
        name: Sozopol
        names_en: 
          - Sozopol
        names_es: 
          - Sozopol
        population: 4500
        timezone: Europe/Sofia
      - 
        alternate_names: 
          - Ruen
          - Ulanli
          - Ulanlii
          - Ulanliy
        ascii_name: Ruen
        geonamesid: 727547
        latitude: 42.8
        longitude: 27.28333
        name: Ruen
        names_en: ~
        names_es: ~
        population: 2339
        timezone: Europe/Sofia
      - 
        alternate_names: 
          - Kjuprija
          - Kyupriya
          - Primorsko
          - Приморско
        ascii_name: Primorsko
        geonamesid: 727964
        latitude: 42.26667
        longitude: 27.76667
        name: Primorsko
        names_en: ~
        names_es: ~
        population: 2798
        timezone: Europe/Sofia
      - 
        alternate_names: 
          - Ahiolo
          - Akhillo
          - Akhilu
          - Akhiolo
        ascii_name: Pomorie
        geonamesid: 728108
        latitude: 42.55882
        longitude: 27.64393
        name: Pomorie
        names_en: ~
        names_es: ~
        population: 13714
        timezone: Europe/Sofia
      - 
        alternate_names: 
          - G'ozeken
          - Giozeken
          - Gjozeken
          - Gusiken
        ascii_name: Obzor
        geonamesid: 728674
        latitude: 42.81667
        longitude: 27.88333
        name: Obzor
        names_en: 
          - Obzor
        names_es: ~
        population: 2002
        timezone: Europe/Sofia
      - 
        alternate_names: 
          - Mesembrija
          - Mesemvria
          - Mesemvrija
          - Mesemvriya
        ascii_name: Nesebur
        geonamesid: 728825
        latitude: 42.65921
        longitude: 27.73602
        name: Nesebŭr
        names_en: 
          - Nesebur
          - Nessebur
          - Nesebar
        names_es: ~
        population: 6302
        timezone: Europe/Sofia
      - 
        alternate_names: 
          - Carevo
          - Michurin
          - Tsarevo
          - Tzarevo
        ascii_name: Tsarevo
        geonamesid: 729125
        latitude: 42.16667
        longitude: 27.85
        name: Tsarevo
        names_en: ~
        names_es: ~
        population: 6085
        timezone: Europe/Sofia
      - 
        alternate_names: 
          - "Malko Tarnovo"
          - "Malko Tarnowo"
          - "Malko Turnovo"
          - "Malko Tŭrnovo"
        ascii_name: "Malko Turnovo"
        geonamesid: 729322
        latitude: 41.98333
        longitude: 27.53333
        name: "Malko Tŭrnovo"
        names_en: ~
        names_es: ~
        population: 3336
        timezone: Europe/Sofia
      - 
        alternate_names: 
          - Avordovisa
          - Bordovasca
          - "Chiflik Urdoviza"
          - Kiten
        ascii_name: Kiten
        geonamesid: 730338
        latitude: 42.23424
        longitude: 27.7749
        name: Kiten
        names_en: ~
        names_es: ~
        population: 1115
        timezone: Europe/Sofia
      - 
        alternate_names: 
          - Karnabat
          - Karnobat
          - "Karnobatski prokhod"
          - Poljanovgrad
        ascii_name: Karnobat
        geonamesid: 730559
        latitude: 42.65
        longitude: 26.98333
        name: Karnobat
        names_en: ~
        names_es: ~
        population: 19709
        timezone: Europe/Sofia
      - 
        alternate_names: 
          - Kaiali
          - Kajali
          - Kajalii
          - Kajalu
        ascii_name: Kameno
        geonamesid: 730680
        latitude: 42.56667
        longitude: 27.3
        name: Kameno
        names_en: ~
        names_es: ~
        population: 4952
        timezone: Europe/Sofia
      - 
        alternate_names: 
          - Grudovo
          - Kara-Bunar
          - Sradets
          - Sredec
        ascii_name: Sredets
        geonamesid: 731016
        latitude: 42.34747
        longitude: 27.17898
        name: Sredets
        names_en: ~
        names_es: ~
        population: 9573
        timezone: Europe/Sofia
      - 
        alternate_names: 
          - "Agios Nikolo"
          - Chernomorec
          - Chernomorets
          - Nikola
        ascii_name: Chernomorets
        geonamesid: 732519
        latitude: 42.44589
        longitude: 27.63834
        name: Chernomorets
        names_en: ~
        names_es: ~
        population: 2194
        timezone: Europe/Sofia
      - 
        alternate_names: 
          - Boergas
          - Bourgas
          - Bournkas
          - Burgas
        ascii_name: Burgas
        geonamesid: 732770
        latitude: 42.50606
        longitude: 27.46781
        name: Burgas
        names_en: 
          - Burgas
        names_es: 
          - Burgas
        population: 195966
        timezone: Europe/Sofia
      - 
        alternate_names: 
          - Aitos
          - Ajtos
          - Aytos
          - Айтос
        ascii_name: Aytos
        geonamesid: 733579
        latitude: 42.7
        longitude: 27.25
        name: Aytos
        names_en: 
          - Aytos
        names_es: ~
        population: 20986
        timezone: Europe/Sofia
      - 
        alternate_names: 
          - Achtepol
          - Achtopol
          - Agathopolis
          - Ahtapolu
        ascii_name: Akhtopol
        geonamesid: 733722
        latitude: 42.1
        longitude: 27.95
        name: Akhtopol
        names_en: ~
        names_es: ~
        population: 1107
        timezone: Europe/Sofia
    geonamesid: 732771
    name: Burgas
    names_en: ~
    names_es: ~
  - 
    ascii_name: "Oblast Blagoevgrad"
    cities: 
      - 
        alternate_names: 
          - Jakoruda
          - Johurut
          - Jokoruda
          - Yokoruda
        ascii_name: Yakoruda
        geonamesid: 725586
        latitude: 42.02528
        longitude: 23.68417
        name: Yakoruda
        names_en: ~
        names_es: ~
        population: 6008
        timezone: Europe/Sofia
      - 
        alternate_names: 
          - Strumjani
          - Strumyani
          - Струмяни
        ascii_name: Strumyani
        geonamesid: 726693
        latitude: 41.63333
        longitude: 23.2
        name: Strumyani
        names_en: ~
        names_es: ~
        population: 1058
        timezone: Europe/Sofia
      - 
        alternate_names: 
          - Kresna
          - "Stara Kresna"
          - "Стара Кресна"
        ascii_name: "Stara Kresna"
        geonamesid: 726863
        latitude: 41.8
        longitude: 23.18333
        name: "Stara Kresna"
        names_en: ~
        names_es: ~
        population: 3586
        timezone: Europe/Sofia
      - 
        alternate_names: 
          - Izvoritye
          - Izworit
          - Simeti
          - Simetli
        ascii_name: Simitli
        geonamesid: 727212
        latitude: 41.88333
        longitude: 23.11667
        name: Simitli
        names_en: ~
        names_es: ~
        population: 6729
        timezone: Europe/Sofia
      - 
        alternate_names: 
          - Satovca
          - Satovcha
          - Satovdza
          - Satovdža
        ascii_name: Satovcha
        geonamesid: 727423
        latitude: 41.61667
        longitude: 23.98333
        name: Satovcha
        names_en: ~
        names_es: ~
        population: 2382
        timezone: Europe/Sofia
      - 
        alternate_names: 
          - Sandanski
          - "Sveti Vrac"
          - "Sveti Vrach"
          - "Sveti Vrač"
        ascii_name: Sandanski
        geonamesid: 727447
        latitude: 41.56667
        longitude: 23.28333
        name: Sandanski
        names_en: ~
        names_es: ~
        population: 26459
        timezone: Europe/Sofia
      - 
        alternate_names: 
          - Mahomia
          - Mehomia
          - Mekhomiya
          - Pazlog
        ascii_name: Razlog
        geonamesid: 727689
        latitude: 41.8863
        longitude: 23.46714
        name: Razlog
        names_en: ~
        names_es: ~
        population: 12486
        timezone: Europe/Sofia
      - 
        alternate_names: 
          - Petric
          - Petrich
          - Petritch
          - Petritsch
        ascii_name: Petrich
        geonamesid: 728288
        latitude: 41.4
        longitude: 23.21667
        name: Petrich
        names_en: ~
        names_es: ~
        population: 30308
        timezone: Europe/Sofia
      - 
        alternate_names: 
          - "Bahnhof Pirin"
          - "Gara Pirin"
          - Kresna
          - Кресна
        ascii_name: Kresna
        geonamesid: 729942
        latitude: 41.73333
        longitude: 23.15
        name: Kresna
        names_en: ~
        names_es: ~
        population: 4117
        timezone: Europe/Sofia
      - 
        alternate_names: 
          - Dolna-Singartiya
          - Dolno-Singartiya
          - Khadzhidimovo
          - Shostowo
        ascii_name: Khadzhidimovo
        geonamesid: 730464
        latitude: 41.52222
        longitude: 23.86861
        name: Khadzhidimovo
        names_en: ~
        names_es: ~
        population: 3167
        timezone: Europe/Sofia
      - 
        alternate_names: 
          - Garmen
          - Gurmen
          - Gărmen
          - Gŭrmen
        ascii_name: Gurmen
        geonamesid: 730960
        latitude: 41.6
        longitude: 23.81667
        name: Gŭrmen
        names_en: ~
        names_es: ~
        population: 1838
        timezone: Europe/Sofia
      - 
        alternate_names: 
          - "Goce Delchev"
          - "Gotse Delchev"
          - "Gotsi Delchev"
          - "Gotze Deltchev"
        ascii_name: "Gotse Delchev"
        geonamesid: 731108
        latitude: 41.56667
        longitude: 23.73333
        name: "Gotse Delchev"
        names_en: ~
        names_es: ~
        population: 20471
        timezone: Europe/Sofia
      - 
        alternate_names: 
          - Blagoevgrad
          - Djumaja
          - Dzhumaya
          - Dzuma
        ascii_name: Blagoevgrad
        geonamesid: 733191
        latitude: 42.01667
        longitude: 23.1
        name: Blagoevgrad
        names_en: ~
        names_es: ~
        population: 71306
        timezone: Europe/Sofia
      - 
        alternate_names: 
          - Belica
          - Belitso
          - Belitza
          - Beliza
        ascii_name: Belitsa
        geonamesid: 733322
        latitude: 41.95694
        longitude: 23.5725
        name: Belitsa
        names_en: ~
        names_es: ~
        population: 3166
        timezone: Europe/Sofia
      - 
        alternate_names: 
          - Banjska
          - Banjsko
          - Bansko
          - Banysko
        ascii_name: Bansko
        geonamesid: 733462
        latitude: 41.8383
        longitude: 23.48851
        name: Bansko
        names_en: 
          - Bansko
        names_es: ~
        population: 9232
        timezone: Europe/Sofia
    geonamesid: 733192
    name: Blagoevgrad
    names_en: ~
    names_es: ~
  - 
    ascii_name: "Oblast Gabrovo"
    cities: 
      - 
        alternate_names: 
          - Trevna
          - Trewna
          - Trjavna
          - Tryavna
        ascii_name: Tryavna
        geonamesid: 726287
        latitude: 42.86667
        longitude: 25.5
        name: Tryavna
        names_en: ~
        names_es: ~
        population: 13818
        timezone: Europe/Sofia
      - 
        alternate_names: 
          - Savlievo
          - Seljvi
          - Selvi
          - Sevelijevo
        ascii_name: Sevlievo
        geonamesid: 727337
        latitude: 43.02583
        longitude: 25.11361
        name: Sevlievo
        names_en: ~
        names_es: ~
        population: 24582
        timezone: Europe/Sofia
      - 
        alternate_names: 
          - Gabrova
          - Gabrovo
          - Gabrowo
          - gabrovo
        ascii_name: Gabrovo
        geonamesid: 731549
        latitude: 42.87472
        longitude: 25.33417
        name: Gabrovo
        names_en: 
          - Gabrovo
        names_es: ~
        population: 66175
        timezone: Europe/Sofia
      - 
        alternate_names: 
          - Drenova
          - Drenovo
          - Drenowo
          - Drjanovo
        ascii_name: Dryanovo
        geonamesid: 731882
        latitude: 42.97897
        longitude: 25.4785
        name: Dryanovo
        names_en: ~
        names_es: ~
        population: 8346
        timezone: Europe/Sofia
    geonamesid: 864552
    name: Gabrovo
    names_en: ~
    names_es: ~
  - 
    ascii_name: "Oblast Kurdzhali"
    cities: 
      - 
        alternate_names: 
          - Exrdzhali
          - Kardjali
          - Kardschali
          - Kardshali
        ascii_name: Kurdzhali
        geonamesid: 729794
        latitude: 41.65
        longitude: 25.36667
        name: Kŭrdzhali
        names_en: 
          - Kardzhali
        names_es: ~
        population: 51000
        timezone: Europe/Sofia
      - 
        alternate_names: 
          - Koshu-Kavak
          - Kosikavak
          - Kossukavak
          - Kossukovak
        ascii_name: Krumovgrad
        geonamesid: 729896
        latitude: 41.46667
        longitude: 25.65
        name: Krumovgrad
        names_en: ~
        names_es: ~
        population: 5271
        timezone: Europe/Sofia
      - 
        alternate_names: 
          - Djebel
          - Dzhebel
          - Shekh-Dzhumaya
          - Sheykh-Dzhumaya
        ascii_name: Dzhebel
        geonamesid: 731741
        latitude: 41.5
        longitude: 25.3
        name: Dzhebel
        names_en: ~
        names_es: ~
        population: 3329
        timezone: Europe/Sofia
      - 
        alternate_names: 
          - Ardino
          - Egridere
          - Eğridere
          - Iridere
        ascii_name: Ardino
        geonamesid: 733638
        latitude: 41.58333
        longitude: 25.13333
        name: Ardino
        names_en: ~
        names_es: ~
        population: 3531
        timezone: Europe/Sofia
    geonamesid: 864553
    name: Kŭrdzhali
    names_en: ~
    names_es: ~
  - 
    ascii_name: "Oblast Kyustendil"
    cities: 
      - 
        alternate_names: 
          - Doupnitza
          - Dubnica
          - Dupnica
          - Dupnitsa
        ascii_name: Dupnitsa
        geonamesid: 726872
        latitude: 42.26667
        longitude: 23.11667
        name: Dupnitsa
        names_en: ~
        names_es: ~
        population: 34764
        timezone: Europe/Sofia
      - 
        alternate_names: 
          - "Gorna Banja"
          - Gorna-Bania
          - Gorna-Banya
          - "Sapareva Banja"
        ascii_name: "Sapareva Banya"
        geonamesid: 727441
        latitude: 42.28333
        longitude: 23.26667
        name: "Sapareva Banya"
        names_en: ~
        names_es: ~
        population: 4610
        timezone: Europe/Sofia
      - 
        alternate_names: 
          - Rila
          - "Rila Selo"
          - Riloselo
          - Рила
        ascii_name: Rila
        geonamesid: 727628
        latitude: 42.13333
        longitude: 23.13333
        name: Rila
        names_en: ~
        names_es: ~
        population: 3002
        timezone: Europe/Sofia
      - 
        alternate_names: 
          - Keustendil
          - Kioustendil
          - Kiousténdil
          - Kjustendil
        ascii_name: Kyustendil
        geonamesid: 729730
        latitude: 42.28389
        longitude: 22.69111
        name: Kyustendil
        names_en: 
          - Kyustendil
        names_es: ~
        population: 48286
        timezone: Europe/Sofia
      - 
        alternate_names: 
          - Kocarinovo
          - Kocerinovo
          - Kocherinobo
          - Kocherinovo
        ascii_name: Kocherinovo
        geonamesid: 730268
        latitude: 42.08333
        longitude: 23.06667
        name: Kocherinovo
        names_en: ~
        names_es: ~
        population: 2872
        timezone: Europe/Sofia
      - 
        alternate_names: 
          - Bobor-Dol
          - "Bobov Dol"
          - "Bobov-Dol Mina"
          - Bobovdol
        ascii_name: Bobovdol
        geonamesid: 733151
        latitude: 42.36972
        longitude: 23.01722
        name: Bobovdol
        names_en: ~
        names_es: ~
        population: 6184
        timezone: Europe/Sofia
      - 
        alternate_names: 
          - Bobochevo
          - Boboschewo
          - Bobosevo
          - Boboshevo
        ascii_name: Boboshevo
        geonamesid: 733153
        latitude: 42.15972
        longitude: 23.01639
        name: Boboshevo
        names_en: ~
        names_es: ~
        population: 1784
        timezone: Europe/Sofia
    geonamesid: 864554
    name: Kyustendil
    names_en: ~
    names_es: ~
  - 
    ascii_name: "Oblast Shumen"
    cities: 
      - 
        alternate_names: 
          - Varbitsa
          - Virbica
          - Vrbica
          - Vrbitsa
        ascii_name: Vurbitsa
        geonamesid: 725649
        latitude: 43.0
        longitude: 26.63333
        name: Vŭrbitsa
        names_en: ~
        names_es: ~
        population: 3803
        timezone: Europe/Sofia
      - 
        alternate_names: 
          - K'okledzha
          - K'oklyudzha
          - K'okyudzha
          - Kiokhudza
        ascii_name: Venets
        geonamesid: 725967
        latitude: 43.55
        longitude: 26.93333
        name: Venets
        names_en: ~
        names_es: ~
        population: 1450
        timezone: Europe/Sofia
      - 
        alternate_names: 
          - Smedovo
          - Smedowo
          - Smjadovo
          - Smjedovo
        ascii_name: Smyadovo
        geonamesid: 727025
        latitude: 43.06667
        longitude: 27.01667
        name: Smyadovo
        names_en: ~
        names_es: ~
        population: 4231
        timezone: Europe/Sofia
      - 
        alternate_names: 
          - Choumen
          - Choumèn
          - Kolarovgrad
          - Schumen
        ascii_name: Shumen
        geonamesid: 727233
        latitude: 43.27064
        longitude: 26.92286
        name: Shumen
        names_en: 
          - Shumen
        names_es: ~
        population: 87283
        timezone: Europe/Sofia
      - 
        alternate_names: 
          - "Eski Stambid"
          - "Eski Stambolluk"
          - Eski-Stambul
          - Preslav
        ascii_name: "Veliki Preslav"
        geonamesid: 727987
        latitude: 43.16667
        longitude: 26.81667
        name: "Veliki Preslav"
        names_en: 
          - Preslav
        names_es: 
          - Preslav
        population: 9425
        timezone: Europe/Sofia
      - 
        alternate_names: 
          - Aboba
          - "Ak Baba"
          - Pliska
          - Pliskov
        ascii_name: Pliska
        geonamesid: 728199
        latitude: 43.36667
        longitude: 27.11667
        name: Pliska
        names_en: 
          - Pliska
        names_es: ~
        population: 1263
        timezone: Europe/Sofia
      - 
        alternate_names: 
          - "Eni Bazar"
          - "Eni Pazar"
          - Jenibazar
          - "Novi Pazar"
        ascii_name: "Novi Pazar"
        geonamesid: 728734
        latitude: 43.35
        longitude: 27.2
        name: "Novi Pazar"
        names_en: ~
        names_es: ~
        population: 13276
        timezone: Europe/Sofia
      - 
        alternate_names: 
          - "Bahnhof Kaspitschan"
          - "Gara Kaspican"
          - "Gara Kaspichan"
          - "Gara Kaspičan"
        ascii_name: Kaspichan
        geonamesid: 730542
        latitude: 43.31667
        longitude: 27.16667
        name: Kaspichan
        names_en: ~
        names_es: ~
        population: 3635
        timezone: Europe/Sofia
      - 
        alternate_names: 
          - "Beyuk Bakchilar"
          - Boshidar
          - Bozhidar
          - Kaolinovo
        ascii_name: Kaolinovo
        geonamesid: 730651
        latitude: 43.61667
        longitude: 27.11667
        name: Kaolinovo
        names_en: ~
        names_es: ~
        population: 1537
        timezone: Europe/Sofia
      - 
        alternate_names: 
          - "Bahnhof Chitrino"
          - "Gara Khitino"
          - "Gara Khitrino"
          - "Gara Seitandzik"
        ascii_name: "Gara Khitrino"
        geonamesid: 731520
        latitude: 43.43333
        longitude: 26.91667
        name: "Gara Khitrino"
        names_en: ~
        names_es: ~
        population: 1302
        timezone: Europe/Sofia
    geonamesid: 864555
    name: Shumen
    names_en: ~
    names_es: ~
  - 
    ascii_name: "Oblast Silistra"
    cities: 
      - 
        alternate_names: 
          - Turtucaia
          - Turtukai
          - Tutrakan
          - Tutrakhan
        ascii_name: Tutrakan
        geonamesid: 726141
        latitude: 44.05
        longitude: 26.61667
        name: Tutrakan
        names_en: ~
        names_es: ~
        population: 10022
        timezone: Europe/Sofia
      - 
        alternate_names: 
          - Doimuslar
          - Doimuşlar
          - Donnuslar
          - Donnuşlar
        ascii_name: Sitovo
        geonamesid: 727175
        latitude: 44.01667
        longitude: 27.01667
        name: Sitovo
        names_en: ~
        names_es: ~
        population: 1140
        timezone: Europe/Sofia
      - 
        alternate_names: 
          - Silistra
          - Силистра
        ascii_name: Silistra
        geonamesid: 727221
        latitude: 44.11667
        longitude: 27.26667
        name: Silistra
        names_en: ~
        names_es: ~
        population: 39715
        timezone: Europe/Sofia
      - 
        alternate_names: 
          - Cainargcaua-Mica
          - "Cainargeaua Mica"
          - "Cainargeaua Mică"
          - Kajnardzha
        ascii_name: Kaynardzha
        geonamesid: 730504
        latitude: 43.98333
        longitude: 27.5
        name: Kaynardzha
        names_en: ~
        names_es: ~
        population: 1107
        timezone: Europe/Sofia
      - 
        alternate_names: 
          - Asfatchioi
          - Astvatchioi
          - Asvatchioi
          - Asvatk'oy
        ascii_name: Glavinitsa
        geonamesid: 731415
        latitude: 43.91667
        longitude: 26.83333
        name: Glavinitsa
        names_en: ~
        names_es: ~
        population: 2220
        timezone: Europe/Sofia
      - 
        alternate_names: 
          - Acadanlar
          - Accadanlar
          - Accadânlar
          - Ak-Kadunlar
        ascii_name: Dulovo
        geonamesid: 731818
        latitude: 43.81667
        longitude: 27.15
        name: Dulovo
        names_en: ~
        names_es: ~
        population: 6788
        timezone: Europe/Sofia
      - 
        alternate_names: 
          - Alfatar
          - "General Lazarovo"
          - "General Lazarow"
          - Алфатар
        ascii_name: Alfatar
        geonamesid: 733679
        latitude: 43.95
        longitude: 27.28333
        name: Alfatar
        names_en: ~
        names_es: ~
        population: 1916
        timezone: Europe/Sofia
    geonamesid: 864556
    name: Silistra
    names_en: ~
    names_es: ~
  - 
    ascii_name: "Oblast Sliven"
    cities: 
      - 
        alternate_names: 
          - Tvardica
          - Tvarditsa
          - Tvarditza
          - Tverditsa
        ascii_name: Tvurditsa
        geonamesid: 726130
        latitude: 42.7
        longitude: 25.9
        name: Tvŭrditsa
        names_en: ~
        names_es: ~
        population: 6519
        timezone: Europe/Sofia
      - 
        alternate_names: 
          - Islimiye
          - Islimje
          - Sliven
          - Slivno
        ascii_name: Sliven
        geonamesid: 727079
        latitude: 42.68583
        longitude: 26.32917
        name: Sliven
        names_en: ~
        names_es: ~
        population: 96368
        timezone: Europe/Sofia
      - 
        alternate_names: 
          - "Eni Zagra"
          - Ienizagra
          - "Jeni Saghra"
          - "Jeni Zagra"
        ascii_name: "Nova Zagora"
        geonamesid: 728742
        latitude: 42.48333
        longitude: 26.01667
        name: "Nova Zagora"
        names_en: ~
        names_es: ~
        population: 24340
        timezone: Europe/Sofia
      - 
        alternate_names: 
          - Kazan
          - Kotel
          - Котел
        ascii_name: Kotel
        geonamesid: 730073
        latitude: 42.88333
        longitude: 26.45
        name: Kotel
        names_en: ~
        names_es: ~
        population: 6421
        timezone: Europe/Sofia
      - 
        alternate_names: 
          - Keremenli
          - Kermen
          - Kermenli
          - Kermenlii
        ascii_name: Kermen
        geonamesid: 730478
        latitude: 42.5
        longitude: 26.25
        name: Kermen
        names_en: ~
        names_es: ~
        population: 2222
        timezone: Europe/Sofia
    geonamesid: 864557
    name: Sliven
    names_en: ~
    names_es: ~
  - 
    ascii_name: "Oblast Smolyan"
    cities: 
      - 
        alternate_names: 
          - Dara-Dere
          - Daridere
          - Dară-Dere
          - Slatograd
        ascii_name: Zlatograd
        geonamesid: 725271
        latitude: 41.38333
        longitude: 25.1
        name: Zlatograd
        names_en: ~
        names_es: ~
        population: 7331
        timezone: Europe/Sofia
      - 
        alternate_names: 
          - Paschmaklii
          - Pashmakla
          - Pashmakli
          - Pashmaklă
        ascii_name: Smolyan
        geonamesid: 727030
        latitude: 41.58528
        longitude: 24.69194
        name: Smolyan
        names_en: ~
        names_es: ~
        population: 32069
        timezone: Europe/Sofia
      - 
        alternate_names: 
          - Chervenkovgrad
          - Palas
          - Palaz
          - Roodozem
        ascii_name: Rudozem
        geonamesid: 727552
        latitude: 41.48333
        longitude: 24.85
        name: Rudozem
        names_en: ~
        names_es: ~
        population: 3783
        timezone: Europe/Sofia
      - 
        alternate_names: 
          - Nedelino
          - Nedelio
          - Nedyelino
          - Uzendere
        ascii_name: Nedelino
        geonamesid: 728851
        latitude: 41.45
        longitude: 25.08333
        name: Nedelino
        names_en: ~
        names_es: ~
        population: 5017
        timezone: Europe/Sofia
      - 
        alternate_names: 
          - Madan
          - Мадан
        ascii_name: Madan
        geonamesid: 729439
        latitude: 41.5
        longitude: 24.95
        name: Madan
        names_en: ~
        names_es: ~
        population: 5661
        timezone: Europe/Sofia
      - 
        alternate_names: 
          - G'ovren
          - Gjowren
          - Goevren
          - Gyovren
        ascii_name: Gyovren
        geonamesid: 731100
        latitude: 41.4
        longitude: 24.23
        name: Gyovren
        names_en: 
          - Gyovren
        names_es: ~
        population: 1040
        timezone: Europe/Sofia
      - 
        alternate_names: 
          - Dospad
          - Dospat
          - Доспат
        ascii_name: Dospat
        geonamesid: 732015
        latitude: 41.65
        longitude: 24.16667
        name: Dospat
        names_en: ~
        names_es: ~
        population: 2802
        timezone: Europe/Sofia
      - 
        alternate_names: 
          - Cepelare
          - Chepelare
          - Chepelari
          - Tschepelare
        ascii_name: Chepelare
        geonamesid: 732627
        latitude: 41.73333
        longitude: 24.68333
        name: Chepelare
        names_en: ~
        names_es: ~
        population: 5478
        timezone: Europe/Sofia
      - 
        alternate_names: 
          - Boriio
          - Borino
          - Kara-Bulak
          - Борино
        ascii_name: Borino
        geonamesid: 733067
        latitude: 41.68333
        longitude: 24.28333
        name: Borino
        names_en: ~
        names_es: ~
        population: 3084
        timezone: Europe/Sofia
      - 
        alternate_names: 
          - Banite
          - Ladsha
          - Ledzha
          - Ludzha
        ascii_name: Banite
        geonamesid: 733474
        latitude: 41.61667
        longitude: 25.01667
        name: Banite
        names_en: ~
        names_es: ~
        population: 1279
        timezone: Europe/Sofia
    geonamesid: 864558
    name: Smolyan
    names_en: ~
    names_es: ~
  - 
    ascii_name: "Oblast Stara Zagora"
    cities: 
      - 
        alternate_names: 
          - "Eski Zagra"
          - "Eski Zağra"
          - "Stara Sagora"
          - "Stara Zagora"
        ascii_name: "Stara Zagora"
        geonamesid: 726848
        latitude: 42.43278
        longitude: 25.64194
        name: "Stara Zagora"
        names_en: 
          - "Stara Zagora"
        names_es: 
          - "Stara Zagora"
        population: 143431
        timezone: Europe/Sofia
      - 
        alternate_names: 
          - Schipka
          - Shipka
          - Sipka
          - Šipka
        ascii_name: Shipka
        geonamesid: 727291
        latitude: 42.71667
        longitude: 25.33333
        name: Shipka
        names_en: ~
        names_es: ~
        population: 1604
        timezone: Europe/Sofia
      - 
        alternate_names: 
          - "Radne Machale"
          - "Radne Makhle"
          - Radne-Makhala
          - Radnevo
        ascii_name: Radnevo
        geonamesid: 727838
        latitude: 42.3
        longitude: 25.93333
        name: Radnevo
        names_en: ~
        names_es: ~
        population: 14667
        timezone: Europe/Sofia
      - 
        alternate_names: 
          - Banya
          - "Ludzha Ali"
          - "Ludzha K'oy"
          - "Lŭdzha Ali"
        ascii_name: "Pavel Banya"
        geonamesid: 728389
        latitude: 42.6
        longitude: 25.2
        name: "Pavel Banya"
        names_en: ~
        names_es: ~
        population: 3212
        timezone: Europe/Sofia
      - 
        alternate_names: 
          - Eshekchii
          - Eshekii
          - Nikolaevo
          - Nikolaewo
        ascii_name: Nikolaevo
        geonamesid: 728795
        latitude: 42.63333
        longitude: 25.8
        name: Nikolaevo
        names_en: ~
        names_es: ~
        population: 3160
        timezone: Europe/Sofia
      - 
        alternate_names: 
          - Maglis
          - Maglish
          - Magliz
          - Maglizh
        ascii_name: Muglizh
        geonamesid: 728928
        latitude: 42.6
        longitude: 25.55
        name: Mŭglizh
        names_en: ~
        names_es: ~
        population: 3643
        timezone: Europe/Sofia
      - 
        alternate_names: 
          - Kasanlak
          - Kasanlăk
          - Kazanl"k
          - Kazanlak
        ascii_name: Kazanluk
        geonamesid: 730496
        latitude: 42.61667
        longitude: 25.4
        name: Kazanlŭk
        names_en: 
          - Kazanlak
        names_es: ~
        population: 55196
        timezone: Europe/Sofia
      - 
        alternate_names: 
          - "General Gurkovo"
          - Gurkovo
          - Gurkowo
          - Khainboaz
        ascii_name: Gurkovo
        geonamesid: 730969
        latitude: 42.66667
        longitude: 25.8
        name: Gurkovo
        names_en: ~
        names_es: ~
        population: 2889
        timezone: Europe/Sofia
      - 
        alternate_names: 
          - Chirpan
          - Cirpan
          - Tchirpan
          - Tschirpan
        ascii_name: Chirpan
        geonamesid: 732452
        latitude: 42.2
        longitude: 25.33333
        name: Chirpan
        names_en: ~
        names_es: ~
        population: 17243
        timezone: Europe/Sofia
    geonamesid: 864559
    name: "Stara Zagora"
    names_en: ~
    names_es: ~
  - 
    ascii_name: "Oblast Turgovishte"
    cities: 
      - 
        alternate_names: 
          - "Eski Djoumaia"
          - "Eski Djoumaïa"
          - "Eski Dschumaja"
          - "Eski Dzhumaya"
        ascii_name: Turgovishte
        geonamesid: 726174
        latitude: 43.25917
        longitude: 26.58917
        name: Tŭrgovishte
        names_en: ~
        names_es: ~
        population: 37774
        timezone: Europe/Sofia
      - 
        alternate_names: 
          - Popkioj
          - Popkioy
          - Popkiöj
          - Popovo
        ascii_name: Popovo
        geonamesid: 728075
        latitude: 43.35
        longitude: 26.23333
        name: Popovo
        names_en: ~
        names_es: ~
        population: 16571
        timezone: Europe/Sofia
      - 
        alternate_names: 
          - Opaka
          - Опака
        ascii_name: Opaka
        geonamesid: 728631
        latitude: 43.45
        longitude: 26.16667
        name: Opaka
        names_en: ~
        names_es: ~
        population: 3002
        timezone: Europe/Sofia
      - 
        alternate_names: 
          - Omortag
          - Omurtag
          - Osman-Pazar
          - Osmanbazar
        ascii_name: Omurtag
        geonamesid: 728634
        latitude: 43.1
        longitude: 26.41667
        name: Omurtag
        names_en: ~
        names_es: ~
        population: 9070
        timezone: Europe/Sofia
      - 
        alternate_names: 
          - Antonovo
          - Poljana
          - Poljane
          - Polyana
        ascii_name: Antonovo
        geonamesid: 733657
        latitude: 43.15
        longitude: 26.16667
        name: Antonovo
        names_en: ~
        names_es: ~
        population: 1543
        timezone: Europe/Sofia
    geonamesid: 864560
    name: Tŭrgovishte
    names_en: ~
    names_es: ~
  - 
    ascii_name: "Oblast Veliko Turnovo"
    cities: 
      - 
        alternate_names: 
          - Slatariza
          - Zlatarica
          - Zlataritza
          - Златарица
        ascii_name: Zlataritsa
        geonamesid: 725295
        latitude: 43.05
        longitude: 25.9
        name: Zlataritsa
        names_en: ~
        names_es: ~
        population: 2468
        timezone: Europe/Sofia
      - 
        alternate_names: 
          - Tarnovo
          - Tarnowo
          - Ternovo
          - Tirnovo
        ascii_name: "Veliko Turnovo"
        geonamesid: 725993
        latitude: 43.08124
        longitude: 25.62904
        name: "Veliko Tŭrnovo"
        names_en: 
          - "Veliko Tarnovo"
        names_es: 
          - "Veliko Tarnovo"
        population: 66217
        timezone: Europe/Sofia
      - 
        alternate_names: 
          - Novae
          - "Novensis Moesia Civitas"
          - Sistov
          - Sistova
        ascii_name: Svishtov
        geonamesid: 726534
        latitude: 43.62306
        longitude: 25.35389
        name: Svishtov
        names_en: ~
        names_es: ~
        population: 32256
        timezone: Europe/Sofia
      - 
        alternate_names: 
          - Souhyndol
          - Suchindol
          - Suhindol
          - Sukhindol
        ascii_name: Sukhindol
        geonamesid: 726643
        latitude: 43.19167
        longitude: 25.18111
        name: Sukhindol
        names_en: ~
        names_es: ~
        population: 2364
        timezone: Europe/Sofia
      - 
        alternate_names: 
          - "Kada K'oy"
          - "Kada K’oy"
          - Kadikioy
          - Strajitsa
        ascii_name: Strazhitsa
        geonamesid: 726727
        latitude: 43.23333
        longitude: 25.96667
        name: Strazhitsa
        names_en: ~
        names_es: ~
        population: 5728
        timezone: Europe/Sofia
      - 
        alternate_names: 
          - Purvomajci
          - Purvomaytsi
          - Pŭrvomaytsi
          - Sergjuvec
        ascii_name: Purvomaytsi
        geonamesid: 727884
        latitude: 43.15
        longitude: 25.65
        name: Pŭrvomaytsi
        names_en: ~
        names_es: ~
        population: 2867
        timezone: Europe/Sofia
      - 
        alternate_names: 
          - "Polsk Trumbesh"
          - "Polsk Trŭmbesh"
          - "Polski Trambech"
          - "Polski Trambesh"
        ascii_name: "Polski Trumbesh"
        geonamesid: 728124
        latitude: 43.38361
        longitude: 25.64972
        name: "Polski Trŭmbesh"
        names_en: ~
        names_es: ~
        population: 5663
        timezone: Europe/Sofia
      - 
        alternate_names: 
          - Pavlikem
          - Pavlikene
          - Pavlikeni
          - Pawlikeni
        ascii_name: Pavlikeni
        geonamesid: 728385
        latitude: 43.24278
        longitude: 25.32194
        name: Pavlikeni
        names_en: ~
        names_es: ~
        population: 12214
        timezone: Europe/Sofia
      - 
        alternate_names: 
          - Leskovec
          - Leskovets
          - Leskovetz
          - Leskovètz
        ascii_name: Lyaskovets
        geonamesid: 729489
        latitude: 43.11111
        longitude: 25.72833
        name: Lyaskovets
        names_en: ~
        names_es: ~
        population: 8488
        timezone: Europe/Sofia
      - 
        alternate_names: 
          - Kilifarevo
          - Kilifarewo
          - Килифарево
        ascii_name: Kilifarevo
        geonamesid: 730367
        latitude: 42.98333
        longitude: 25.63333
        name: Kilifarevo
        names_en: ~
        names_es: ~
        population: 2497
        timezone: Europe/Sofia
      - 
        alternate_names: 
          - "Gorna Orehovica"
          - "Gorna Orehovitsa"
          - "Gorna Orehovitza"
          - "Gorna Orekhovitsa"
        ascii_name: "Gorna Oryakhovitsa"
        geonamesid: 731233
        latitude: 43.12778
        longitude: 25.70167
        name: "Gorna Oryakhovitsa"
        names_en: ~
        names_es: ~
        population: 38553
        timezone: Europe/Sofia
      - 
        alternate_names: 
          - Debebletz
          - Debelec
          - Debelet
          - Debelets
        ascii_name: Debelets
        geonamesid: 732359
        latitude: 43.03333
        longitude: 25.61667
        name: Debelets
        names_en: ~
        names_es: ~
        population: 4418
        timezone: Europe/Sofia
      - 
        alternate_names: 
          - "Bela Cerkva"
          - "Bela Cherkva"
          - "Bela Tscherkwa"
          - Bela-Cerkova
        ascii_name: "Byala Cherkva"
        geonamesid: 732717
        latitude: 43.2
        longitude: 25.3
        name: "Byala Cherkva"
        names_en: ~
        names_es: ~
        population: 3010
        timezone: Europe/Sofia
    geonamesid: 864561
    name: "Veliko Tŭrnovo"
    names_en: ~
    names_es: ~
  - 
    ascii_name: "Oblast Vidin"
    cities: 
      - 
        alternate_names: 
          - Vidin
          - Vidine
          - Widin
          - wydyn
        ascii_name: Vidin
        geonamesid: 725905
        latitude: 43.99
        longitude: 22.8725
        name: Vidin
        names_en: 
          - Vidin
        names_es: ~
        population: 54409
        timezone: Europe/Sofia
      - 
        alternate_names: 
          - Rujintsi
          - Rushinzi
          - Ruzhentsi
          - Ruzhinci
        ascii_name: Ruzhintsi
        geonamesid: 727495
        latitude: 43.62333
        longitude: 22.83083
        name: Ruzhintsi
        names_en: ~
        names_es: ~
        population: 1269
        timezone: Europe/Sofia
      - 
        alternate_names: 
          - "Novo Selo"
          - Nowo-Selo
          - "Ново Село"
        ascii_name: "Novo Selo"
        geonamesid: 728709
        latitude: 44.15861
        longitude: 22.78667
        name: "Novo Selo"
        names_en: ~
        names_es: ~
        population: 1574
        timezone: Europe/Sofia
      - 
        alternate_names: 
          - Adlijo
          - Adlye
          - Koula
          - Kula
        ascii_name: Kula
        geonamesid: 729825
        latitude: 43.88778
        longitude: 22.52139
        name: Kula
        names_en: ~
        names_es: ~
        population: 3738
        timezone: Europe/Sofia
      - 
        alternate_names: 
          - Gramada
          - Грамада
        ascii_name: Gramada
        geonamesid: 731056
        latitude: 43.83444
        longitude: 22.65861
        name: Gramada
        names_en: ~
        names_es: ~
        population: 1872
        timezone: Europe/Sofia
      - 
        alternate_names: 
          - Dunavci
          - Dunavtsi
          - Dunavtzi
          - Дунавци
        ascii_name: Dunavtsi
        geonamesid: 731809
        latitude: 43.92111
        longitude: 22.82111
        name: Dunavtsi
        names_en: ~
        names_es: ~
        population: 3371
        timezone: Europe/Sofia
      - 
        alternate_names: 
          - Aleksandrovo
          - Burzitsa
          - Bŭrzitsa
          - Dimovo
        ascii_name: Dimovo
        geonamesid: 732253
        latitude: 43.74167
        longitude: 22.72694
        name: Dimovo
        names_en: ~
        names_es: ~
        population: 1461
        timezone: Europe/Sofia
      - 
        alternate_names: 
          - Bregovo
          - Bregowo
          - Brjegovo
          - Bryagovo
        ascii_name: Bregovo
        geonamesid: 732915
        latitude: 44.15167
        longitude: 22.6425
        name: Bregovo
        names_en: ~
        names_es: ~
        population: 2892
        timezone: Europe/Sofia
      - 
        alternate_names: 
          - Belogradchik
          - Belogradcik
          - Belogradtchik
          - Belogradtgchik
        ascii_name: Belogradchik
        geonamesid: 733309
        latitude: 43.62722
        longitude: 22.68361
        name: Belogradchik
        names_en: ~
        names_es: ~
        population: 5688
        timezone: Europe/Sofia
    geonamesid: 864562
    name: Vidin
    names_en: ~
    names_es: ~
  - 
    ascii_name: "Oblast Yambol"
    cities: 
      - 
        alternate_names: 
          - Iambol
          - Jambol
          - Jamboli
          - Yambol
        ascii_name: Yambol
        geonamesid: 725578
        latitude: 42.48333
        longitude: 26.5
        name: Yambol
        names_en: ~
        names_es: ~
        population: 80116
        timezone: Europe/Sofia
      - 
        alternate_names: 
          - Straldsha
          - Straldza
          - Straldzha
          - Straldža
        ascii_name: Straldzha
        geonamesid: 726748
        latitude: 42.6
        longitude: 26.68333
        name: Straldzha
        names_en: ~
        names_es: ~
        population: 5817
        timezone: Europe/Sofia
      - 
        alternate_names: 
          - Elchovo
          - Elchowo
          - Elhovo
          - Elkhovo
        ascii_name: Elkhovo
        geonamesid: 731670
        latitude: 42.16667
        longitude: 26.56667
        name: Elkhovo
        names_en: ~
        names_es: ~
        population: 11107
        timezone: Europe/Sofia
      - 
        alternate_names: 
          - Boljarovo
          - Boljarowo
          - Pachakioi
          - Pasakioj
        ascii_name: Bolyarovo
        geonamesid: 733092
        latitude: 42.15
        longitude: 26.81667
        name: Bolyarovo
        names_en: ~
        names_es: ~
        population: 1368
        timezone: Europe/Sofia
    geonamesid: 864563
    name: Yambol
    names_en: ~
    names_es: ~
