--- 
geonamesid: 2361809
iso: BF
name: "Burkina Faso"
names_en: 
  - "Burkina Faso"
names_es: 
  - "Burkina Fasso (Alto Volta)"
  - "Burkina Faso"
regions: 
  - 
    ascii_name: "Boucle du Mouhoun"
    cities: 
      - 
        alternate_names: 
          - Tougan
          - Tugan
        ascii_name: Tougan
        geonamesid: 2354176
        latitude: 13.06667
        longitude: -3.06667
        name: Tougan
        names_en: 
          - Tougan
        names_es: ~
        population: 17590
        timezone: Africa/Ouagadougou
      - 
        alternate_names: ~
        ascii_name: Toma
        geonamesid: 2354265
        latitude: 12.76667
        longitude: -2.88333
        name: Toma
        names_en: ~
        names_es: ~
        population: 12401
        timezone: Africa/Ouagadougou
      - 
        alternate_names: 
          - Salanso
          - Solenso
          - Solenzo
        ascii_name: Solenzo
        geonamesid: 2355404
        latitude: 12.18333
        longitude: -4.08333
        name: Solenzo
        names_en: 
          - Solenzo
        names_es: ~
        population: 10385
        timezone: Africa/Ouagadougou
      - 
        alternate_names: 
          - Nouna
        ascii_name: Nouna
        geonamesid: 2357163
        latitude: 12.73333
        longitude: -3.86667
        name: Nouna
        names_en: 
          - Nouna
        names_es: ~
        population: 29048
        timezone: Africa/Ouagadougou
      - 
        alternate_names: 
          - Dedougou
          - Dedugu
          - Dédougou
        ascii_name: Dedougou
        geonamesid: 2361477
        latitude: 12.46667
        longitude: -3.46667
        name: Dédougou
        names_en: 
          - Dédougou
        names_es: ~
        population: 45341
        timezone: Africa/Ouagadougou
      - 
        alternate_names: 
          - Borom
          - Boromo
        ascii_name: Boromo
        geonamesid: 2362150
        latitude: 11.75
        longitude: -2.93333
        name: Boromo
        names_en: 
          - Boromo
        names_es: ~
        population: 13157
        timezone: Africa/Ouagadougou
    geonamesid: 6930701
    name: "Boucle du Mouhoun"
    names_en: ~
    names_es: ~
  - 
    ascii_name: Cascades
    cities: 
      - 
        alternate_names: 
          - Sindu
        ascii_name: Sindou
        geonamesid: 2355548
        latitude: 10.66667
        longitude: -5.16667
        name: Sindou
        names_en: ~
        names_es: ~
        population: 3917
        timezone: Africa/Ouagadougou
      - 
        alternate_names: 
          - Banfora
          - Banforu
          - Банфору
        ascii_name: Banfora
        geonamesid: 2362909
        latitude: 10.63333
        longitude: -4.76667
        name: Banfora
        names_en: 
          - Banfora
        names_es: 
          - Banfora
        population: 60288
        timezone: Africa/Ouagadougou
    geonamesid: 6930703
    name: Cascades
    names_en: ~
    names_es: ~
  - 
    ascii_name: Centre
    cities: 
      - 
        alternate_names: 
          - Ouagadouga
          - Ouagadougou
          - Ouankantounkou
          - Uagadougou
        ascii_name: Ouagadougou
        geonamesid: 2357048
        latitude: 12.36423
        longitude: -1.53834
        name: Ouagadougou
        names_en: 
          - Ouagadougou
        names_es: 
          - Uagadugú
        population: 1086505
        timezone: Africa/Ouagadougou
    geonamesid: 6930704
    name: Centre
    names_en: ~
    names_es: ~
  - 
    ascii_name: Centre-Est
    cities: 
      - 
        alternate_names: 
          - Tenkodogo
        ascii_name: Tenkodogo
        geonamesid: 2354675
        latitude: 11.78
        longitude: -0.36972
        name: Tenkodogo
        names_en: 
          - Tenkodogo
        names_es: ~
        population: 37658
        timezone: Africa/Ouagadougou
      - 
        alternate_names: 
          - Ouargay
          - Ouargaye
        ascii_name: Ouargaye
        geonamesid: 2357012
        latitude: 11.50333
        longitude: 0.05722
        name: Ouargaye
        names_en: 
          - Ouargaye
        names_es: ~
        population: 10103
        timezone: Africa/Ouagadougou
      - 
        alternate_names: 
          - Kupela
        ascii_name: Koupela
        geonamesid: 2358738
        latitude: 12.17944
        longitude: -0.35167
        name: Koupéla
        names_en: ~
        names_es: ~
        population: 32052
        timezone: Africa/Ouagadougou
      - 
        alternate_names: 
          - Garango
        ascii_name: Garango
        geonamesid: 2360615
        latitude: 11.8
        longitude: -0.55056
        name: Garango
        names_en: ~
        names_es: ~
        population: 29076
        timezone: Africa/Ouagadougou
    geonamesid: 6930705
    name: Centre-Est
    names_en: ~
    names_es: ~
  - 
    ascii_name: Centre-Nord
    cities: 
      - 
        alternate_names: 
          - Kongoussi
        ascii_name: Kongoussi
        geonamesid: 2359142
        latitude: 13.32583
        longitude: -1.53472
        name: Kongoussi
        names_en: 
          - Kongoussi
        names_es: ~
        population: 26338
        timezone: Africa/Ouagadougou
      - 
        alternate_names: 
          - Kaja
          - Kaya
          - Кая
        ascii_name: Kaya
        geonamesid: 2359608
        latitude: 13.09167
        longitude: -1.08444
        name: Kaya
        names_en: ~
        names_es: ~
        population: 39229
        timezone: Africa/Ouagadougou
      - 
        alternate_names: 
          - Boulsa
          - Boulssa
          - Bulsa
        ascii_name: Boulsa
        geonamesid: 2361946
        latitude: 12.6675
        longitude: -0.57583
        name: Boulsa
        names_en: 
          - Boulsa
        names_es: ~
        population: 17489
        timezone: Africa/Ouagadougou
    geonamesid: 6930706
    name: Centre-Nord
    names_en: ~
    names_es: ~
  - 
    ascii_name: Centre-Ouest
    cities: 
      - 
        alternate_names: 
          - Sapoui
          - Sapui
        ascii_name: Sapouy
        geonamesid: 2355869
        latitude: 11.55444
        longitude: -1.77361
        name: Sapouy
        names_en: ~
        names_es: ~
        population: 3837
        timezone: Africa/Ouagadougou
      - 
        alternate_names: 
          - Reo
          - Réo
          - Рео
        ascii_name: Reo
        geonamesid: 2356228
        latitude: 12.31667
        longitude: -2.46667
        name: Réo
        names_en: 
          - Réo
        names_es: ~
        population: 37535
        timezone: Africa/Ouagadougou
      - 
        alternate_names: ~
        ascii_name: Pitmoaga
        geonamesid: 2356459
        latitude: 12.23972
        longitude: -1.87667
        name: Pitmoaga
        names_en: ~
        names_es: ~
        population: 7991
        timezone: Africa/Ouagadougou
      - 
        alternate_names: 
          - Leo
          - Lev
          - Léo
          - Лев
        ascii_name: Leo
        geonamesid: 2358382
        latitude: 11.1
        longitude: -2.1
        name: Léo
        names_en: 
          - Léo
        names_es: ~
        population: 26884
        timezone: Africa/Ouagadougou
      - 
        alternate_names: 
          - Kondougou
          - Koudougou
          - Kudugu
          - Кудугу
        ascii_name: Koudougou
        geonamesid: 2358946
        latitude: 12.25
        longitude: -2.36667
        name: Koudougou
        names_en: 
          - Koudougou
        names_es: ~
        population: 87347
        timezone: Africa/Ouagadougou
      - 
        alternate_names: 
          - Kokolgho
          - Kokologo
        ascii_name: Kokologo
        geonamesid: 2359317
        latitude: 12.18972
        longitude: -1.88556
        name: Kokologo
        names_en: ~
        names_es: ~
        population: 25958
        timezone: Africa/Ouagadougou
      - 
        alternate_names: ~
        ascii_name: Gouloure
        geonamesid: 2360286
        latitude: 12.23056
        longitude: -1.92889
        name: Goulouré
        names_en: ~
        names_es: ~
        population: 6677
        timezone: Africa/Ouagadougou
    geonamesid: 6930707
    name: Centre-Ouest
    names_en: ~
    names_es: ~
  - 
    ascii_name: Centre-Sud
    cities: 
      - 
        alternate_names: 
          - Po
          - Pô
        ascii_name: Po
        geonamesid: 2356454
        latitude: 11.16972
        longitude: -1.145
        name: Pô
        names_en: 
          - Pô
        names_es: ~
        population: 17924
        timezone: Africa/Ouagadougou
      - 
        alternate_names: ~
        ascii_name: Manga
        geonamesid: 2358100
        latitude: 11.66361
        longitude: -1.07306
        name: Manga
        names_en: ~
        names_es: ~
        population: 15173
        timezone: Africa/Ouagadougou
      - 
        alternate_names: 
          - Kombisiri
          - Kombissiguiri
          - Kombissiri
        ascii_name: Kombissiri
        geonamesid: 2359227
        latitude: 12.06556
        longitude: -1.3375
        name: Kombissiri
        names_en: 
          - Kombissiri
        names_es: ~
        population: 30137
        timezone: Africa/Ouagadougou
    geonamesid: 6930708
    name: Centre-Sud
    names_en: ~
    names_es: ~
  - 
    ascii_name: Est
    cities: 
      - 
        alternate_names: 
          - Panea
        ascii_name: Pama
        geonamesid: 2356738
        latitude: 11.24972
        longitude: 0.7075
        name: Pama
        names_en: ~
        names_es: ~
        population: 8902
        timezone: Africa/Ouagadougou
      - 
        alternate_names: 
          - Gayeri
          - Gayéri
        ascii_name: Gayeri
        geonamesid: 2360541
        latitude: 12.64972
        longitude: 0.49306
        name: Gayéri
        names_en: 
          - Gayéri
        names_es: ~
        population: 1958
        timezone: Africa/Ouagadougou
      - 
        alternate_names: 
          - "Fada N'Gourma"
          - "Fada N'gourma"
          - "Fada N’Gourma"
          - Fada-Ngourma
        ascii_name: "Fada N'Gourma"
        geonamesid: 2360886
        latitude: 12.06222
        longitude: 0.35778
        name: "Fada N’Gourma"
        names_en: 
          - "Fada N'gourma"
        names_es: ~
        population: 33910
        timezone: Africa/Ouagadougou
      - 
        alternate_names: 
          - Diapaga
          - Диапага
        ascii_name: Diapaga
        geonamesid: 2361373
        latitude: 12.07083
        longitude: 1.78889
        name: Diapaga
        names_en: 
          - Diapaga
        names_es: ~
        population: 26013
        timezone: Africa/Ouagadougou
      - 
        alternate_names: 
          - Bogande
          - Bogandé
        ascii_name: Bogande
        geonamesid: 2362323
        latitude: 12.97139
        longitude: -0.14361
        name: Bogandé
        names_en: 
          - Bogandé
        names_es: ~
        population: 9854
        timezone: Africa/Ouagadougou
    geonamesid: 6930709
    name: Est
    names_en: ~
    names_es: ~
  - 
    ascii_name: Hauts-Bassins
    cities: 
      - 
        alternate_names: 
          - Hounde
          - Houndé
          - Hunde
        ascii_name: Hounde
        geonamesid: 2360073
        latitude: 11.5
        longitude: -3.51667
        name: Houndé
        names_en: 
          - Houndé
        names_es: ~
        population: 36593
        timezone: Africa/Ouagadougou
      - 
        alternate_names: 
          - "Bobo Dioulasso"
          - Bobo-Dioulasso
          - Bobo-Diulasso
          - Bobodjulaso
        ascii_name: Bobo-Dioulasso
        geonamesid: 2362344
        latitude: 11.17715
        longitude: -4.2979
        name: Bobo-Dioulasso
        names_en: 
          - Bobo-Dioulasso
        names_es: 
          - Bobo-Dioulasso
        population: 360106
        timezone: Africa/Ouagadougou
      - 
        alternate_names: 
          - Orodaro
        ascii_name: Orodara
        geonamesid: 2577164
        latitude: 10.94917
        longitude: -4.93417
        name: Orodara
        names_en: ~
        names_es: ~
        population: 18632
        timezone: Africa/Ouagadougou
    geonamesid: 6930710
    name: Hauts-Bassins
    names_en: ~
    names_es: ~
  - 
    ascii_name: Nord
    cities: 
      - 
        alternate_names: 
          - Jako
          - Yako
          - Яко
        ascii_name: Yako
        geonamesid: 2353688
        latitude: 12.96667
        longitude: -2.26667
        name: Yako
        names_en: 
          - Yako
        names_es: ~
        population: 22904
        timezone: Africa/Ouagadougou
      - 
        alternate_names: ~
        ascii_name: Titao
        geonamesid: 2354349
        latitude: 13.76667
        longitude: -2.06667
        name: Titao
        names_en: ~
        names_es: ~
        population: 19131
        timezone: Africa/Ouagadougou
      - 
        alternate_names: 
          - Ouahigouya
          - Waiguya
        ascii_name: Ouahigouya
        geonamesid: 2357043
        latitude: 13.58278
        longitude: -2.42158
        name: Ouahigouya
        names_en: 
          - Ouahigouya
        names_es: ~
        population: 61096
        timezone: Africa/Ouagadougou
      - 
        alternate_names: 
          - Gourcy
          - Goursi
          - Gursi
        ascii_name: Gourcy
        geonamesid: 2360238
        latitude: 13.21667
        longitude: -2.35
        name: Gourcy
        names_en: 
          - Gourcy
        names_es: ~
        population: 16765
        timezone: Africa/Ouagadougou
    geonamesid: 6930711
    name: Nord
    names_en: ~
    names_es: ~
  - 
    ascii_name: Plateau-Central
    cities: 
      - 
        alternate_names: 
          - Zorgo
          - Zorogo
        ascii_name: Zorgho
        geonamesid: 2353197
        latitude: 12.24889
        longitude: -0.61583
        name: Zorgho
        names_en: ~
        names_es: ~
        population: 23892
        timezone: Africa/Ouagadougou
      - 
        alternate_names: 
          - Zimare
          - Zimaré
          - Zinarie
          - Zinarié
        ascii_name: Ziniare
        geonamesid: 2353257
        latitude: 12.58222
        longitude: -1.29833
        name: Ziniaré
        names_en: 
          - Ziniaré
        names_es: ~
        population: 12703
        timezone: Africa/Ouagadougou
      - 
        alternate_names: 
          - Busse
        ascii_name: Bousse
        geonamesid: 2361845
        latitude: 12.66056
        longitude: -1.89222
        name: Boussé
        names_en: ~
        names_es: ~
        population: 15868
        timezone: Africa/Ouagadougou
    geonamesid: 6930712
    name: Plateau-Central
    names_en: ~
    names_es: ~
  - 
    ascii_name: Sahel
    cities: 
      - 
        alternate_names: 
          - Sebba
          - Zebba
        ascii_name: Sebba
        geonamesid: 2355803
        latitude: 13.43641
        longitude: 0.53044
        name: Sebba
        names_en: 
          - Sebba
        names_es: ~
        population: 0
        timezone: Africa/Ouagadougou
      - 
        alternate_names: ~
        ascii_name: Gorom-Gorom
        geonamesid: 2360372
        latitude: 14.44389
        longitude: -0.23611
        name: Gorom-Gorom
        names_en: ~
        names_es: ~
        population: 6691
        timezone: Africa/Ouagadougou
      - 
        alternate_names: 
          - Dori
          - Дори
        ascii_name: Dori
        geonamesid: 2361082
        latitude: 14.0354
        longitude: -0.0345
        name: Dori
        names_en: ~
        names_es: ~
        population: 37806
        timezone: Africa/Ouagadougou
      - 
        alternate_names: 
          - Djibo
          - Dzhibo
          - Jibo
          - Джибо
        ascii_name: Djibo
        geonamesid: 2361177
        latitude: 14.10222
        longitude: -1.63056
        name: Djibo
        names_en: 
          - Djibo
        names_es: ~
        population: 22223
        timezone: Africa/Ouagadougou
    geonamesid: 6930713
    name: Sahel
    names_en: ~
    names_es: ~
  - 
    ascii_name: Sud-Ouest
    cities: 
      - 
        alternate_names: 
          - Diebougou
          - Diebugu
          - Diébougou
        ascii_name: Diebougou
        geonamesid: 2361342
        latitude: 10.96667
        longitude: -3.25
        name: Diébougou
        names_en: 
          - Diébougou
        names_es: ~
        population: 12732
        timezone: Africa/Ouagadougou
      - 
        alternate_names: ~
        ascii_name: Dano
        geonamesid: 2361586
        latitude: 11.15
        longitude: -3.06667
        name: Dano
        names_en: ~
        names_es: ~
        population: 11153
        timezone: Africa/Ouagadougou
      - 
        alternate_names: ~
        ascii_name: Batie
        geonamesid: 2362669
        latitude: 9.88333
        longitude: -2.91667
        name: Batié
        names_en: ~
        names_es: ~
        population: 6483
        timezone: Africa/Ouagadougou
      - 
        alternate_names: ~
        ascii_name: Gaoua
        geonamesid: 2577162
        latitude: 10.29917
        longitude: -3.25083
        name: Gaoua
        names_en: ~
        names_es: ~
        population: 25104
        timezone: Africa/Ouagadougou
    geonamesid: 6930714
    name: Sud-Ouest
    names_en: ~
    names_es: ~
