--- 
geonamesid: 1831722
iso: KH
name: Cambodia
names_en: 
  - Cambodia
  - "Democratic Cambodia"
  - "Khmer Republic"
  - "Democratic Kampuchea"
  - "Kingdom of Cambodia"
names_es: 
  - "Reino de Camboya"
  - Camboya
regions: 
  - 
    ascii_name: "Khett Pouthisat"
    cities: 
      - 
        alternate_names: 
          - Porsat
          - Pousat
          - Pouthisat
          - Poŭsăt
        ascii_name: Pursat
        geonamesid: 1822768
        latitude: 12.53878
        longitude: 103.9192
        name: Pursat
        names_en: ~
        names_es: ~
        population: 52476
        timezone: Asia/Phnom_Penh
    geonamesid: 1821301
    name: Poŭthĭsăt
    names_en: ~
    names_es: ~
  - 
    ascii_name: "Khett Batdambang"
    cities: 
      - 
        alternate_names: 
          - Batdambang
          - Battamban
          - Battambang
          - Bătdâmbâng
        ascii_name: Batdambang
        geonamesid: 1831797
        latitude: 13.10271
        longitude: 103.19822
        name: Bătdâmbâng
        names_en: 
          - Battambang
        names_es: 
          - "Ciudad de Battambang"
        population: 150444
        timezone: Asia/Phnom_Penh
    geonamesid: 1821310
    name: "Khétt Bătdâmbâng"
    names_en: ~
    names_es: ~
  - 
    ascii_name: "Khett Takev"
    cities: 
      - 
        alternate_names: 
          - Prasat
          - Pràsàt
          - Takeo
          - Takev
        ascii_name: Takev
        geonamesid: 1821940
        latitude: 10.98333
        longitude: 104.78333
        name: Takêv
        names_en: ~
        names_es: ~
        population: 0
        timezone: Asia/Phnom_Penh
      - 
        alternate_names: ~
        ascii_name: "Phumi Veal Sre"
        geonamesid: 1822906
        latitude: 10.98333
        longitude: 104.78333
        name: "Phumĭ Véal Srê"
        names_en: ~
        names_es: ~
        population: 44270
        timezone: Asia/Phnom_Penh
    geonamesid: 1821939
    name: Takêv
    names_en: ~
    names_es: ~
  - 
    ascii_name: "Khett Svay Rieng"
    cities: 
      - 
        alternate_names: 
          - "Phumi Svay Rieng"
          - "Phumĭ Svay Riĕng"
          - "Soai Rieng"
          - "Soei Rieng"
        ascii_name: "Svay Rieng"
        geonamesid: 1821993
        latitude: 11.08785
        longitude: 105.79935
        name: "Svay Riĕng"
        names_en: ~
        names_es: ~
        population: 0
        timezone: Asia/Phnom_Penh
    geonamesid: 1821992
    name: "Svay Riĕng"
    names_en: ~
    names_es: ~
  - 
    ascii_name: "Khett Stoeng Treng"
    cities: 
      - 
        alternate_names: 
          - "Stoeng Treng"
          - "Stung Teeng"
          - "Stung Treng"
          - "Stœ̆ng Trêng"
        ascii_name: "Stoeng Treng"
        geonamesid: 1822029
        latitude: 13.52586
        longitude: 105.9683
        name: "Stœ̆ng Trêng"
        names_en: ~
        names_es: ~
        population: 25000
        timezone: Asia/Phnom_Penh
    geonamesid: 1822028
    name: "Stœ̆ng Trêng"
    names_en: ~
    names_es: ~
  - 
    ascii_name: "Otar Meanchey"
    cities: 
      - 
        alternate_names: 
          - "Phumi Samraong"
          - "Phumĭ Sâmraông"
          - Samraong
          - Samrong
        ascii_name: Samraong
        geonamesid: 1822331
        latitude: 12.45262
        longitude: 105.58726
        name: Sâmraông
        names_en: ~
        names_es: ~
        population: 0
        timezone: Asia/Phnom_Penh
    geonamesid: 1822210
    name: "Ŏtâr Méanchey"
    names_en: ~
    names_es: ~
  - 
    ascii_name: "Khett Siem Reab"
    cities: 
      - 
        alternate_names: 
          - "Ciudad de Siem Riep"
          - "Khett Siem Reab"
          - "Siem Reap"
          - "Siem Riep"
        ascii_name: Siemreab
        geonamesid: 1822214
        latitude: 13.36667
        longitude: 103.85
        name: Siĕmréab
        names_en: 
          - "Siem Reap"
        names_es: 
          - "Ciudad de Siem Riep"
        population: 139458
        timezone: Asia/Phnom_Penh
    geonamesid: 1822213
    name: "Khétt Siĕm Réab"
    names_en: ~
    names_es: ~
  - 
    ascii_name: "Khett Rotanah Kiri"
    cities: 
      - 
        alternate_names: 
          - Lomphat
          - Lumphat
          - Lumphăt
        ascii_name: Lumphat
        geonamesid: 1830377
        latitude: 13.48784
        longitude: 106.98158
        name: Lumphăt
        names_en: ~
        names_es: ~
        population: 19205
        timezone: Asia/Phnom_Penh
      - 
        alternate_names: ~
        ascii_name: Banlung
        geonamesid: 6942076
        latitude: 13.7468
        longitude: 107.00452
        name: Banlung
        names_en: ~
        names_es: ~
        population: 0
        timezone: Asia/Phnom_Penh
    geonamesid: 1822449
    name: "Khétt Rôtânăh Kiri"
    names_en: ~
    names_es: ~
  - 
    ascii_name: "Khett Prey Veng"
    cities: 
      - 
        alternate_names: 
          - "Prei Veng"
          - "Prey Veng"
          - "Prey Vêng"
        ascii_name: "Prey Veng"
        geonamesid: 1822610
        latitude: 11.48682
        longitude: 105.32533
        name: "Prey Vêng"
        names_en: ~
        names_es: ~
        population: 0
        timezone: Asia/Phnom_Penh
    geonamesid: 1822609
    name: "Prey Vêng"
    names_en: ~
    names_es: ~
  - 
    ascii_name: "Khett Preah Vihear"
    cities: 
      - 
        alternate_names: 
          - "Kampong Preng"
          - "Kimpong Pranak"
          - "Kompong Pranak"
          - "Kompong Prena"
        ascii_name: "Phnum Tbeng Meanchey"
        geonamesid: 1830098
        latitude: 13.81667
        longitude: 104.96667
        name: "Phnum Tbêng Méanchey"
        names_en: ~
        names_es: ~
        population: 24380
        timezone: Asia/Phnom_Penh
    geonamesid: 1822676
    name: "Preăh Vĭhéar"
    names_en: ~
    names_es: ~
  - 
    ascii_name: "Krong Phnum Penh"
    cities: 
      - 
        alternate_names: 
          - "Nam Van"
          - Nam-Vang
          - "Phnom Pen"
          - "Phnom Penh"
        ascii_name: "Phnom Penh"
        geonamesid: 1821306
        latitude: 11.56245
        longitude: 104.91601
        name: "Phnom Penh"
        names_en: 
          - "Phnom Penh"
        names_es: 
          - "Phon Phen"
          - "Phnom Penh"
        population: 1573544
        timezone: Asia/Phnom_Penh
    geonamesid: 1830103
    name: "Krŏng Phnum Pénh"
    names_en: ~
    names_es: ~
  - 
    ascii_name: "Khett Pailin"
    cities: 
      - 
        alternate_names: 
          - "Ciudad de Pailin"
          - "Ciudad de Pailín"
          - "Krong Pailin"
          - Pailin
        ascii_name: Pailin
        geonamesid: 1830205
        latitude: 12.84895
        longitude: 102.60928
        name: Pailĭn
        names_en: 
          - Pailin
        names_es: 
          - "Ciudad de Pailín"
        population: 17850
        timezone: Asia/Phnom_Penh
    geonamesid: 1830206
    name: "Khétt Pailĭn"
    names_en: ~
    names_es: ~
  - 
    ascii_name: "Khett Mondol Kiri"
    cities: 
      - 
        alternate_names: 
          - "Mondul Kiri"
          - "Sen Monorum"
          - "Sen Moronom"
          - Senmanorum
        ascii_name: Senmonourom
        geonamesid: 1822227
        latitude: 12.45
        longitude: 107.2
        name: Sênmônoŭrôm
        names_en: ~
        names_es: ~
        population: 7944
        timezone: Asia/Phnom_Penh
      - 
        alternate_names: ~
        ascii_name: "Sen monorom"
        geonamesid: 6690237
        latitude: 12.44756
        longitude: 107.24768
        name: "Sen monorom"
        names_en: ~
        names_es: ~
        population: 0
        timezone: Asia/Phnom_Penh
    geonamesid: 1830306
    name: "Môndól Kiri"
    names_en: ~
    names_es: ~
  - 
    ascii_name: "Khett Kracheh"
    cities: 
      - 
        alternate_names: 
          - Kracheh
          - Krati
          - Kratie
          - Krâchéh
        ascii_name: Kratie
        geonamesid: 1830564
        latitude: 12.48811
        longitude: 106.01879
        name: Kratié
        names_en: ~
        names_es: ~
        population: 19975
        timezone: Asia/Phnom_Penh
    geonamesid: 1830563
    name: Krâchéh
    names_en: ~
    names_es: ~
  - 
    ascii_name: "Khett Keb"
    cities: 
      - 
        alternate_names: 
          - Kep
          - "Krong Keb"
          - "Krong Kep"
          - "Krŏng Kêb"
        ascii_name: "Krong Keb"
        geonamesid: 1830467
        latitude: 10.48333
        longitude: 104.31667
        name: "Krŏng Kêb"
        names_en: ~
        names_es: ~
        population: 11658
        timezone: Asia/Phnom_Penh
    geonamesid: 1830937
    name: "Khétt Kêb"
    names_en: ~
    names_es: ~
  - 
    ascii_name: "Khett Kaoh Kong"
    cities: 
      - 
        alternate_names: 
          - "Khemarak Phoumin"
          - "Khemarak Phoumin Ville"
          - "Khemareah Phumint"
          - "Koh Kong"
        ascii_name: "Krong Kaoh Kong"
        geonamesid: 1830468
        latitude: 11.6175
        longitude: 102.98056
        name: "Krŏng Kaôh Kŏng"
        names_en: 
          - "Koh Kong"
        names_es: ~
        population: 33134
        timezone: Asia/Phnom_Penh
    geonamesid: 1831037
    name: "Kaôh Kŏng"
    names_en: ~
    names_es: ~
  - 
    ascii_name: "Khett Kandal"
    cities: 
      - 
        alternate_names: 
          - "Ta Khmau"
          - Takhman
          - Takhmau
          - Takkhmau
        ascii_name: "Ta Khmau"
        geonamesid: 1821935
        latitude: 11.48333
        longitude: 104.95
        name: "Ta Khmau"
        names_en: ~
        names_es: ~
        population: 52066
        timezone: Asia/Phnom_Penh
    geonamesid: 1831095
    name: Kândal
    names_en: ~
    names_es: ~
  - 
    ascii_name: "Khett Kampot"
    cities: 
      - 
        alternate_names: 
          - "Compong Bai"
          - "Compong Baï"
          - Kampat
          - Kampot
        ascii_name: Kampot
        geonamesid: 1831112
        latitude: 10.61667
        longitude: 104.18333
        name: Kâmpôt
        names_en: ~
        names_es: ~
        population: 22691
        timezone: Asia/Phnom_Penh
    geonamesid: 1831111
    name: "Khétt Kâmpôt"
    names_en: ~
    names_es: ~
  - 
    ascii_name: "Khett Kampong Thum"
    cities: 
      - 
        alternate_names: 
          - "Kampong Thom"
          - "Kampong Thum"
          - "Kampong Thun"
          - "Kompong Thom"
        ascii_name: "Kampong Thum"
        geonamesid: 1831125
        latitude: 12.71112
        longitude: 104.88873
        name: "Kâmpóng Thum"
        names_en: ~
        names_es: ~
        population: 19951
        timezone: Asia/Phnom_Penh
    geonamesid: 1831124
    name: "Kâmpóng Thum"
    names_en: ~
    names_es: ~
  - 
    ascii_name: "Khett Kampong Spoe"
    cities: 
      - 
        alternate_names: 
          - "Kampong Spoe"
          - "Kompon Spu"
          - "Kompong Speu"
          - "Kâmpóng Spœ"
        ascii_name: "Kampong Spoe"
        geonamesid: 1831133
        latitude: 11.45
        longitude: 104.53333
        name: "Kâmpóng Spœ"
        names_en: ~
        names_es: ~
        population: 33231
        timezone: Asia/Phnom_Penh
    geonamesid: 1831132
    name: "Khétt Kâmpóng Spœ"
    names_en: ~
    names_es: ~
  - 
    ascii_name: "Khett Kampong Chhnang"
    cities: 
      - 
        alternate_names: 
          - "Kampong Chhnang"
          - "Kampong Chnang"
          - Kampongchnang
          - "Kompon Chnang"
        ascii_name: "Kampong Chhnang"
        geonamesid: 1831167
        latitude: 12.25
        longitude: 104.66667
        name: "Kâmpóng Chhnăng"
        names_en: ~
        names_es: ~
        population: 75244
        timezone: Asia/Phnom_Penh
    geonamesid: 1831166
    name: "Kâmpóng Chhnăng"
    names_en: ~
    names_es: ~
  - 
    ascii_name: "Khett Kampong Cham"
    cities: 
      - 
        alternate_names: 
          - Compon-lina
          - "Kampong Cham"
          - Kampongtjam
          - "Kompon Cam"
        ascii_name: "Kampong Cham"
        geonamesid: 1831173
        latitude: 11.99339
        longitude: 105.4635
        name: "Kâmpóng Cham"
        names_en: ~
        names_es: ~
        population: 61750
        timezone: Asia/Phnom_Penh
    geonamesid: 1831172
    name: "Kâmpóng Cham"
    names_en: ~
    names_es: ~
  - 
    ascii_name: "Khett Preah Seihanu"
    cities: 
      - 
        alternate_names: 
          - "Ciudad de Sihanoukville"
          - "Kampong Saom"
          - "Kampong Semville"
          - "Kampong Somville"
        ascii_name: Sihanoukville
        geonamesid: 1831142
        latitude: 10.60932
        longitude: 103.52958
        name: Sihanoukville
        names_en: 
          - Sihanoukville
        names_es: 
          - "Ciudad de Sihanoukville"
        population: 156691
        timezone: Asia/Phnom_Penh
    geonamesid: 1899262
    name: "Khétt Preăh Seihânŭ"
    names_en: ~
    names_es: ~
  - 
    ascii_name: "Khett Banteay Mean Cheay"
    cities: 
      - 
        alternate_names: 
          - Sesopone
          - Sisobhon
          - Sisophon
          - Sisŏphŏn
        ascii_name: Sisophon
        geonamesid: 1822207
        latitude: 13.58588
        longitude: 102.97369
        name: Sisŏphŏn
        names_en: ~
        names_es: ~
        population: 23218
        timezone: Asia/Phnom_Penh
      - 
        alternate_names: 
          - "Paoy Pet"
          - "Paôy Pêt"
          - "Phum Paoy Pet"
          - "Phum Paôy Pêt"
        ascii_name: "Paoy Pet"
        geonamesid: 1830194
        latitude: 13.65611
        longitude: 102.5625
        name: "Paôy Pêt"
        names_en: ~
        names_es: ~
        population: 79000
        timezone: Asia/Phnom_Penh
    geonamesid: 1899273
    name: "Khétt Bântéay Méan Cheăy"
    names_en: ~
    names_es: ~
