--- 
geonamesid: 2233387
iso: CM
name: Cameroon
names_en: 
  - Cameroon
  - "Republic of Cameroon"
names_es: 
  - Camerún
regions: 
  - 
    ascii_name: "South-West Region"
    cities: 
      - 
        alternate_names: 
          - Tiko
        ascii_name: Tiko
        geonamesid: 2221504
        latitude: 4.0745
        longitude: 9.3699
        name: Tiko
        names_en: ~
        names_es: ~
        population: 55914
        timezone: Africa/Douala
      - 
        alternate_names: ~
        ascii_name: Nguti
        geonamesid: 2224413
        latitude: 5.3299
        longitude: 9.4185
        name: Nguti
        names_en: ~
        names_es: ~
        population: 5498
        timezone: Africa/Douala
      - 
        alternate_names: 
          - Mouyouka
          - Muyuka
        ascii_name: Muyuka
        geonamesid: 2225726
        latitude: 4.2898
        longitude: 9.4103
        name: Muyuka
        names_en: ~
        names_es: ~
        population: 31384
        timezone: Africa/Douala
      - 
        alternate_names: ~
        ascii_name: Mutengene
        geonamesid: 2225728
        latitude: 4.0913
        longitude: 9.3144
        name: Mutengene
        names_en: ~
        names_es: ~
        population: 47478
        timezone: Africa/Douala
      - 
        alternate_names: 
          - Mundemba
          - Mundenba
          - Ndian
        ascii_name: Mundemba
        geonamesid: 2225745
        latitude: 4.9479
        longitude: 8.8724
        name: Mundemba
        names_en: ~
        names_es: ~
        population: 11912
        timezone: Africa/Douala
      - 
        alternate_names: 
          - Mamfe
        ascii_name: Mamfe
        geonamesid: 2228675
        latitude: 5.754
        longitude: 9.3123
        name: Mamfe
        names_en: ~
        names_es: ~
        population: 19472
        timezone: Africa/Douala
      - 
        alternate_names: 
          - Limbe
          - Limbé
          - Victoria
          - Лимбе
        ascii_name: Limbe
        geonamesid: 2229411
        latitude: 4.0242
        longitude: 9.2149
        name: Limbe
        names_en: 
          - Limbe
        names_es: ~
        population: 72106
        timezone: Africa/Douala
      - 
        alternate_names: 
          - Kumba
          - Kumboj
          - Кумбой
        ascii_name: Kumba
        geonamesid: 2229752
        latitude: 4.6363
        longitude: 9.4469
        name: Kumba
        names_en: ~
        names_es: ~
        population: 144413
        timezone: Africa/Douala
      - 
        alternate_names: ~
        ascii_name: Fontem
        geonamesid: 2231564
        latitude: 5.4685
        longitude: 9.8818
        name: Fontem
        names_en: ~
        names_es: ~
        population: 42689
        timezone: Africa/Douala
      - 
        alternate_names: 
          - Buea
          - Buéa
        ascii_name: Buea
        geonamesid: 2233410
        latitude: 4.1527
        longitude: 9.241
        name: Buea
        names_en: 
          - Buea
        names_es: ~
        population: 47300
        timezone: Africa/Douala
      - 
        alternate_names: 
          - Bekondo
          - "Boa Bekondo"
        ascii_name: Bekondo
        geonamesid: 2234545
        latitude: 4.6819
        longitude: 9.3214
        name: Bekondo
        names_en: ~
        names_es: ~
        population: 7331
        timezone: Africa/Douala
      - 
        alternate_names: 
          - Bamuso
          - Bamusso
        ascii_name: Bamusso
        geonamesid: 2234941
        latitude: 4.4591
        longitude: 8.9027
        name: Bamusso
        names_en: ~
        names_es: ~
        population: 24741
        timezone: Africa/Douala
      - 
        alternate_names: ~
        ascii_name: Idenao
        geonamesid: 2594800
        latitude: 4.2475
        longitude: 9.00472
        name: Idenao
        names_en: ~
        names_es: ~
        population: 17800
        timezone: Africa/Douala
    geonamesid: 2221788
    name: "South-West Region"
    names_en: 
      - "South-West Province"
      - "South-West Region"
    names_es: ~
  - 
    ascii_name: "South Province"
    cities: 
      - 
        alternate_names: 
          - Sangmelima
          - Sangmelina
          - Sangmélima
          - Сангмелима
        ascii_name: Sangmelima
        geonamesid: 2222230
        latitude: 2.93333
        longitude: 11.98333
        name: Sangmélima
        names_en: ~
        names_es: ~
        population: 54251
        timezone: Africa/Douala
      - 
        alternate_names: ~
        ascii_name: Mvangue
        geonamesid: 2225703
        latitude: 2.96667
        longitude: 11.51667
        name: Mvangué
        names_en: ~
        names_es: ~
        population: 1908
        timezone: Africa/Douala
      - 
        alternate_names: 
          - Lelodorf
          - Lolodorf
          - Lolodrof
        ascii_name: Lolodorf
        geonamesid: 2229267
        latitude: 3.23333
        longitude: 10.73333
        name: Lolodorf
        names_en: ~
        names_es: ~
        population: 22252
        timezone: Africa/Douala
      - 
        alternate_names: 
          - Kribi
          - Криби
        ascii_name: Kribi
        geonamesid: 2229761
        latitude: 2.95
        longitude: 9.91667
        name: Kribi
        names_en: ~
        names_es: ~
        population: 55224
        timezone: Africa/Douala
      - 
        alternate_names: 
          - Ebolova
          - Ebolowa
          - Ébolowa
        ascii_name: Ebolowa
        geonamesid: 2232283
        latitude: 2.9
        longitude: 11.15
        name: Ébolowa
        names_en: ~
        names_es: ~
        population: 87875
        timezone: Africa/Douala
      - 
        alternate_names: 
          - Ambam
        ascii_name: Ambam
        geonamesid: 2235660
        latitude: 2.38333
        longitude: 11.28333
        name: Ambam
        names_en: ~
        names_es: ~
        population: 8476
        timezone: Africa/Douala
      - 
        alternate_names: 
          - Akom
          - "Akom II"
        ascii_name: "Akom II"
        geonamesid: 2235814
        latitude: 2.78333
        longitude: 10.56667
        name: "Akom II"
        names_en: ~
        names_es: ~
        population: 9709
        timezone: Africa/Douala
    geonamesid: 2221789
    name: "South Province"
    names_en: 
      - "South Province"
      - "South Region"
    names_es: ~
  - 
    ascii_name: "West Region"
    cities: 
      - 
        alternate_names: 
          - Lagosdorf
          - Tonga
          - Tonga's
          - Tonga’s
        ascii_name: Tonga
        geonamesid: 2221394
        latitude: 4.96667
        longitude: 10.7
        name: Tonga
        names_en: ~
        names_es: ~
        population: 16036
        timezone: Africa/Douala
      - 
        alternate_names: 
          - Mbouda
        ascii_name: Mbouda
        geonamesid: 2227613
        latitude: 5.62578
        longitude: 10.25517
        name: Mbouda
        names_en: 
          - Mbouda
        names_es: ~
        population: 111320
        timezone: Africa/Douala
      - 
        alternate_names: 
          - Foumbat
          - Foumbot
        ascii_name: Foumbot
        geonamesid: 2231504
        latitude: 5.50787
        longitude: 10.6356
        name: Foumbot
        names_en: ~
        names_es: ~
        population: 84065
        timezone: Africa/Douala
      - 
        alternate_names: 
          - Foumbam
          - Foumban
          - Fumban
        ascii_name: Foumban
        geonamesid: 2231506
        latitude: 5.7291
        longitude: 10.90011
        name: Foumban
        names_en: 
          - Foumban
        names_es: ~
        population: 92673
        timezone: Africa/Douala
      - 
        alternate_names: 
          - Chang
          - Dchang
          - Djang
          - Dschang
        ascii_name: Dschang
        geonamesid: 2232444
        latitude: 5.44559
        longitude: 10.055
        name: Dschang
        names_en: 
          - Dschang
        names_es: ~
        population: 96112
        timezone: Africa/Douala
      - 
        alternate_names: 
          - Bazou
        ascii_name: Bazou
        geonamesid: 2234635
        latitude: 5.05695
        longitude: 10.46978
        name: Bazou
        names_en: ~
        names_es: ~
        population: 13058
        timezone: Africa/Douala
      - 
        alternate_names: 
          - Bansoa
        ascii_name: Bansoa
        geonamesid: 2234803
        latitude: 5.44718
        longitude: 10.31514
        name: Bansoa
        names_en: ~
        names_es: ~
        population: 7560
        timezone: Africa/Douala
      - 
        alternate_names: 
          - Bangou
          - Banjou
          - Ngou
        ascii_name: Ngou
        geonamesid: 2234842
        latitude: 5.1959
        longitude: 10.38441
        name: Ngou
        names_en: ~
        names_es: ~
        population: 7560
        timezone: Africa/Douala
      - 
        alternate_names: 
          - Bangangte
          - Bangangté
          - Bangante
          - Banganté
        ascii_name: Bangangte
        geonamesid: 2234865
        latitude: 5.14091
        longitude: 10.51975
        name: Bangangté
        names_en: ~
        names_es: ~
        population: 65385
        timezone: Africa/Douala
      - 
        alternate_names: 
          - Bandjoun
        ascii_name: Bandjoun
        geonamesid: 2234904
        latitude: 5.37878
        longitude: 10.41816
        name: Bandjoun
        names_en: ~
        names_es: ~
        population: 6872
        timezone: Africa/Douala
      - 
        alternate_names: 
          - Bana
        ascii_name: Bana
        geonamesid: 2234936
        latitude: 5.1481
        longitude: 10.2762
        name: Bana
        names_en: ~
        names_es: ~
        population: 5727
        timezone: Africa/Douala
      - 
        alternate_names: 
          - Bamendjou
        ascii_name: Bamendjou
        geonamesid: 2234968
        latitude: 5.38875
        longitude: 10.33161
        name: Bamendjou
        names_en: ~
        names_es: ~
        population: 6643
        timezone: Africa/Douala
      - 
        alternate_names: 
          - Bafousam
          - Bafoussam
          - Bafusam
          - Bafussama
        ascii_name: Bafoussam
        geonamesid: 2235189
        latitude: 5.47366
        longitude: 10.41786
        name: Bafoussam
        names_en: 
          - Bafoussam
        names_es: ~
        population: 290768
        timezone: Africa/Douala
      - 
        alternate_names: 
          - Bafang
        ascii_name: Bafang
        geonamesid: 2235196
        latitude: 5.15625
        longitude: 10.17882
        name: Bafang
        names_en: 
          - Bafang
        names_es: ~
        population: 80688
        timezone: Africa/Douala
    geonamesid: 2222934
    name: "West Region"
    names_en: 
      - "West Province"
      - "West Region"
    names_es: ~
  - 
    ascii_name: "North-West Province"
    cities: 
      - 
        alternate_names: 
          - Wum
        ascii_name: Wum
        geonamesid: 2221053
        latitude: 6.38333
        longitude: 10.06667
        name: Wum
        names_en: 
          - Wum
        names_es: ~
        population: 68836
        timezone: Africa/Douala
      - 
        alternate_names: 
          - Njinikom
          - Njnikom
        ascii_name: Njinikom
        geonamesid: 2224212
        latitude: 6.23333
        longitude: 10.28333
        name: Njinikom
        names_en: ~
        names_es: ~
        population: 8247
        timezone: Africa/Douala
      - 
        alternate_names: 
          - Me
          - Mme
          - Mme-Bafumen
        ascii_name: Mme-Bafumen
        geonamesid: 2226441
        latitude: 6.33333
        longitude: 10.23333
        name: Mme-Bafumen
        names_en: ~
        names_es: ~
        population: 6149
        timezone: Africa/Douala
      - 
        alternate_names: 
          - Mbengwi
        ascii_name: Mbengwi
        geonamesid: 2227853
        latitude: 6.01667
        longitude: 10.0
        name: Mbengwi
        names_en: ~
        names_es: ~
        population: 9734
        timezone: Africa/Douala
      - 
        alternate_names: 
          - Kumbo
        ascii_name: Kumbo
        geonamesid: 2229748
        latitude: 6.2
        longitude: 10.66667
        name: Kumbo
        names_en: ~
        names_es: ~
        population: 53970
        timezone: Africa/Douala
      - 
        alternate_names: ~
        ascii_name: Jakiri
        geonamesid: 2230641
        latitude: 6.1
        longitude: 10.65
        name: Jakiri
        names_en: ~
        names_es: ~
        population: 5269
        timezone: Africa/Douala
      - 
        alternate_names: ~
        ascii_name: Fundong
        geonamesid: 2231482
        latitude: 6.25
        longitude: 10.26667
        name: Fundong
        names_en: ~
        names_es: ~
        population: 43509
        timezone: Africa/Douala
      - 
        alternate_names: 
          - Bello
          - Belo
        ascii_name: Belo
        geonamesid: 2234455
        latitude: 6.13333
        longitude: 10.25
        name: Belo
        names_en: ~
        names_es: ~
        population: 8705
        timezone: Africa/Douala
      - 
        alternate_names: ~
        ascii_name: Batibo
        geonamesid: 2234684
        latitude: 5.8358
        longitude: 9.8553
        name: Batibo
        names_en: ~
        names_es: ~
        population: 9163
        timezone: Africa/Douala
      - 
        alternate_names: 
          - Bamenda
          - Bamendy
          - Баменды
        ascii_name: Bamenda
        geonamesid: 2234974
        latitude: 5.95266
        longitude: 10.15824
        name: Bamenda
        names_en: 
          - Bamenda
        names_es: ~
        population: 393835
        timezone: Africa/Douala
      - 
        alternate_names: 
          - Bali
          - Бали
        ascii_name: Bali
        geonamesid: 2235029
        latitude: 5.88724
        longitude: 10.01248
        name: Bali
        names_en: 
          - Bali
        names_es: ~
        population: 72606
        timezone: Africa/Douala
      - 
        alternate_names: 
          - Babanki
          - "Big Babanki"
        ascii_name: Babanki
        geonamesid: 2235293
        latitude: 6.11667
        longitude: 10.25
        name: Babanki
        names_en: ~
        names_es: ~
        population: 9851
        timezone: Africa/Douala
    geonamesid: 2223602
    name: "North-West Province"
    names_en: 
      - "North-West Province"
      - "North-West Region"
    names_es: ~
  - 
    ascii_name: "North Region"
    cities: 
      - 
        alternate_names: 
          - Cholire
          - Choliré
          - Chollire
          - Djolere
        ascii_name: Tchollire
        geonamesid: 2221607
        latitude: 8.4022
        longitude: 14.1698
        name: Tcholliré
        names_en: ~
        names_es: ~
        population: 23187
        timezone: Africa/Douala
      - 
        alternate_names: 
          - "Rei Buba"
          - Rei-Bouba
          - "Rey Bouba"
          - Reï-Bouba
        ascii_name: "Rey Bouba"
        geonamesid: 2222439
        latitude: 8.6724
        longitude: 14.1786
        name: "Rey Bouba"
        names_en: ~
        names_es: ~
        population: 11454
        timezone: Africa/Douala
      - 
        alternate_names: ~
        ascii_name: Poli
        geonamesid: 2222539
        latitude: 8.48333
        longitude: 13.25
        name: Poli
        names_en: ~
        names_es: ~
        population: 5727
        timezone: Africa/Douala
      - 
        alternate_names: 
          - Piloa
          - Pitoa
          - Pitowa
        ascii_name: Pitoa
        geonamesid: 2222568
        latitude: 9.38333
        longitude: 13.53333
        name: Pitoa
        names_en: ~
        names_es: ~
        population: 11454
        timezone: Africa/Douala
      - 
        alternate_names: ~
        ascii_name: Lagdo
        geonamesid: 2229681
        latitude: 9.05
        longitude: 13.73333
        name: Lagdo
        names_en: ~
        names_es: ~
        population: 24596
        timezone: Africa/Douala
      - 
        alternate_names: 
          - Gider
          - Guidder
          - Guider
        ascii_name: Guider
        geonamesid: 2230876
        latitude: 9.93417
        longitude: 13.94861
        name: Guider
        names_en: ~
        names_es: ~
        population: 84647
        timezone: Africa/Douala
      - 
        alternate_names: 
          - Garoua
          - Garua
          - Гаруа
        ascii_name: Garoua
        geonamesid: 2231320
        latitude: 9.3
        longitude: 13.4
        name: Garoua
        names_en: 
          - Garoua
        names_es: ~
        population: 436899
        timezone: Africa/Douala
    geonamesid: 2223603
    name: "North Region"
    names_en: 
      - "North Province"
      - "North Region"
    names_es: ~
  - 
    ascii_name: "Littoral Province"
    cities: 
      - 
        alternate_names: 
          - Jabassi
          - Yabasi
          - Yabassi
          - Yabazi
        ascii_name: Yabassi
        geonamesid: 2221046
        latitude: 4.45697
        longitude: 9.96822
        name: Yabassi
        names_en: ~
        names_es: ~
        population: 7560
        timezone: Africa/Douala
      - 
        alternate_names: ~
        ascii_name: Penja
        geonamesid: 2222623
        latitude: 4.63911
        longitude: 9.67987
        name: Penja
        names_en: ~
        names_es: ~
        population: 28406
        timezone: Africa/Douala
      - 
        alternate_names: 
          - Nkongsamba
          - Nkongsomba
          - Нконгсамба
        ascii_name: Nkongsamba
        geonamesid: 2223763
        latitude: 4.9547
        longitude: 9.9404
        name: Nkongsamba
        names_en: 
          - Nkongsamba
        names_es: ~
        population: 117063
        timezone: Africa/Douala
      - 
        alternate_names: 
          - Babimbi
          - Ngambe
          - Ngambé
          - Nganbe
        ascii_name: Ngambe
        geonamesid: 2224863
        latitude: 4.23333
        longitude: 10.61667
        name: Ngambé
        names_en: ~
        names_es: ~
        population: 6414
        timezone: Africa/Douala
      - 
        alternate_names: 
          - Mouangko
          - Mouanko
          - Muankoo
        ascii_name: Mouanko
        geonamesid: 2225940
        latitude: 3.63972
        longitude: 9.77694
        name: Mouanko
        names_en: ~
        names_es: ~
        population: 1604
        timezone: Africa/Douala
      - 
        alternate_names: ~
        ascii_name: Melong
        geonamesid: 2227230
        latitude: 5.1218
        longitude: 9.96143
        name: Melong
        names_en: ~
        names_es: ~
        population: 37086
        timezone: Africa/Douala
      - 
        alternate_names: 
          - M'Bange
          - Mbanga
          - M’Bangé
        ascii_name: Mbanga
        geonamesid: 2228005
        latitude: 4.5016
        longitude: 9.5671
        name: Mbanga
        names_en: ~
        names_es: ~
        population: 42590
        timezone: Africa/Douala
      - 
        alternate_names: ~
        ascii_name: Manjo
        geonamesid: 2228499
        latitude: 4.8428
        longitude: 9.8217
        name: Manjo
        names_en: ~
        names_es: ~
        population: 37661
        timezone: Africa/Douala
      - 
        alternate_names: 
          - Loum
          - Lum
          - Лум
        ascii_name: Loum
        geonamesid: 2229152
        latitude: 4.7182
        longitude: 9.7351
        name: Loum
        names_en: ~
        names_es: ~
        population: 177429
        timezone: Africa/Douala
      - 
        alternate_names: 
          - Edea
          - Edéa
          - Ehdea
          - Édéa
        ascii_name: Edea
        geonamesid: 2232239
        latitude: 3.8
        longitude: 10.13333
        name: Edéa
        names_en: 
          - Edéa
        names_es: ~
        population: 203149
        timezone: Africa/Douala
      - 
        alternate_names: 
          - Douala
          - Doula
          - Duala
          - do~uara
        ascii_name: Douala
        geonamesid: 2232593
        latitude: 4.0469
        longitude: 9.7084
        name: Douala
        names_en: 
          - Douala
        names_es: 
          - Duala
        population: 1338082
        timezone: Africa/Douala
      - 
        alternate_names: 
          - Dizangue
          - Dizangué
          - Dizanque
          - Dizanqué
        ascii_name: Dizangue
        geonamesid: 2232997
        latitude: 3.76667
        longitude: 9.98333
        name: Dizangué
        names_en: ~
        names_es: ~
        population: 19243
        timezone: Africa/Douala
      - 
        alternate_names: ~
        ascii_name: Dibombari
        geonamesid: 2233100
        latitude: 4.1787
        longitude: 9.6561
        name: Dibombari
        names_en: ~
        names_es: ~
        population: 4811
        timezone: Africa/Douala
      - 
        alternate_names: ~
        ascii_name: Diang
        geonamesid: 2233118
        latitude: 4.25
        longitude: 10.01667
        name: Diang
        names_en: ~
        names_es: ~
        population: 2062
        timezone: Africa/Douala
      - 
        alternate_names: 
          - Bonaberi
          - Bonabéri
          - Boniberi
          - Bouaberi
        ascii_name: Bonaberi
        geonamesid: 2233704
        latitude: 4.0779
        longitude: 9.6759
        name: Bonabéri
        names_en: ~
        names_es: ~
        population: 8091
        timezone: Africa/Douala
      - 
        alternate_names: ~
        ascii_name: Ndom
        geonamesid: 2595172
        latitude: 4.4978
        longitude: 9.5628
        name: Ndom
        names_en: ~
        names_es: ~
        population: 5498
        timezone: Africa/Douala
    geonamesid: 2229336
    name: "Littoral Province"
    names_en: 
      - "Littoral Province"
      - "Littoral Region"
    names_es: ~
  - 
    ascii_name: "Far North Region"
    cities: 
      - 
        alternate_names: 
          - Jagua
          - Jágua
          - Yagoua
          - Yagua
        ascii_name: Yagoua
        geonamesid: 2221030
        latitude: 10.34107
        longitude: 15.23288
        name: Yagoua
        names_en: ~
        names_es: ~
        population: 80235
        timezone: Africa/Douala
      - 
        alternate_names: 
          - Mora
          - More
          - Море
        ascii_name: Mora
        geonamesid: 2225991
        latitude: 11.04611
        longitude: 14.14011
        name: Mora
        names_en: ~
        names_es: ~
        population: 55216
        timezone: Africa/Douala
      - 
        alternate_names: 
          - Mokolo
        ascii_name: Mokolo
        geonamesid: 2226275
        latitude: 10.73978
        longitude: 13.80188
        name: Mokolo
        names_en: ~
        names_es: ~
        population: 275239
        timezone: Africa/Douala
      - 
        alternate_names: 
          - Mendif
          - Mindif
        ascii_name: Mindif
        geonamesid: 2226641
        latitude: 10.39757
        longitude: 14.43626
        name: Mindif
        names_en: ~
        names_es: ~
        population: 10538
        timezone: Africa/Douala
      - 
        alternate_names: 
          - Maroua
          - Marua
          - Маруа
        ascii_name: Maroua
        geonamesid: 2228373
        latitude: 10.59095
        longitude: 14.31592
        name: Maroua
        names_en: ~
        names_es: ~
        population: 319941
        timezone: Africa/Douala
      - 
        alternate_names: 
          - Mafate
          - Mafaté
          - Mafete
          - Makari
        ascii_name: Makary
        geonamesid: 2228881
        latitude: 12.5717
        longitude: 14.46662
        name: Makary
        names_en: ~
        names_es: ~
        population: 7331
        timezone: Africa/Douala
      - 
        alternate_names: ~
        ascii_name: Koza
        geonamesid: 2229780
        latitude: 10.87079
        longitude: 13.87855
        name: Koza
        names_en: ~
        names_es: ~
        population: 3665
        timezone: Africa/Douala
      - 
        alternate_names: 
          - "Fort Fureau"
          - Fort-Foureau
          - Kousseri
          - Kousséri
        ascii_name: Kousseri
        geonamesid: 2229798
        latitude: 12.07689
        longitude: 15.03063
        name: Kousséri
        names_en: 
          - Kousséri
        names_es: ~
        population: 435547
        timezone: Africa/Douala
      - 
        alternate_names: ~
        ascii_name: Kaele
        geonamesid: 2230599
        latitude: 10.10917
        longitude: 14.45083
        name: Kaélé
        names_en: ~
        names_es: ~
        population: 25199
        timezone: Africa/Douala
      - 
        alternate_names: ~
        ascii_name: Bogo
        geonamesid: 2233805
        latitude: 10.7336
        longitude: 14.60928
        name: Bogo
        names_en: ~
        names_es: ~
        population: 16952
        timezone: Africa/Douala
    geonamesid: 2231755
    name: "Far North Region"
    names_en: 
      - "Far North Province"
      - "Far North Region"
    names_es: ~
  - 
    ascii_name: "East Province"
    cities: 
      - 
        alternate_names: 
          - Yokadouma
          - Youkadouma
        ascii_name: Yokadouma
        geonamesid: 2220853
        latitude: 3.51667
        longitude: 15.05
        name: Yokadouma
        names_en: ~
        names_es: ~
        population: 13287
        timezone: Africa/Douala
      - 
        alternate_names: 
          - "Alte Fakt Delele"
          - Delele
          - Delelé
          - Ndelele
        ascii_name: "Alte Fakt Delele"
        geonamesid: 2225325
        latitude: 4.03333
        longitude: 14.93333
        name: "Alte Fakt Delele"
        names_en: ~
        names_es: ~
        population: 5040
        timezone: Africa/Douala
      - 
        alternate_names: ~
        ascii_name: Mbang
        geonamesid: 2228019
        latitude: 4.58333
        longitude: 13.33333
        name: Mbang
        names_en: ~
        names_es: ~
        population: 1237
        timezone: Africa/Douala
      - 
        alternate_names: ~
        ascii_name: "Garoua Boulai"
        geonamesid: 2231319
        latitude: 5.88333
        longitude: 14.55
        name: "Garoua Boulaï"
        names_en: ~
        names_es: ~
        population: 46615
        timezone: Africa/Douala
      - 
        alternate_names: 
          - Doume
          - Doumé
          - Dume
          - Dume-Station
        ascii_name: Doume
        geonamesid: 2232497
        latitude: 4.23333
        longitude: 13.45
        name: Doumé
        names_en: ~
        names_es: ~
        population: 5581
        timezone: Africa/Douala
      - 
        alternate_names: 
          - Dimako
        ascii_name: Dimako
        geonamesid: 2233056
        latitude: 4.38333
        longitude: 13.56667
        name: Dimako
        names_en: ~
        names_es: ~
        population: 8476
        timezone: Africa/Douala
      - 
        alternate_names: 
          - Betare
          - "Betare Oya"
          - Betaye-Oya
          - "Bétaré Oya"
        ascii_name: "Betare Oya"
        geonamesid: 2234339
        latitude: 5.6
        longitude: 14.08333
        name: "Bétaré Oya"
        names_en: ~
        names_es: ~
        population: 11866
        timezone: Africa/Douala
      - 
        alternate_names: 
          - Bertoua
          - Bertua
          - Gamane
          - Бертуа
        ascii_name: Bertoua
        geonamesid: 2234359
        latitude: 4.58333
        longitude: 13.68333
        name: Bertoua
        names_en: 
          - Bertoua
        names_es: ~
        population: 218111
        timezone: Africa/Douala
      - 
        alternate_names: 
          - Belabo
          - Bélabo
          - Белабо
        ascii_name: Belabo
        geonamesid: 2234536
        latitude: 4.93333
        longitude: 13.3
        name: Bélabo
        names_en: ~
        names_es: ~
        population: 22553
        timezone: Africa/Douala
      - 
        alternate_names: 
          - Batouri
          - Baturi
        ascii_name: Batouri
        geonamesid: 2234663
        latitude: 4.43333
        longitude: 14.36667
        name: Batouri
        names_en: ~
        names_es: ~
        population: 43821
        timezone: Africa/Douala
      - 
        alternate_names: 
          - "Abong Mbang"
        ascii_name: "Abong Mbang"
        geonamesid: 2236053
        latitude: 3.98333
        longitude: 13.18333
        name: "Abong Mbang"
        names_en: ~
        names_es: ~
        population: 14661
        timezone: Africa/Douala
    geonamesid: 2231835
    name: "East Province"
    names_en: 
      - "East Province"
      - "East Region"
    names_es: ~
  - 
    ascii_name: "Centre Province"
    cities: 
      - 
        alternate_names: 
          - Joko
          - Yoko
        ascii_name: Yoko
        geonamesid: 2220849
        latitude: 5.53333
        longitude: 12.31667
        name: Yoko
        names_en: ~
        names_es: ~
        population: 5269
        timezone: Africa/Douala
      - 
        alternate_names: 
          - Giaounte
          - Jaunde
          - Jaundė
          - Jaúnde
        ascii_name: Yaounde
        geonamesid: 2220957
        latitude: 3.86667
        longitude: 11.51667
        name: Yaoundé
        names_en: 
          - Yaoundé
        names_es: 
          - Yaundé
          - Yaoundé
        population: 1299369
        timezone: Africa/Douala
      - 
        alternate_names: 
          - Saa
        ascii_name: Saa
        geonamesid: 2222366
        latitude: 4.36667
        longitude: 11.45
        name: Saa
        names_en: ~
        names_es: ~
        population: 5727
        timezone: Africa/Douala
      - 
        alternate_names: 
          - Ombesa
          - Ombessa
          - Ombésa
        ascii_name: Ombesa
        geonamesid: 2223162
        latitude: 4.6
        longitude: 11.25
        name: Ombésa
        names_en: ~
        names_es: ~
        population: 1833
        timezone: Africa/Douala
      - 
        alternate_names: ~
        ascii_name: Okola
        geonamesid: 2223216
        latitude: 4.01667
        longitude: 11.38333
        name: Okola
        names_en: ~
        names_es: ~
        population: 5390
        timezone: Africa/Douala
      - 
        alternate_names: 
          - Okoa
          - Scho
          - So
          - Soa
        ascii_name: Okoa
        geonamesid: 2223226
        latitude: 3.98333
        longitude: 11.6
        name: Okoa
        names_en: ~
        names_es: ~
        population: 3358
        timezone: Africa/Douala
      - 
        alternate_names: 
          - Obala
        ascii_name: Obala
        geonamesid: 2223293
        latitude: 4.16667
        longitude: 11.53333
        name: Obala
        names_en: ~
        names_es: ~
        population: 30012
        timezone: Africa/Douala
      - 
        alternate_names: 
          - N'Dui
          - Ntui
          - Ntwi
          - N’Dui
        ascii_name: Ntui
        geonamesid: 2223421
        latitude: 4.45
        longitude: 11.63333
        name: Ntui
        names_en: ~
        names_es: ~
        population: 6185
        timezone: Africa/Douala
      - 
        alternate_names: ~
        ascii_name: Nkoteng
        geonamesid: 2223734
        latitude: 4.51667
        longitude: 12.03333
        name: Nkoteng
        names_en: ~
        names_es: ~
        population: 50334
        timezone: Africa/Douala
      - 
        alternate_names: 
          - Janjo
          - Janjō
          - Ngoro
          - Ngorro
        ascii_name: Ngoro
        geonamesid: 2224584
        latitude: 4.95
        longitude: 11.38333
        name: Ngoro
        names_en: ~
        names_es: ~
        population: 2305
        timezone: Africa/Douala
      - 
        alternate_names: ~
        ascii_name: Ngomedzap
        geonamesid: 2224641
        latitude: 3.25
        longitude: 11.2
        name: Ngomedzap
        names_en: ~
        names_es: ~
        population: 4284
        timezone: Africa/Douala
      - 
        alternate_names: 
          - Ndikinemeki
          - Ndikinimeki
          - Ndikiniméki
        ascii_name: Ndikinimeki
        geonamesid: 2225263
        latitude: 4.76667
        longitude: 10.83333
        name: Ndikiniméki
        names_en: ~
        names_es: ~
        population: 8247
        timezone: Africa/Douala
      - 
        alternate_names: 
          - "Nanga Eboko"
        ascii_name: "Nanga Eboko"
        geonamesid: 2225457
        latitude: 4.68333
        longitude: 12.36667
        name: "Nanga Eboko"
        names_en: ~
        names_es: ~
        population: 29909
        timezone: Africa/Douala
      - 
        alternate_names: ~
        ascii_name: Minta
        geonamesid: 2226515
        latitude: 4.58333
        longitude: 12.8
        name: Minta
        names_en: ~
        names_es: ~
        population: 4934
        timezone: Africa/Douala
      - 
        alternate_names: ~
        ascii_name: Mbankomo
        geonamesid: 2227980
        latitude: 3.78333
        longitude: 11.38333
        name: Mbankomo
        names_en: ~
        names_es: ~
        population: 2387
        timezone: Africa/Douala
      - 
        alternate_names: 
          - Mbandjock
          - Mbandjok
        ascii_name: Mbandjok
        geonamesid: 2228028
        latitude: 4.45
        longitude: 11.9
        name: Mbandjok
        names_en: ~
        names_es: ~
        population: 26947
        timezone: Africa/Douala
      - 
        alternate_names: 
          - Mbal'majo
          - Mbalmajo
          - Mbalmayo
          - Мбальмайо
        ascii_name: Mbalmayo
        geonamesid: 2228079
        latitude: 3.51667
        longitude: 11.5
        name: Mbalmayo
        names_en: ~
        names_es: ~
        population: 80206
        timezone: Africa/Douala
      - 
        alternate_names: ~
        ascii_name: Evodoula
        geonamesid: 2231775
        latitude: 4.08333
        longitude: 11.2
        name: Évodoula
        names_en: ~
        names_es: ~
        population: 1521
        timezone: Africa/Douala
      - 
        alternate_names: ~
        ascii_name: Esse
        geonamesid: 2231851
        latitude: 4.1
        longitude: 11.9
        name: Essé
        names_en: ~
        names_es: ~
        population: 3803
        timezone: Africa/Douala
      - 
        alternate_names: 
          - Eseka
          - Eséka
        ascii_name: Eseka
        geonamesid: 2231881
        latitude: 3.65
        longitude: 10.76667
        name: Eséka
        names_en: ~
        names_es: ~
        population: 22221
        timezone: Africa/Douala
      - 
        alternate_names: 
          - Bafia
          - "Bafia Ngitakuba"
          - "Bafiā Ngitakuba"
        ascii_name: Bafia
        geonamesid: 2235194
        latitude: 4.75
        longitude: 11.23333
        name: Bafia
        names_en: ~
        names_es: ~
        population: 69270
        timezone: Africa/Douala
      - 
        alternate_names: 
          - Akomolinga
          - Akonolinga
        ascii_name: Akonolinga
        geonamesid: 2235776
        latitude: 3.76667
        longitude: 12.25
        name: Akonolinga
        names_en: ~
        names_es: ~
        population: 17181
        timezone: Africa/Douala
      - 
        alternate_names: ~
        ascii_name: Akono
        geonamesid: 2235780
        latitude: 3.5
        longitude: 11.33333
        name: Akono
        names_en: ~
        names_es: ~
        population: 3821
        timezone: Africa/Douala
    geonamesid: 2233376
    name: "Centre Province"
    names_en: 
      - "Centre Province"
      - "Centre Region"
    names_es: ~
  - 
    ascii_name: "Adamaoua Province"
    cities: 
      - 
        alternate_names: 
          - Tignere
          - Tignère
          - Tingere
          - Tingeré
        ascii_name: Tignere
        geonamesid: 2221513
        latitude: 7.36667
        longitude: 12.65
        name: Tignère
        names_en: ~
        names_es: ~
        population: 4353
        timezone: Africa/Douala
      - 
        alternate_names: ~
        ascii_name: Tibati
        geonamesid: 2221530
        latitude: 6.46667
        longitude: 12.63333
        name: Tibati
        names_en: ~
        names_es: ~
        population: 35589
        timezone: Africa/Douala
      - 
        alternate_names: 
          - Ngaoundere
          - Ngaoundéré
          - Ngaundere
        ascii_name: Ngaoundere
        geonamesid: 2224827
        latitude: 7.31667
        longitude: 13.58333
        name: Ngaoundéré
        names_en: ~
        names_es: ~
        population: 231357
        timezone: Africa/Douala
      - 
        alternate_names: 
          - Meiganda
          - Meiganga
          - Mejgange
          - Meïganga
        ascii_name: Meiganga
        geonamesid: 2227402
        latitude: 6.51667
        longitude: 14.3
        name: Meïganga
        names_en: ~
        names_es: ~
        population: 80100
        timezone: Africa/Douala
      - 
        alternate_names: 
          - Koncha
          - Kontcha
          - Kontscha
        ascii_name: Kontcha
        geonamesid: 2230028
        latitude: 7.96667
        longitude: 12.23333
        name: Kontcha
        names_en: ~
        names_es: ~
        population: 8018
        timezone: Africa/Douala
      - 
        alternate_names: 
          - Bamkim
          - Bamkin
          - Bankin
          - Kimi
        ascii_name: Bankim
        geonamesid: 2230285
        latitude: 6.08303
        longitude: 11.4905
        name: Bankim
        names_en: ~
        names_es: ~
        population: 5727
        timezone: Africa/Douala
      - 
        alternate_names: 
          - Djohong
          - Doumba
        ascii_name: Djohong
        geonamesid: 2232774
        latitude: 6.83333
        longitude: 14.7
        name: Djohong
        names_en: ~
        names_es: ~
        population: 4813
        timezone: Africa/Douala
      - 
        alternate_names: ~
        ascii_name: Belel
        geonamesid: 2234520
        latitude: 7.05
        longitude: 14.43333
        name: Bélel
        names_en: ~
        names_es: ~
        population: 6831
        timezone: Africa/Douala
      - 
        alternate_names: 
          - Banjo
          - Banyo
        ascii_name: Banyo
        geonamesid: 2234794
        latitude: 6.75
        longitude: 11.81667
        name: Banyo
        names_en: ~
        names_es: ~
        population: 40798
        timezone: Africa/Douala
      - 
        alternate_names: 
          - Ndeba
          - Somie
          - Tchokmon
        ascii_name: Somie
        geonamesid: 6620518
        latitude: 6.45843
        longitude: 11.43299
        name: Somié
        names_en: ~
        names_es: ~
        population: 2000
        timezone: Africa/Douala
    geonamesid: 2236015
    name: "Adamaoua Province"
    names_en: 
      - "Adamaoua Province"
      - "Adamaoua Region"
    names_es: ~
