--- 
geonamesid: 2434508
iso: TD
name: Chad
names_en: 
  - Chad
  - "Republic of Chad"
names_es: 
  - Chad
regions: 
  - 
    ascii_name: "Region du Salamat"
    cities: 
      - 
        alternate_names: 
          - "Am Timan"
          - "Am Timane"
          - "Am Timmane"
          - "Umm Timman"
        ascii_name: "Am Timan"
        geonamesid: 245338
        latitude: 11.0297
        longitude: 20.2827
        name: "Am Timan"
        names_en: 
          - "Am Timan"
        names_es: ~
        population: 28885
        timezone: Africa/Ndjamena
    geonamesid: 242048
    name: Salamat
    names_en: ~
    names_es: ~
  - 
    ascii_name: "Region du Ouaddai"
    cities: 
      - 
        alternate_names: 
          - "Goz Beida"
          - "Goz Béïda"
        ascii_name: "Goz Beida"
        geonamesid: 243783
        latitude: 13.95
        longitude: 20.55
        name: "Goz Béïda"
        names_en: 
          - "Goz Beida"
        names_es: ~
        population: 1500
        timezone: Africa/Ndjamena
      - 
        alternate_names: 
          - Adre
          - Adré
        ascii_name: Adre
        geonamesid: 245669
        latitude: 13.46667
        longitude: 22.2
        name: Adré
        names_en: ~
        names_es: ~
        population: 11928
        timezone: Africa/Ndjamena
      - 
        alternate_names: 
          - Abacher
          - Abeche
          - Abecher
          - Abeshe
        ascii_name: Abeche
        geonamesid: 245785
        latitude: 13.82916
        longitude: 20.8324
        name: Abéché
        names_en: 
          - Abéché
        names_es: 
          - Abéché
        population: 74188
        timezone: Africa/Ndjamena
    geonamesid: 242246
    name: Ouaddaï
    names_en: ~
    names_es: ~
  - 
    ascii_name: "Region du Wadi Fira"
    cities: 
      - 
        alternate_names: 
          - Iriba
        ascii_name: Iriba
        geonamesid: 243590
        latitude: 15.11667
        longitude: 22.25
        name: Iriba
        names_en: 
          - Iriba
        names_es: ~
        population: 1100
        timezone: Africa/Ndjamena
      - 
        alternate_names: 
          - Biltine
        ascii_name: Biltine
        geonamesid: 244878
        latitude: 14.53333
        longitude: 20.91667
        name: Biltine
        names_en: 
          - Biltine
        names_es: ~
        population: 11000
        timezone: Africa/Ndjamena
    geonamesid: 244877
    name: Biltine
    names_en: ~
    names_es: ~
  - 
    ascii_name: "Region du Tandjile"
    cities: 
      - 
        alternate_names: 
          - Behagie
          - Behagle
          - Lai
          - Laï
        ascii_name: Lai
        geonamesid: 2429296
        latitude: 9.3952
        longitude: 16.2989
        name: Laï
        names_en: 
          - Laï
        names_es: ~
        population: 19382
        timezone: Africa/Ndjamena
      - 
        alternate_names: 
          - Kel
          - Kelo
          - Кел
        ascii_name: Kelo
        geonamesid: 2430506
        latitude: 9.30859
        longitude: 15.80658
        name: Kelo
        names_en: ~
        names_es: ~
        population: 42533
        timezone: Africa/Ndjamena
      - 
        alternate_names: ~
        ascii_name: Bere
        geonamesid: 2435474
        latitude: 9.3202
        longitude: 16.1552
        name: Béré
        names_en: ~
        names_es: ~
        population: 14666
        timezone: Africa/Ndjamena
    geonamesid: 2425287
    name: Tandjilé
    names_en: ~
    names_es: ~
  - 
    ascii_name: "Region du Moyen-Chari"
    cities: 
      - 
        alternate_names: 
          - Archambault
          - Fort-Archambault
          - Sagh
          - Sahr
        ascii_name: Sagh
        geonamesid: 2425791
        latitude: 9.1429
        longitude: 18.3923
        name: Sagh
        names_en: 
          - Sarh
        names_es: 
          - Sarh
        population: 102528
        timezone: Africa/Ndjamena
      - 
        alternate_names: 
          - Kiyabe
          - Kiyabi
          - Kiyabé
          - Kyabe
        ascii_name: Kyabe
        geonamesid: 2429344
        latitude: 9.45149
        longitude: 18.94493
        name: Kyabé
        names_en: ~
        names_es: ~
        population: 16177
        timezone: Africa/Ndjamena
    geonamesid: 2427315
    name: Moyen-Chari
    names_en: ~
    names_es: ~
  - 
    ascii_name: "Region du Mayo-Kebbi Est"
    cities: 
      - 
        alternate_names: 
          - Gelengdeng
          - Guelendeng
          - Guelengdeng
          - Guélengdeng
        ascii_name: Guelendeng
        geonamesid: 2431573
        latitude: 10.91762
        longitude: 15.5501
        name: Guelendeng
        names_en: ~
        names_es: ~
        population: 11379
        timezone: Africa/Ndjamena
      - 
        alternate_names: 
          - Gounou
          - "Gounou Foursoum"
          - "Gounou Gaya"
        ascii_name: "Gounou Gaya"
        geonamesid: 2431724
        latitude: 9.6294
        longitude: 15.5132
        name: "Gounou Gaya"
        names_en: ~
        names_es: ~
        population: 9521
        timezone: Africa/Ndjamena
      - 
        alternate_names: 
          - Bongor
          - Бонгор
        ascii_name: Bongor
        geonamesid: 2434910
        latitude: 10.28056
        longitude: 15.37222
        name: Bongor
        names_en: 
          - Bongor
        names_es: ~
        population: 27770
        timezone: Africa/Ndjamena
    geonamesid: 2428132
    name: Mayo-Kébbi
    names_en: ~
    names_es: ~
  - 
    ascii_name: "Region du Logone Oriental"
    cities: 
      - 
        alternate_names: 
          - Doba
          - Доба
        ascii_name: Doba
        geonamesid: 2433437
        latitude: 8.65
        longitude: 16.85
        name: Doba
        names_en: 
          - Doba
        names_es: ~
        population: 24336
        timezone: Africa/Ndjamena
      - 
        alternate_names: 
          - Beboto
          - Béboto
        ascii_name: Beboto
        geonamesid: 2435837
        latitude: 8.26682
        longitude: 16.93898
        name: Béboto
        names_en: ~
        names_es: ~
        population: 5432
        timezone: Africa/Ndjamena
      - 
        alternate_names: 
          - Bebedja
          - Bebedjia
          - Bebeidja
          - Bebeidjia
        ascii_name: Bebedja
        geonamesid: 2435854
        latitude: 8.6761
        longitude: 16.566
        name: Bébédja
        names_en: ~
        names_es: ~
        population: 12671
        timezone: Africa/Ndjamena
    geonamesid: 2429058
    name: "Logone Oriental"
    names_en: ~
    names_es: ~
  - 
    ascii_name: "Region du Logone Occidental"
    cities: 
      - 
        alternate_names: 
          - Mondou
          - Mondu
          - Moundou
          - Moundu
        ascii_name: Moundou
        geonamesid: 2427455
        latitude: 8.56667
        longitude: 16.08333
        name: Moundou
        names_en: 
          - Moundou
        names_es: ~
        population: 135167
        timezone: Africa/Ndjamena
      - 
        alternate_names: 
          - Benoy
          - Benoye
          - Bénoye
        ascii_name: Benoy
        geonamesid: 2435508
        latitude: 8.98327
        longitude: 16.31991
        name: Benoy
        names_en: ~
        names_es: ~
        population: 15717
        timezone: Africa/Ndjamena
      - 
        alternate_names: ~
        ascii_name: Beinamar
        geonamesid: 2435708
        latitude: 8.6698
        longitude: 15.3813
        name: Beïnamar
        names_en: ~
        names_es: ~
        population: 7445
        timezone: Africa/Ndjamena
    geonamesid: 2429060
    name: "Logone Occidental"
    names_en: ~
    names_es: ~
  - 
    ascii_name: "Region du Lac"
    cities: 
      - 
        alternate_names: 
          - Bol
          - "Bol I"
        ascii_name: Bol
        geonamesid: 2434979
        latitude: 13.45861
        longitude: 14.71472
        name: Bol
        names_en: ~
        names_es: ~
        population: 11700
        timezone: Africa/Ndjamena
    geonamesid: 2429323
    name: Lac
    names_en: ~
    names_es: ~
  - 
    ascii_name: "Region du Kanem"
    cities: 
      - 
        alternate_names: 
          - Mao
        ascii_name: Mao
        geonamesid: 2428394
        latitude: 14.12116
        longitude: 15.3103
        name: Mao
        names_en: 
          - Mao
        names_es: ~
        population: 18031
        timezone: Africa/Ndjamena
    geonamesid: 2430873
    name: Kanem
    names_en: ~
    names_es: ~
  - 
    ascii_name: "Region du Guera"
    cities: 
      - 
        alternate_names: 
          - Mongo
          - Монго
        ascii_name: Mongo
        geonamesid: 2427637
        latitude: 12.18441
        longitude: 18.69303
        name: Mongo
        names_en: ~
        names_es: ~
        population: 27763
        timezone: Africa/Ndjamena
      - 
        alternate_names: ~
        ascii_name: Melfi
        geonamesid: 2427949
        latitude: 11.0598
        longitude: 17.9355
        name: Melfi
        names_en: ~
        names_es: ~
        population: 5784
        timezone: Africa/Ndjamena
      - 
        alternate_names: 
          - Bitkin
          - Bitkine
        ascii_name: Bitkine
        geonamesid: 2435124
        latitude: 11.9801
        longitude: 18.2138
        name: Bitkine
        names_en: ~
        names_es: ~
        population: 18495
        timezone: Africa/Ndjamena
    geonamesid: 2431555
    name: Guéra
    names_en: ~
    names_es: ~
  - 
    ascii_name: "Region du Chari-Baguirmi"
    cities: 
      - 
        alternate_names: 
          - "Ngama Yakoud"
        ascii_name: Ngama
        geonamesid: 2427036
        latitude: 11.78333
        longitude: 17.16667
        name: Ngama
        names_en: ~
        names_es: ~
        population: 12438
        timezone: Africa/Ndjamena
      - 
        alternate_names: 
          - Fort-Lamy
          - Lamy
          - N'Djamena
          - Ndjamena
        ascii_name: N'Djamena
        geonamesid: 2427123
        latitude: 12.11058
        longitude: 15.03479
        name: N'Djamena
        names_en: 
          - N'Djamena
        names_es: 
          - N'Djamena
          - Yamena
        population: 721081
        timezone: Africa/Ndjamena
      - 
        alternate_names: 
          - Chekna
          - Massenia
          - Massenya
          - Tchekna
        ascii_name: Massenya
        geonamesid: 2428216
        latitude: 11.4039
        longitude: 16.1705
        name: Massenya
        names_en: 
          - Massenya
        names_es: ~
        population: 3680
        timezone: Africa/Ndjamena
      - 
        alternate_names: 
          - Dourbali
          - Ndourbali
        ascii_name: Dourbali
        geonamesid: 2433055
        latitude: 11.80909
        longitude: 15.86323
        name: Dourbali
        names_en: ~
        names_es: ~
        population: 17682
        timezone: Africa/Ndjamena
      - 
        alternate_names: 
          - Bousso
          - "Fort Bretonnet"
        ascii_name: Bousso
        geonamesid: 2434584
        latitude: 10.4795
        longitude: 16.7117
        name: Bousso
        names_en: ~
        names_es: ~
        population: 13555
        timezone: Africa/Ndjamena
    geonamesid: 2434478
    name: Chari-Baguirmi
    names_en: ~
    names_es: ~
  - 
    ascii_name: "Region du Batha"
    cities: 
      - 
        alternate_names: ~
        ascii_name: "Oum Hadjer"
        geonamesid: 2426370
        latitude: 13.2954
        longitude: 19.6966
        name: "Oum Hadjer"
        names_en: ~
        names_es: ~
        population: 19271
        timezone: Africa/Ndjamena
      - 
        alternate_names: 
          - Ati
          - Ати
        ascii_name: Ati
        geonamesid: 2436400
        latitude: 13.2154
        longitude: 18.3353
        name: Ati
        names_en: 
          - Ati
        names_es: ~
        population: 24074
        timezone: Africa/Ndjamena
    geonamesid: 2435899
    name: Batha
    names_en: ~
    names_es: ~
  - 
    ascii_name: "Region du Borkou"
    cities: 
      - 
        alternate_names: 
          - Faya
          - Faya-Largeau
          - Largeau
        ascii_name: Largeau
        geonamesid: 2432678
        latitude: 17.9257
        longitude: 19.10428
        name: Largeau
        names_en: 
          - Faya-Largeau
        names_es: ~
        population: 13400
        timezone: Africa/Ndjamena
    geonamesid: 7602866
    name: "Région du Borkou"
    names_en: ~
    names_es: ~
  - 
    ascii_name: "Region du Hadjer-Lamis"
    cities: 
      - 
        alternate_names: 
          - Dagana
          - Massakori
          - Massakory
        ascii_name: Massakory
        geonamesid: 2428228
        latitude: 12.996
        longitude: 15.72927
        name: Massakory
        names_en: ~
        names_es: ~
        population: 15406
        timezone: Africa/Ndjamena
      - 
        alternate_names: 
          - "Massa Gueit"
          - Massaguet
          - Massaguete
          - Massaguette
        ascii_name: Massaguet
        geonamesid: 2428231
        latitude: 12.47554
        longitude: 15.43647
        name: Massaguet
        names_en: ~
        names_es: ~
        population: 17906
        timezone: Africa/Ndjamena
      - 
        alternate_names: ~
        ascii_name: Bokoro
        geonamesid: 2434985
        latitude: 12.3807
        longitude: 17.0568
        name: Bokoro
        names_en: ~
        names_es: ~
        population: 14723
        timezone: Africa/Ndjamena
    geonamesid: 7603251
    name: "Région du Hadjer-Lamis"
    names_en: ~
    names_es: ~
  - 
    ascii_name: "Region du Mandoul"
    cities: 
      - 
        alternate_names: 
          - Moissaia
          - Moissala
          - Moïssala
        ascii_name: Moissala
        geonamesid: 2427697
        latitude: 8.3404
        longitude: 17.7663
        name: Moïssala
        names_en: ~
        names_es: ~
        population: 11264
        timezone: Africa/Ndjamena
      - 
        alternate_names: 
          - Koumbra
          - Koumra
        ascii_name: Koumra
        geonamesid: 2429605
        latitude: 8.91256
        longitude: 17.55392
        name: Koumra
        names_en: ~
        names_es: ~
        population: 36263
        timezone: Africa/Ndjamena
      - 
        alternate_names: 
          - Goundi
          - Gundi
        ascii_name: Goundi
        geonamesid: 2431736
        latitude: 9.36267
        longitude: 17.36597
        name: Goundi
        names_en: ~
        names_es: ~
        population: 10052
        timezone: Africa/Ndjamena
    geonamesid: 7603252
    name: "Région du Mandoul"
    names_en: ~
    names_es: ~
  - 
    ascii_name: "Region du Mayo-Kebbi Ouest"
    cities: 
      - 
        alternate_names: 
          - Pala
          - Palla
          - Пала
        ascii_name: Pala
        geonamesid: 2426240
        latitude: 9.3642
        longitude: 14.9046
        name: Pala
        names_en: ~
        names_es: ~
        population: 35466
        timezone: Africa/Ndjamena
      - 
        alternate_names: ~
        ascii_name: "Mboursou Lere"
        geonamesid: 2428042
        latitude: 9.7639
        longitude: 14.1539
        name: "Mboursou Léré"
        names_en: ~
        names_es: ~
        population: 17132
        timezone: Africa/Ndjamena
    geonamesid: 7603253
    name: "Région du Mayo-Kébbi Ouest"
    names_en: ~
    names_es: ~
  - 
    ascii_name: "Region de la Ville de N'Djamena"
    cities: []
    geonamesid: 7603254
    name: "Région de la Ville de N'Djaména"
    names_en: ~
    names_es: ~
  - 
    ascii_name: "Region du Barh el Gazel"
    cities: 
      - 
        alternate_names: 
          - "Bahr el Ghazal"
          - Moussoro
        ascii_name: Moussoro
        geonamesid: 2427336
        latitude: 13.64084
        longitude: 16.49007
        name: Moussoro
        names_en: ~
        names_es: ~
        population: 15190
        timezone: Africa/Ndjamena
    geonamesid: 7603255
    name: "Région du Barh el Gazel"
    names_en: ~
    names_es: ~
  - 
    ascii_name: Ennedi
    cities: []
    geonamesid: 7603256
    name: Ennedi
    names_en: ~
    names_es: ~
  - 
    ascii_name: "Region du Sila"
    cities: []
    geonamesid: 7603257
    name: "Région du Sila"
    names_en: ~
    names_es: ~
  - 
    ascii_name: "Region du Tibesti"
    cities: 
      - 
        alternate_names: 
          - Aozou
          - Ozu
        ascii_name: Aozou
        geonamesid: 2436628
        latitude: 21.8375
        longitude: 17.4275
        name: Aozou
        names_en: ~
        names_es: ~
        population: 1880
        timezone: Africa/Ndjamena
    geonamesid: 7603258
    name: "Région du Tibesti"
    names_en: ~
    names_es: ~
