--- 
geonamesid: 921929
iso: KM
name: Comoros
names_en: 
  - Comoros
  - "Union of the Comoros"
names_es: 
  - Comoras
regions: 
  - 
    ascii_name: Mwali
    cities: 
      - 
        alternate_names: 
          - Oanani
          - Ouanani
          - Wanani
        ascii_name: Ouanani
        geonamesid: 921654
        latitude: -12.3375
        longitude: 43.7975
        name: Ouanani
        names_en: ~
        names_es: ~
        population: 2401
        timezone: Indian/Comoro
      - 
        alternate_names: 
          - Niomachoi
          - Nioumachoi
          - Nioumachoua
          - Nioumgchoi
        ascii_name: Nioumachoua
        geonamesid: 921745
        latitude: -12.36139
        longitude: 43.71528
        name: Nioumachoua
        names_en: ~
        names_es: ~
        population: 3412
        timezone: Indian/Comoro
      - 
        alternate_names: 
          - Hoani
        ascii_name: Hoani
        geonamesid: 921870
        latitude: -12.25083
        longitude: 43.67472
        name: Hoani
        names_en: ~
        names_es: ~
        population: 1114
        timezone: Indian/Comoro
      - 
        alternate_names: 
          - Fomboni
          - Fumboni
        ascii_name: Fomboni
        geonamesid: 921889
        latitude: -12.28
        longitude: 43.7425
        name: Fomboni
        names_en: ~
        names_es: ~
        population: 14966
        timezone: Indian/Comoro
      - 
        alternate_names: 
          - Djoiezi
          - Djoyezi
          - Djoyézi
          - Mudjiauesi
        ascii_name: Djoyezi
        geonamesid: 921913
        latitude: -12.2975
        longitude: 43.77333
        name: Djoyézi
        names_en: ~
        names_es: ~
        population: 2854
        timezone: Indian/Comoro
      - 
        alternate_names: 
          - Mtakoudja
        ascii_name: Mtakoudja
        geonamesid: 1090583
        latitude: -12.26111
        longitude: 43.70361
        name: Mtakoudja
        names_en: ~
        names_es: ~
        population: 1410
        timezone: Indian/Comoro
      - 
        alternate_names: 
          - Ziroudani
        ascii_name: Ziroudani
        geonamesid: 1090640
        latitude: -12.3325
        longitude: 43.7775
        name: Ziroudani
        names_en: ~
        names_es: ~
        population: 1197
        timezone: Indian/Comoro
    geonamesid: 921780
    name: Mohéli
    names_en: ~
    names_es: ~
  - 
    ascii_name: "Ile Autonome de Grande Comore"
    cities: 
      - 
        alternate_names: 
          - Vanamboini
          - Vanambouani
        ascii_name: Vanambouani
        geonamesid: 921661
        latitude: -11.61139
        longitude: 43.25306
        name: Vanambouani
        names_en: ~
        names_es: ~
        population: 1654
        timezone: Indian/Comoro
      - 
        alternate_names: 
          - Singani
        ascii_name: Singani
        geonamesid: 921674
        latitude: -11.84556
        longitude: 43.30917
        name: Singani
        names_en: ~
        names_es: ~
        population: 2309
        timezone: Indian/Comoro
      - 
        alternate_names: 
          - Salimani
          - Selimani
        ascii_name: Salimani
        geonamesid: 921687
        latitude: -11.80806
        longitude: 43.25917
        name: Salimani
        names_en: ~
        names_es: ~
        population: 1662
        timezone: Indian/Comoro
      - 
        alternate_names: 
          - Ousivo
          - Oussivo
        ascii_name: Oussivo
        geonamesid: 921713
        latitude: -11.585
        longitude: 43.26722
        name: Oussivo
        names_en: ~
        names_es: ~
        population: 1708
        timezone: Indian/Comoro
      - 
        alternate_names: ~
        ascii_name: Ouroveni
        geonamesid: 921714
        latitude: -11.90972
        longitude: 43.48861
        name: Ourovéni
        names_en: ~
        names_es: ~
        population: 1419
        timezone: Indian/Comoro
      - 
        alternate_names: 
          - Mitsoudjini
          - Mitsudje
          - Mitsuje
          - Ntsoudjini
        ascii_name: Ntsoudjini
        geonamesid: 921729
        latitude: -11.65972
        longitude: 43.26139
        name: Ntsoudjini
        names_en: ~
        names_es: ~
        population: 3799
        timezone: Indian/Comoro
      - 
        alternate_names: 
          - Mitsaoueni
          - Mtsaoueni
          - Ntsaoueni
          - Ntsaouéni
        ascii_name: Ntsaoueni
        geonamesid: 921731
        latitude: -11.46583
        longitude: 43.26278
        name: Ntsaouéni
        names_en: ~
        names_es: ~
        population: 3481
        timezone: Indian/Comoro
      - 
        alternate_names: ~
        ascii_name: Mtsamdou
        geonamesid: 921756
        latitude: -11.60694
        longitude: 43.38056
        name: Mtsamdou
        names_en: ~
        names_es: ~
        population: 1171
        timezone: Indian/Comoro
      - 
        alternate_names: 
          - Moroni
          - Moronis
          - "mo luo ni"
          - moloni
        ascii_name: Moroni
        geonamesid: 921772
        latitude: -11.70216
        longitude: 43.25506
        name: Moroni
        names_en: 
          - Moroni
        names_es: 
          - Moroni
        population: 42872
        timezone: Indian/Comoro
      - 
        alternate_names: 
          - Mohoro
        ascii_name: Mohoro
        geonamesid: 921777
        latitude: -11.82583
        longitude: 43.44611
        name: Mohoro
        names_en: ~
        names_es: ~
        population: 2014
        timezone: Indian/Comoro
      - 
        alternate_names: 
          - Mitsamihouh
          - Mitsamiouli
          - Mitsumiuli
          - Mtamuhuli
        ascii_name: Mitsamiouli
        geonamesid: 921786
        latitude: -11.38472
        longitude: 43.28444
        name: Mitsamiouli
        names_en: ~
        names_es: ~
        population: 6102
        timezone: Indian/Comoro
      - 
        alternate_names: 
          - Mbeni
          - Mbéni
        ascii_name: Mbeni
        geonamesid: 921806
        latitude: -11.50139
        longitude: 43.3775
        name: Mbéni
        names_en: ~
        names_es: ~
        population: 6516
        timezone: Indian/Comoro
      - 
        alternate_names: 
          - Inani
          - Iuani
          - Ivoini
          - Ivouani
        ascii_name: Ivouani
        geonamesid: 921852
        latitude: -11.3875
        longitude: 43.38639
        name: Ivouani
        names_en: ~
        names_es: ~
        population: 1317
        timezone: Indian/Comoro
      - 
        alternate_names: 
          - Itsandha
          - Itsandra
        ascii_name: Itsandra
        geonamesid: 921856
        latitude: -11.67111
        longitude: 43.25472
        name: Itsandra
        names_en: ~
        names_es: ~
        population: 3168
        timezone: Indian/Comoro
      - 
        alternate_names: 
          - Heroumbili
          - Héroumbili
          - Iroumbili
          - Irumbilli
        ascii_name: Heroumbili
        geonamesid: 921858
        latitude: -11.54389
        longitude: 43.37972
        name: Héroumbili
        names_en: ~
        names_es: ~
        population: 1463
        timezone: Indian/Comoro
      - 
        alternate_names: 
          - Fomboni
          - Foumbouni
          - Mbagini
          - Mbajini
        ascii_name: Foumbouni
        geonamesid: 921884
        latitude: -11.86167
        longitude: 43.48417
        name: Foumbouni
        names_en: ~
        names_es: ~
        population: 4496
        timezone: Indian/Comoro
      - 
        alternate_names: 
          - Debeni
          - Dembeni
          - Dembéni
          - Djembeni
        ascii_name: Dembeni
        geonamesid: 921918
        latitude: -11.87361
        longitude: 43.39778
        name: Dembéni
        names_en: ~
        names_es: ~
        population: 4133
        timezone: Indian/Comoro
      - 
        alternate_names: 
          - Chendini
          - Chindini
          - Shendini
        ascii_name: Chindini
        geonamesid: 921942
        latitude: -11.92083
        longitude: 43.48111
        name: Chindini
        names_en: ~
        names_es: ~
        population: 1471
        timezone: Indian/Comoro
      - 
        alternate_names: 
          - Cezani
          - Chezani
        ascii_name: Chezani
        geonamesid: 921944
        latitude: -11.42806
        longitude: 43.3875
        name: Chezani
        names_en: ~
        names_es: ~
        population: 2322
        timezone: Indian/Comoro
      - 
        alternate_names: ~
        ascii_name: Bouni
        geonamesid: 921956
        latitude: -11.48694
        longitude: 43.38833
        name: Bouni
        names_en: ~
        names_es: ~
        population: 1104
        timezone: Indian/Comoro
      - 
        alternate_names: ~
        ascii_name: Ouhozi
        geonamesid: 1091674
        latitude: -11.405
        longitude: 43.28222
        name: Ouhozi
        names_en: ~
        names_es: ~
        population: 1930
        timezone: Indian/Comoro
      - 
        alternate_names: ~
        ascii_name: Mandza
        geonamesid: 1091711
        latitude: -11.41806
        longitude: 43.29528
        name: Mandza
        names_en: ~
        names_es: ~
        population: 1602
        timezone: Indian/Comoro
      - 
        alternate_names: ~
        ascii_name: Douniani
        geonamesid: 1091712
        latitude: -11.42111
        longitude: 43.28889
        name: Douniani
        names_en: ~
        names_es: ~
        population: 1778
        timezone: Indian/Comoro
      - 
        alternate_names: ~
        ascii_name: Koua
        geonamesid: 1091713
        latitude: -11.42083
        longitude: 43.27639
        name: Koua
        names_en: ~
        names_es: ~
        population: 1391
        timezone: Indian/Comoro
      - 
        alternate_names: ~
        ascii_name: Hantsindzi
        geonamesid: 1091828
        latitude: -11.42917
        longitude: 43.40222
        name: Hantsindzi
        names_en: ~
        names_es: ~
        population: 2004
        timezone: Indian/Comoro
      - 
        alternate_names: ~
        ascii_name: Itsandzeni
        geonamesid: 1091868
        latitude: -11.47278
        longitude: 43.38444
        name: Itsandzéni
        names_en: ~
        names_es: ~
        population: 1382
        timezone: Indian/Comoro
      - 
        alternate_names: ~
        ascii_name: Bambadjani
        geonamesid: 1091870
        latitude: -11.47861
        longitude: 43.37722
        name: Bambadjani
        names_en: ~
        names_es: ~
        population: 1355
        timezone: Indian/Comoro
      - 
        alternate_names: ~
        ascii_name: Mnoungou
        geonamesid: 1091996
        latitude: -11.51778
        longitude: 43.37389
        name: Mnoungou
        names_en: ~
        names_es: ~
        population: 1013
        timezone: Indian/Comoro
      - 
        alternate_names: ~
        ascii_name: Vanadjou
        geonamesid: 1092041
        latitude: -11.6075
        longitude: 43.27611
        name: Vanadjou
        names_en: ~
        names_es: ~
        population: 1830
        timezone: Indian/Comoro
      - 
        alternate_names: ~
        ascii_name: Bahani
        geonamesid: 1092065
        latitude: -11.63972
        longitude: 43.28417
        name: Bahani
        names_en: ~
        names_es: ~
        population: 1272
        timezone: Indian/Comoro
      - 
        alternate_names: ~
        ascii_name: Ouella
        geonamesid: 1092157
        latitude: -11.65361
        longitude: 43.28056
        name: Ouella
        names_en: ~
        names_es: ~
        population: 5478
        timezone: Indian/Comoro
      - 
        alternate_names: 
          - Tsidje
          - Tsidjé
        ascii_name: Tsidje
        geonamesid: 1092169
        latitude: -11.69806
        longitude: 43.26194
        name: Tsidjé
        names_en: ~
        names_es: ~
        population: 4600
        timezone: Indian/Comoro
      - 
        alternate_names: 
          - Mvouni
        ascii_name: Mvouni
        geonamesid: 1092341
        latitude: -11.71611
        longitude: 43.26472
        name: Mvouni
        names_en: ~
        names_es: ~
        population: 4791
        timezone: Indian/Comoro
      - 
        alternate_names: ~
        ascii_name: Mavingouni
        geonamesid: 1092343
        latitude: -11.71639
        longitude: 43.2525
        name: Mavingouni
        names_en: ~
        names_es: ~
        population: 1390
        timezone: Indian/Comoro
      - 
        alternate_names: ~
        ascii_name: Selea
        geonamesid: 1092396
        latitude: -11.78444
        longitude: 43.26083
        name: Séléa
        names_en: ~
        names_es: ~
        population: 1662
        timezone: Indian/Comoro
      - 
        alternate_names: ~
        ascii_name: Madjeoueni
        geonamesid: 1092516
        latitude: -11.82167
        longitude: 43.27806
        name: Madjeouéni
        names_en: ~
        names_es: ~
        population: 1320
        timezone: Indian/Comoro
      - 
        alternate_names: ~
        ascii_name: Nioumamilima
        geonamesid: 1092529
        latitude: -11.85111
        longitude: 43.43722
        name: Nioumamilima
        names_en: ~
        names_es: ~
        population: 1068
        timezone: Indian/Comoro
    geonamesid: 921882
    name: "Grande Comore"
    names_en: ~
    names_es: ~
  - 
    ascii_name: Ndzuwani
    cities: 
      - 
        alternate_names: 
          - Voani
          - Voany
          - Vouani
        ascii_name: Vouani
        geonamesid: 921655
        latitude: -12.24417
        longitude: 44.37444
        name: Vouani
        names_en: ~
        names_es: ~
        population: 2513
        timezone: Indian/Comoro
      - 
        alternate_names: ~
        ascii_name: Sima
        geonamesid: 921675
        latitude: -12.19556
        longitude: 44.27667
        name: Sima
        names_en: ~
        names_es: ~
        population: 10374
        timezone: Indian/Comoro
      - 
        alternate_names: 
          - Patsi
          - Patsy
          - Wilson
        ascii_name: Patsi
        geonamesid: 921703
        latitude: -12.15556
        longitude: 44.43722
        name: Patsi
        names_en: ~
        names_es: ~
        population: 1498
        timezone: Indian/Comoro
      - 
        alternate_names: 
          - Ousini
          - Ouzini
        ascii_name: Ouzini
        geonamesid: 921711
        latitude: -12.26722
        longitude: 44.47972
        name: Ouzini
        names_en: ~
        names_es: ~
        population: 1886
        timezone: Indian/Comoro
      - 
        alternate_names: 
          - Oani
          - Ouani
          - Ouany
        ascii_name: Ouani
        geonamesid: 921721
        latitude: -12.13222
        longitude: 44.42583
        name: Ouani
        names_en: ~
        names_es: ~
        population: 10179
        timezone: Indian/Comoro
      - 
        alternate_names: ~
        ascii_name: Ongoni
        geonamesid: 921726
        latitude: -12.17028
        longitude: 44.50694
        name: Ongoni
        names_en: ~
        names_es: ~
        population: 2058
        timezone: Indian/Comoro
      - 
        alternate_names: 
          - Kyo
          - Niambahamoro
        ascii_name: Kyo
        geonamesid: 921746
        latitude: -12.33222
        longitude: 44.51917
        name: Kyo
        names_en: ~
        names_es: ~
        population: 2209
        timezone: Indian/Comoro
      - 
        alternate_names: 
          - Matsamudu
          - Moutsamoudou
          - Mutsamudu
        ascii_name: Moutsamoudou
        geonamesid: 921753
        latitude: -12.16672
        longitude: 44.39944
        name: Moutsamoudou
        names_en: ~
        names_es: ~
        population: 23594
        timezone: Indian/Comoro
      - 
        alternate_names: 
          - Mremani
          - Mrenani
          - Mrémani
        ascii_name: Mremani
        geonamesid: 921762
        latitude: -12.30833
        longitude: 44.49861
        name: Mrémani
        names_en: ~
        names_es: ~
        population: 4996
        timezone: Indian/Comoro
      - 
        alternate_names: 
          - M'Ramoni
          - M'ramoni
          - Mramani
          - M’Ramoni
        ascii_name: Mramani
        geonamesid: 921763
        latitude: -12.34639
        longitude: 44.52861
        name: Mramani
        names_en: ~
        names_es: ~
        population: 5126
        timezone: Indian/Comoro
      - 
        alternate_names: 
          - Moya
        ascii_name: Moya
        geonamesid: 921764
        latitude: -12.30667
        longitude: 44.43778
        name: Moya
        names_en: ~
        names_es: ~
        population: 7529
        timezone: Indian/Comoro
      - 
        alternate_names: 
          - M'Jimanda
          - Mjimandra
          - Moujimada
          - M’Jimanda
        ascii_name: Mjimandra
        geonamesid: 921783
        latitude: -12.19167
        longitude: 44.37028
        name: Mjimandra
        names_en: ~
        names_es: ~
        population: 3114
        timezone: Indian/Comoro
      - 
        alternate_names: 
          - Jamaue
          - Jamaué
          - Mjamaoue
          - Mjamaoué
        ascii_name: Mjamaoue
        geonamesid: 921784
        latitude: -12.19361
        longitude: 44.31
        name: Mjamaoué
        names_en: ~
        names_es: ~
        population: 1490
        timezone: Indian/Comoro
      - 
        alternate_names: 
          - Marahabe
          - Marahabé
          - Marahare
          - Maraharé
        ascii_name: Marahare
        geonamesid: 921814
        latitude: -12.23083
        longitude: 44.31333
        name: Maraharé
        names_en: ~
        names_es: ~
        population: 1415
        timezone: Indian/Comoro
      - 
        alternate_names: 
          - Koni
          - Koni-Djodjo
        ascii_name: Koni-Djodjo
        geonamesid: 921834
        latitude: -12.22972
        longitude: 44.48167
        name: Koni-Djodjo
        names_en: ~
        names_es: ~
        population: 8109
        timezone: Indian/Comoro
      - 
        alternate_names: 
          - "Kone N'Goni"
          - "Kone N’Goni"
          - Koni-Ngani
        ascii_name: Koni-Ngani
        geonamesid: 921835
        latitude: -12.21583
        longitude: 44.48
        name: Koni-Ngani
        names_en: ~
        names_es: ~
        population: 3288
        timezone: Indian/Comoro
      - 
        alternate_names: ~
        ascii_name: Koki
        geonamesid: 921838
        latitude: -12.17139
        longitude: 44.44167
        name: Koki
        names_en: ~
        names_es: ~
        population: 4929
        timezone: Indian/Comoro
      - 
        alternate_names: ~
        ascii_name: Kangani
        geonamesid: 921847
        latitude: -12.31167
        longitude: 44.47472
        name: Kangani
        names_en: ~
        names_es: ~
        population: 3711
        timezone: Indian/Comoro
      - 
        alternate_names: 
          - Deumoni
          - Domoni
        ascii_name: Domoni
        geonamesid: 921906
        latitude: -12.25694
        longitude: 44.53194
        name: Domoni
        names_en: ~
        names_es: ~
        population: 14509
        timezone: Indian/Comoro
      - 
        alternate_names: ~
        ascii_name: Chironkamba
        geonamesid: 921939
        latitude: -12.19111
        longitude: 44.3525
        name: Chironkamba
        names_en: ~
        names_es: ~
        population: 2391
        timezone: Indian/Comoro
      - 
        alternate_names: 
          - Chanda
          - Chandra
        ascii_name: Chandra
        geonamesid: 921946
        latitude: -12.195
        longitude: 44.46472
        name: Chandra
        names_en: ~
        names_es: ~
        population: 5645
        timezone: Indian/Comoro
      - 
        alternate_names: ~
        ascii_name: Boungoueni
        geonamesid: 921957
        latitude: -12.20556
        longitude: 44.29944
        name: Boungouéni
        names_en: ~
        names_es: ~
        population: 2465
        timezone: Indian/Comoro
      - 
        alternate_names: ~
        ascii_name: Assimpao
        geonamesid: 921996
        latitude: -12.23306
        longitude: 44.31972
        name: Assimpao
        names_en: ~
        names_es: ~
        population: 1112
        timezone: Indian/Comoro
      - 
        alternate_names: ~
        ascii_name: Antsahe
        geonamesid: 921998
        latitude: -12.35639
        longitude: 44.5225
        name: Antsahé
        names_en: ~
        names_es: ~
        population: 1180
        timezone: Indian/Comoro
      - 
        alternate_names: ~
        ascii_name: Kavani
        geonamesid: 1090919
        latitude: -12.19194
        longitude: 44.26944
        name: Kavani
        names_en: ~
        names_es: ~
        population: 2160
        timezone: Indian/Comoro
      - 
        alternate_names: ~
        ascii_name: Bandajou
        geonamesid: 1090930
        latitude: -12.19167
        longitude: 44.28694
        name: Bandajou
        names_en: ~
        names_es: ~
        population: 1816
        timezone: Indian/Comoro
      - 
        alternate_names: ~
        ascii_name: Chitrouni
        geonamesid: 1090960
        latitude: -12.18583
        longitude: 44.33556
        name: Chitrouni
        names_en: ~
        names_es: ~
        population: 1081
        timezone: Indian/Comoro
      - 
        alternate_names: ~
        ascii_name: Hajoho
        geonamesid: 1091076
        latitude: -12.1175
        longitude: 44.48833
        name: Hajoho
        names_en: ~
        names_es: ~
        population: 2505
        timezone: Indian/Comoro
      - 
        alternate_names: ~
        ascii_name: Harembo
        geonamesid: 1091102
        latitude: -12.14361
        longitude: 44.49833
        name: Harembo
        names_en: ~
        names_es: ~
        population: 1698
        timezone: Indian/Comoro
      - 
        alternate_names: 
          - Mirontsi
        ascii_name: Mirontsi
        geonamesid: 1091117
        latitude: -12.15667
        longitude: 44.40806
        name: Mirontsi
        names_en: ~
        names_es: ~
        population: 10168
        timezone: Indian/Comoro
      - 
        alternate_names: ~
        ascii_name: Paje
        geonamesid: 1091121
        latitude: -12.16972
        longitude: 44.38806
        name: Pajé
        names_en: ~
        names_es: ~
        population: 1894
        timezone: Indian/Comoro
      - 
        alternate_names: ~
        ascii_name: Limbi
        geonamesid: 1091159
        latitude: -12.23944
        longitude: 44.50528
        name: Limbi
        names_en: ~
        names_es: ~
        population: 1037
        timezone: Indian/Comoro
      - 
        alternate_names: ~
        ascii_name: Lingoni
        geonamesid: 1091370
        latitude: -12.25583
        longitude: 44.41833
        name: Lingoni
        names_en: ~
        names_es: ~
        population: 3583
        timezone: Indian/Comoro
      - 
        alternate_names: ~
        ascii_name: Magnassini-Nindri
        geonamesid: 1091390
        latitude: -12.27806
        longitude: 44.41583
        name: Magnassini-Nindri
        names_en: ~
        names_es: ~
        population: 2213
        timezone: Indian/Comoro
      - 
        alternate_names: ~
        ascii_name: Daji
        geonamesid: 1091436
        latitude: -12.32583
        longitude: 44.48861
        name: Daji
        names_en: ~
        names_es: ~
        population: 2676
        timezone: Indian/Comoro
    geonamesid: 922001
    name: Anjouan
    names_en: ~
    names_es: ~
