--- 
geonamesid: 146669
iso: CY
name: Cyprus
names_en: 
  - Cyprus
names_es: 
  - Chipre
regions: 
  - 
    ascii_name: "Paphos District"
    cities: 
      - 
        alternate_names: 
          - Dala
          - Dalâ
          - Tala
        ascii_name: Tala
        geonamesid: 146045
        latitude: 34.8375
        longitude: 32.43333
        name: Tala
        names_en: ~
        names_es: ~
        population: 1655
        timezone: Asia/Nicosia
      - 
        alternate_names: 
          - Poli
          - Polis
        ascii_name: Polis
        geonamesid: 146137
        latitude: 35.03667
        longitude: 32.42639
        name: Polis
        names_en: ~
        names_es: ~
        population: 1975
        timezone: Asia/Nicosia
      - 
        alternate_names: 
          - Pegeia
          - Peya
          - Peyia
        ascii_name: Peyia
        geonamesid: 146175
        latitude: 34.88333
        longitude: 32.38333
        name: Peyia
        names_en: ~
        names_es: ~
        population: 2462
        timezone: Asia/Nicosia
      - 
        alternate_names: 
          - Baf
          - Gazibaf
          - "Nea Pafos"
          - "Nea Paphos"
        ascii_name: Paphos
        geonamesid: 146214
        latitude: 34.76667
        longitude: 32.41667
        name: Paphos
        names_en: 
          - Paphos
        names_es: 
          - Pafos
        population: 35961
        timezone: Asia/Nicosia
      - 
        alternate_names: 
          - Mesogi
          - Mesoyi
        ascii_name: Mesoyi
        geonamesid: 146303
        latitude: 34.81667
        longitude: 32.45833
        name: Mesoyi
        names_en: ~
        names_es: ~
        population: 1249
        timezone: Asia/Nicosia
      - 
        alternate_names: 
          - Cisonerga
          - Kisonerga
          - Kissonerga
          - Kissoneros
        ascii_name: Kissonerga
        geonamesid: 146472
        latitude: 34.825
        longitude: 32.4
        name: Kissonerga
        names_en: ~
        names_es: ~
        population: 1467
        timezone: Asia/Nicosia
      - 
        alternate_names: 
          - Chloraka
          - Chlorakas
          - Hiloraka
          - Hloraka
        ascii_name: Khlorakas
        geonamesid: 146490
        latitude: 34.80417
        longitude: 32.40833
        name: Khlorakas
        names_en: ~
        names_es: ~
        population: 3619
        timezone: Asia/Nicosia
      - 
        alternate_names: 
          - Emba
          - Empa
        ascii_name: Emba
        geonamesid: 146639
        latitude: 34.80833
        longitude: 32.425
        name: Emba
        names_en: ~
        names_es: ~
        population: 4519
        timezone: Asia/Nicosia
    geonamesid: 146213
    name: Paphos
    names_en: ~
    names_es: ~
  - 
    ascii_name: "Nicosia District"
    cities: 
      - 
        alternate_names: 
          - Geri
          - Yeri
          - Гери
        ascii_name: Yeri
        geonamesid: 145964
        latitude: 35.1
        longitude: 33.41667
        name: Yeri
        names_en: ~
        names_es: ~
        population: 7639
        timezone: Asia/Nicosia
      - 
        alternate_names: 
          - Bilen
          - Seri
          - Tseri
          - Xeri
        ascii_name: Xeri
        geonamesid: 145981
        latitude: 35.075
        longitude: 33.32083
        name: Xeri
        names_en: ~
        names_es: ~
        population: 5498
        timezone: Asia/Nicosia
      - 
        alternate_names: ~
        ascii_name: Peristerona
        geonamesid: 146187
        latitude: 35.13333
        longitude: 33.07917
        name: Peristerona
        names_en: ~
        names_es: ~
        population: 2190
        timezone: Asia/Nicosia
      - 
        alternate_names: ~
        ascii_name: Pera
        geonamesid: 146192
        latitude: 35.03333
        longitude: 33.25
        name: Pera
        names_en: ~
        names_es: ~
        population: 1060
        timezone: Asia/Nicosia
      - 
        alternate_names: 
          - "Deftera Pano"
          - "Defterá Pano"
          - "Pano Deftera"
          - "Pano Dheftera"
        ascii_name: "Pano Dheftera"
        geonamesid: 146225
        latitude: 35.07917
        longitude: 33.2625
        name: "Pano Dheftera"
        names_en: ~
        names_es: ~
        population: 1983
        timezone: Asia/Nicosia
      - 
        alternate_names: 
          - "An Leafcois"
          - "An Leafcóis"
          - Lefkosa
          - Lefkosia
        ascii_name: Nicosia
        geonamesid: 146268
        latitude: 35.16667
        longitude: 33.36667
        name: Nicosia
        names_en: 
          - Nicosia
        names_es: 
          - Nicosia
        population: 200452
        timezone: Asia/Nicosia
      - 
        alternate_names: 
          - Guzelkoy
          - Guzelyurt
          - Güzelköy
          - Güzelyurt
        ascii_name: Morphou
        geonamesid: 146286
        latitude: 35.19806
        longitude: 32.99139
        name: Morphou
        names_en: ~
        names_es: ~
        population: 14833
        timezone: Asia/Nicosia
      - 
        alternate_names: 
          - Litrodonda
          - Litrodontas
          - Litronda
          - Lythrodhonda
        ascii_name: Lythrodhondas
        geonamesid: 146358
        latitude: 34.95
        longitude: 33.29583
        name: Lythrodhondas
        names_en: ~
        names_es: ~
        population: 2736
        timezone: Asia/Nicosia
      - 
        alternate_names: 
          - Limbia
          - Limbya
          - Limya
          - Lymbia
        ascii_name: Lymbia
        geonamesid: 146362
        latitude: 35.0
        longitude: 33.4625
        name: Lymbia
        names_en: ~
        names_es: ~
        population: 2262
        timezone: Asia/Nicosia
      - 
        alternate_names: 
          - Lefka
          - Lefke
          - Lefke-Karadag
          - Lefke-Karadağ
        ascii_name: Lefka
        geonamesid: 146392
        latitude: 35.11056
        longitude: 32.85056
        name: Lefka
        names_en: ~
        names_es: ~
        population: 7835
        timezone: Asia/Nicosia
      - 
        alternate_names: 
          - Koccinno-Trimitya
          - Koccinotrimitya
          - Kocinodrimitya
          - Kokkinotrimithia
        ascii_name: "Kokkini Trimithia"
        geonamesid: 146455
        latitude: 35.15417
        longitude: 33.2
        name: "Kokkini Trimithia"
        names_en: ~
        names_es: ~
        population: 3223
        timezone: Asia/Nicosia
      - 
        alternate_names: 
          - Klirou
          - Kliru
        ascii_name: Klirou
        geonamesid: 146461
        latitude: 35.02083
        longitude: 33.17917
        name: Klirou
        names_en: ~
        names_es: ~
        population: 1623
        timezone: Asia/Nicosia
      - 
        alternate_names: 
          - "Asagi Pirgo"
          - "Aşağı Pirgo"
          - "Kato Pirgo"
          - "Kato Pyrgos"
        ascii_name: "Kato Pyrgos"
        geonamesid: 146515
        latitude: 35.18028
        longitude: 32.6825
        name: "Kato Pyrgos"
        names_en: ~
        names_es: ~
        population: 1170
        timezone: Asia/Nicosia
      - 
        alternate_names: 
          - "Asagi Deftera"
          - "Aşağı Deftera"
          - Deftera
          - Dheftera
        ascii_name: "Kato Dheftera"
        geonamesid: 146529
        latitude: 35.0875
        longitude: 33.27917
        name: "Kato Dheftera"
        names_en: ~
        names_es: ~
        population: 1706
        timezone: Asia/Nicosia
      - 
        alternate_names: 
          - Kakopetria
          - Kakopetriya
        ascii_name: Kakopetria
        geonamesid: 146582
        latitude: 34.99167
        longitude: 32.90417
        name: Kakopetria
        names_en: ~
        names_es: ~
        population: 1255
        timezone: Asia/Nicosia
      - 
        alternate_names: 
          - Dali
          - Dhali
          - Idalion
        ascii_name: Dhali
        geonamesid: 146666
        latitude: 35.025
        longitude: 33.42083
        name: Dhali
        names_en: ~
        names_es: ~
        population: 6085
        timezone: Asia/Nicosia
      - 
        alternate_names: 
          - Astromerit
          - Astromeriti
          - Astromeritia
          - Astromeritis
        ascii_name: Astromeritis
        geonamesid: 146770
        latitude: 35.14167
        longitude: 33.0375
        name: Astromeritis
        names_en: ~
        names_es: ~
        population: 2463
        timezone: Asia/Nicosia
      - 
        alternate_names: 
          - Argadez
          - Argataes
          - Argates
          - Argatoes
        ascii_name: Ergates
        geonamesid: 146791
        latitude: 35.05417
        longitude: 33.24583
        name: Ergates
        names_en: ~
        names_es: ~
        population: 1656
        timezone: Asia/Nicosia
      - 
        alternate_names: 
          - Aradhiou
          - Aradiou
          - Aradyu
          - Aratyu
        ascii_name: Aradhiou
        geonamesid: 146797
        latitude: 35.04583
        longitude: 33.19583
        name: Aradhiou
        names_en: ~
        names_es: ~
        population: 1129
        timezone: Asia/Nicosia
      - 
        alternate_names: 
          - Alambra
          - Alampra
        ascii_name: Alambra
        geonamesid: 146834
        latitude: 34.99167
        longitude: 33.4
        name: Alambra
        names_en: ~
        names_es: ~
        population: 1192
        timezone: Asia/Nicosia
      - 
        alternate_names: 
          - Akaca
          - Akacha
          - Akaki
          - Akácha
        ascii_name: Akaki
        geonamesid: 146850
        latitude: 35.13333
        longitude: 33.12917
        name: Akaki
        names_en: ~
        names_es: ~
        population: 2769
        timezone: Asia/Nicosia
      - 
        alternate_names: 
          - Meniko
          - Menikon
        ascii_name: Meniko
        geonamesid: 414384
        latitude: 35.10833
        longitude: 33.14167
        name: Meniko
        names_en: ~
        names_es: ~
        population: 1023
        timezone: Asia/Nicosia
    geonamesid: 146267
    name: Nicosia
    names_en: ~
    names_es: ~
  - 
    ascii_name: "Limassol District"
    cities: 
      - 
        alternate_names: 
          - Ipsona
          - Ipsonas
          - Ypsonas
          - İpsona
        ascii_name: Ypsonas
        geonamesid: 145952
        latitude: 34.68844
        longitude: 32.95743
        name: Ypsonas
        names_en: ~
        names_es: ~
        population: 7348
        timezone: Asia/Nicosia
      - 
        alternate_names: ~
        ascii_name: Sotira
        geonamesid: 146069
        latitude: 34.72917
        longitude: 32.8625
        name: Sotira
        names_en: ~
        names_es: ~
        population: 4444
        timezone: Asia/Nicosia
      - 
        alternate_names: 
          - Pissouri
          - Pissuri
        ascii_name: Pissouri
        geonamesid: 146150
        latitude: 34.67083
        longitude: 32.70833
        name: Pissouri
        names_en: ~
        names_es: ~
        population: 1078
        timezone: Asia/Nicosia
      - 
        alternate_names: 
          - Belendri
          - Pelendri
          - Pelendria
        ascii_name: Pelendria
        geonamesid: 146198
        latitude: 34.9
        longitude: 32.96667
        name: Pelendria
        names_en: ~
        names_es: ~
        population: 1237
        timezone: Asia/Nicosia
      - 
        alternate_names: 
          - "Pano Polemidhia"
          - "Pano Polemidia"
          - "Pano Polemidya"
          - Polemidia
        ascii_name: "Pano Polemidhia"
        geonamesid: 146216
        latitude: 34.7
        longitude: 33.0
        name: "Pano Polemidhia"
        names_en: ~
        names_es: ~
        population: 3781
        timezone: Asia/Nicosia
      - 
        alternate_names: 
          - Pachna
          - Pahna
          - Pakhna
        ascii_name: Pakhna
        geonamesid: 146245
        latitude: 34.77917
        longitude: 32.79583
        name: Pakhna
        names_en: ~
        names_es: ~
        population: 1008
        timezone: Asia/Nicosia
      - 
        alternate_names: 
          - Moutayaka
          - Moutayiaka
          - Mouttagiaka
          - Mutayaka
        ascii_name: Moutayiaka
        geonamesid: 146278
        latitude: 34.72083
        longitude: 33.1
        name: Moutayiaka
        names_en: ~
        names_es: ~
        population: 2818
        timezone: Asia/Nicosia
      - 
        alternate_names: 
          - Lemesos
          - Lemessus
          - Leymosun
          - Limasol
        ascii_name: Limassol
        geonamesid: 146384
        latitude: 34.675
        longitude: 33.03333
        name: Limassol
        names_en: 
          - Limassol
        names_es: 
          - Limassol
        population: 154000
        timezone: Asia/Nicosia
      - 
        alternate_names: 
          - Ciperunda
          - Kiperunda
          - Kyperounda
          - Kyperounta
        ascii_name: Kyperounda
        geonamesid: 146414
        latitude: 34.9375
        longitude: 32.975
        name: Kyperounda
        names_en: ~
        names_es: ~
        population: 1560
        timezone: Asia/Nicosia
      - 
        alternate_names: 
          - Erimi
        ascii_name: Erimi
        geonamesid: 146628
        latitude: 34.67917
        longitude: 32.91667
        name: Erimi
        names_en: ~
        names_es: ~
        population: 1493
        timezone: Asia/Nicosia
    geonamesid: 146383
    name: Limassol
    names_en: ~
    names_es: ~
  - 
    ascii_name: "Larnaca District"
    cities: 
      - 
        alternate_names: 
          - Vorglini
          - Voroglini
          - Voroklini
        ascii_name: Voroklini
        geonamesid: 145987
        latitude: 34.98333
        longitude: 33.65833
        name: Voroklini
        names_en: ~
        names_es: ~
        population: 3446
        timezone: Asia/Nicosia
      - 
        alternate_names: 
          - Troulli
          - Troulloi
          - Trulli
        ascii_name: Troulli
        geonamesid: 146015
        latitude: 35.03333
        longitude: 33.61667
        name: Troulli
        names_en: ~
        names_es: ~
        population: 1078
        timezone: Asia/Nicosia
      - 
        alternate_names: 
          - Tersefan
          - Tersefanou
          - Tersephanou
          - Tersofanu
        ascii_name: Tersephanou
        geonamesid: 146040
        latitude: 34.85417
        longitude: 33.54583
        name: Tersephanou
        names_en: ~
        names_es: ~
        population: 1018
        timezone: Asia/Nicosia
      - 
        alternate_names: 
          - Pyrga
          - Pyrgos
        ascii_name: Pyrgos
        geonamesid: 146107
        latitude: 34.74167
        longitude: 33.18333
        name: Pyrgos
        names_en: ~
        names_es: ~
        population: 1407
        timezone: Asia/Nicosia
      - 
        alternate_names: 
          - Pila
          - Pile
          - Pyla
        ascii_name: Pyla
        geonamesid: 146110
        latitude: 35.02917
        longitude: 33.69167
        name: Pyla
        names_en: ~
        names_es: ~
        population: 1434
        timezone: Asia/Nicosia
      - 
        alternate_names: 
          - Pseftas
          - Psevda
          - Psevdas
          - Psevdhas
        ascii_name: Psevdhas
        geonamesid: 146114
        latitude: 34.95
        longitude: 33.4625
        name: Psevdhas
        names_en: ~
        names_es: ~
        population: 1070
        timezone: Asia/Nicosia
      - 
        alternate_names: 
          - Bahcalar
          - Bahceler
          - Bahçalar
          - Bahçeler
        ascii_name: Perivolia
        geonamesid: 146183
        latitude: 34.82917
        longitude: 33.58333
        name: Perivolia
        names_en: ~
        names_es: ~
        population: 1876
        timezone: Asia/Nicosia
      - 
        alternate_names: 
          - Parekklisha
          - Parekklisia
          - Pareklisa
          - Pareklisha
        ascii_name: Parekklisha
        geonamesid: 146204
        latitude: 34.74583
        longitude: 33.15833
        name: Parekklisha
        names_en: ~
        names_es: ~
        population: 1382
        timezone: Asia/Nicosia
      - 
        alternate_names: 
          - Mosfiloti
          - Mosphiloti
        ascii_name: Mosphiloti
        geonamesid: 146283
        latitude: 34.95
        longitude: 33.42917
        name: Mosphiloti
        names_en: ~
        names_es: ~
        population: 1158
        timezone: Asia/Nicosia
      - 
        alternate_names: 
          - Meneou
          - Meneu
          - Menevi
        ascii_name: Meneou
        geonamesid: 146311
        latitude: 34.85
        longitude: 33.57083
        name: Meneou
        names_en: ~
        names_es: ~
        population: 1248
        timezone: Asia/Nicosia
      - 
        alternate_names: 
          - Leivadia
          - Livadhia
          - Livadia
          - Livadya
        ascii_name: Livadhia
        geonamesid: 146371
        latitude: 34.95417
        longitude: 33.62917
        name: Livadhia
        names_en: ~
        names_es: ~
        population: 5329
        timezone: Asia/Nicosia
      - 
        alternate_names: 
          - Chittim
          - Citium
          - Kition
          - Kitium
        ascii_name: Larnaca
        geonamesid: 146400
        latitude: 34.91667
        longitude: 33.62917
        name: Larnaca
        names_en: 
          - Larnaca
        names_es: 
          - Larnaca
        population: 72000
        timezone: Asia/Nicosia
      - 
        alternate_names: 
          - Bakracli
          - Bakraçli
          - Gecitkale
          - Geçitkale
        ascii_name: Kophinou
        geonamesid: 146445
        latitude: 34.825
        longitude: 33.3875
        name: Kophinou
        names_en: ~
        names_es: ~
        population: 1372
        timezone: Asia/Nicosia
      - 
        alternate_names: 
          - Cite
          - Kiti
          - Kition
          - Çite
        ascii_name: Kiti
        geonamesid: 146469
        latitude: 34.85
        longitude: 33.575
        name: Kiti
        names_en: ~
        names_es: ~
        population: 3278
        timezone: Asia/Nicosia
      - 
        alternate_names: 
          - Dromolaksia
          - Dromolaxia
          - "Mor Menekshe"
          - Mormenekse
        ascii_name: Dhromolaxia
        geonamesid: 146654
        latitude: 34.87551
        longitude: 33.58684
        name: Dhromolaxia
        names_en: ~
        names_es: ~
        population: 5240
        timezone: Asia/Nicosia
      - 
        alternate_names: 
          - "Agios Tychon"
          - Ayandihona
          - "Ayios Tihonos"
          - Ayithona
        ascii_name: "Ayios Tykhonas"
        geonamesid: 146692
        latitude: 34.725
        longitude: 33.14167
        name: "Ayios Tykhonas"
        names_en: ~
        names_es: ~
        population: 2204
        timezone: Asia/Nicosia
      - 
        alternate_names: 
          - Athiaenou
          - Athienou
          - Athiænou
          - Atienu
        ascii_name: Athienou
        geonamesid: 146768
        latitude: 35.06667
        longitude: 33.54167
        name: Athienou
        names_en: ~
        names_es: ~
        population: 4444
        timezone: Asia/Nicosia
      - 
        alternate_names: 
          - Aradhippou
          - Aradip
          - Aradippou
          - Aradippu
        ascii_name: Aradhippou
        geonamesid: 146796
        latitude: 34.95
        longitude: 33.59167
        name: Aradhippou
        names_en: ~
        names_es: ~
        population: 13349
        timezone: Asia/Nicosia
    geonamesid: 146398
    name: Larnaca
    names_en: ~
    names_es: ~
  - 
    ascii_name: "Kyrenia District"
    cities: 
      - 
        alternate_names: 
          - Gilderen
          - Gildirin
          - Lapithos
          - Lapitos
        ascii_name: Lapithos
        geonamesid: 146403
        latitude: 35.3375
        longitude: 33.17917
        name: Lapithos
        names_en: 
          - Lapta
        names_es: ~
        population: 5215
        timezone: Asia/Nicosia
      - 
        alternate_names: 
          - Girne
          - Keryneia
          - Kerynia
          - Kirenija
        ascii_name: Kyrenia
        geonamesid: 146412
        latitude: 35.34167
        longitude: 33.31667
        name: Kyrenia
        names_en: 
          - Kyrenia
        names_es: 
          - Kyrenia
        population: 26701
        timezone: Asia/Nicosia
    geonamesid: 146411
    name: Kyrenia
    names_en: ~
    names_es: ~
  - 
    ascii_name: "Famagusta District"
    cities: 
      - 
        alternate_names: 
          - Protaras
          - Протарас
        ascii_name: Protaras
        geonamesid: 18918
        latitude: 35.0125
        longitude: 34.05833
        name: Protaras
        names_en: 
          - Protaras
        names_es: ~
        population: 20230
        timezone: Asia/Nicosia
      - 
        alternate_names: 
          - Iskele
          - Trikomo
          - İskele
        ascii_name: Trikomo
        geonamesid: 146027
        latitude: 35.2875
        longitude: 33.89167
        name: Trikomo
        names_en: ~
        names_es: ~
        population: 4490
        timezone: Asia/Nicosia
      - 
        alternate_names: 
          - Dipkarpas
          - Dipkarpaz
          - Dipkurpaz
          - Rizokarpaso
        ascii_name: Rizokarpaso
        geonamesid: 146105
        latitude: 35.6
        longitude: 34.375
        name: Rizokarpaso
        names_en: ~
        names_es: ~
        population: 5215
        timezone: Asia/Nicosia
      - 
        alternate_names: 
          - Frenaro
          - Frenaros
          - Frennaros
          - Phrenaros
        ascii_name: Phrenaros
        geonamesid: 146154
        latitude: 35.04167
        longitude: 33.925
        name: Phrenaros
        names_en: ~
        names_es: ~
        population: 3450
        timezone: Asia/Nicosia
      - 
        alternate_names: 
          - Paralim
          - Paralimni
        ascii_name: Paralimni
        geonamesid: 146209
        latitude: 35.0375
        longitude: 33.98333
        name: Paralimni
        names_en: ~
        names_es: ~
        population: 11836
        timezone: Asia/Nicosia
      - 
        alternate_names: 
          - Leopetra
          - Liopetri
          - Liyopetri
        ascii_name: Liopetri
        geonamesid: 146375
        latitude: 35.00833
        longitude: 33.89167
        name: Liopetri
        names_en: ~
        names_es: ~
        population: 4005
        timezone: Asia/Nicosia
      - 
        alternate_names: 
          - Leonariso
          - Leonarisso
          - Ziamet
          - Ziyamet
        ascii_name: Leonarisso
        geonamesid: 146386
        latitude: 35.47083
        longitude: 34.14167
        name: Leonarisso
        names_en: ~
        names_es: ~
        population: 1593
        timezone: Asia/Nicosia
      - 
        alternate_names: 
          - Aksaray
          - Gecitkale
          - Geçitkale
          - Lefkoniko
        ascii_name: Lefkoniko
        geonamesid: 146391
        latitude: 35.25833
        longitude: 33.73333
        name: Lefkoniko
        names_en: ~
        names_es: ~
        population: 3187
        timezone: Asia/Nicosia
      - 
        alternate_names: 
          - Ammochostos
          - Ammochostus
          - Ammokhostos
          - Famagosta
        ascii_name: Famagusta
        geonamesid: 146617
        latitude: 35.125
        longitude: 33.95
        name: Famagusta
        names_en: 
          - Famagusta
        names_es: 
          - Famagusta
        population: 42526
        timezone: Asia/Nicosia
      - 
        alternate_names: 
          - Derinia
          - Derinkoy
          - Derinköy
          - Derinya
        ascii_name: Dherinia
        geonamesid: 146661
        latitude: 35.06667
        longitude: 33.95833
        name: Dherinia
        names_en: ~
        names_es: ~
        population: 5161
        timezone: Asia/Nicosia
      - 
        alternate_names: 
          - "Agia Napa"
          - "Agija Napa"
          - Ajja-Napa
          - "Aya Napa"
        ascii_name: "Ayia Napa"
        geonamesid: 146748
        latitude: 34.98213
        longitude: 34.00183
        name: "Ayia Napa"
        names_en: 
          - "Ayia Napa"
        names_es: ~
        population: 2798
        timezone: Asia/Nicosia
      - 
        alternate_names: 
          - Avgora
          - Avgoro
          - Avgorou
          - Avgoru
        ascii_name: Avgorou
        geonamesid: 146761
        latitude: 35.03688
        longitude: 33.84029
        name: Avgorou
        names_en: ~
        names_es: ~
        population: 4177
        timezone: Asia/Nicosia
      - 
        alternate_names: 
          - Acheritou
          - Agratur
          - Aharida
          - Aharitu
        ascii_name: Akhyritou
        geonamesid: 146842
        latitude: 35.1
        longitude: 33.8625
        name: Akhyritou
        names_en: ~
        names_es: ~
        population: 1721
        timezone: Asia/Nicosia
    geonamesid: 146615
    name: Famagusta
    names_en: ~
    names_es: ~
