--- 
geonamesid: 2623032
iso: DK
name: Denmark
names_en: 
  - Denmark
  - "Kingdom of Denmark"
names_es: 
  - Dinamarca
regions: 
  - 
    ascii_name: "Capital Region"
    cities: 
      - 
        alternate_names: 
          - Vekso
          - Veksø
          - Vikso
          - Viksø
        ascii_name: Vekso
        geonamesid: 2610566
        latitude: 55.75
        longitude: 12.25
        name: Veksø
        names_en: ~
        names_es: ~
        population: 1921
        timezone: Europe/Copenhagen
      - 
        alternate_names: 
          - Vallensbaek
          - Vallensbæk
        ascii_name: Vallensbaek
        geonamesid: 2610789
        latitude: 55.63333
        longitude: 12.36667
        name: Vallensbæk
        names_en: 
          - Vallensbæk
        names_es: ~
        population: 13500
        timezone: Europe/Copenhagen
      - 
        alternate_names: ~
        ascii_name: Trorod
        geonamesid: 2611189
        latitude: 55.83333
        longitude: 12.55
        name: Trørød
        names_en: ~
        names_es: ~
        population: 8576
        timezone: Europe/Copenhagen
      - 
        alternate_names: 
          - Taastrup
          - Tastrup
          - Tåstrup
          - Тааструп
        ascii_name: Taastrup
        geonamesid: 2611828
        latitude: 55.65173
        longitude: 12.29216
        name: Taastrup
        names_en: ~
        names_es: ~
        population: 30977
        timezone: Europe/Copenhagen
      - 
        alternate_names: 
          - Taarnby
          - Tarnby
          - Tårnby
        ascii_name: Tarnby
        geonamesid: 2611862
        latitude: 55.6303
        longitude: 12.60035
        name: Tårnby
        names_en: 
          - Tårnby
        names_es: ~
        population: 10000
        timezone: Europe/Copenhagen
      - 
        alternate_names: ~
        ascii_name: Stenlose
        geonamesid: 2612629
        latitude: 55.76828
        longitude: 12.19723
        name: Stenløse
        names_en: ~
        names_es: ~
        population: 19998
        timezone: Europe/Copenhagen
      - 
        alternate_names: ~
        ascii_name: Stavnsholt
        geonamesid: 2612710
        latitude: 55.81667
        longitude: 12.41667
        name: Stavnsholt
        names_en: ~
        names_es: ~
        population: 5658
        timezone: Europe/Copenhagen
      - 
        alternate_names: ~
        ascii_name: Smorumnedre
        geonamesid: 2613345
        latitude: 55.73333
        longitude: 12.3
        name: Smørumnedre
        names_en: ~
        names_es: ~
        population: 8968
        timezone: Europe/Copenhagen
      - 
        alternate_names: 
          - "Gmina Slangerup"
          - Slangerup
        ascii_name: Slangerup
        geonamesid: 2613451
        latitude: 55.85
        longitude: 12.18333
        name: Slangerup
        names_en: 
          - Slangerup
        names_es: ~
        population: 6829
        timezone: Europe/Copenhagen
      - 
        alternate_names: 
          - Skibby
          - Skiby
        ascii_name: Skibby
        geonamesid: 2613766
        latitude: 55.75
        longitude: 11.96667
        name: Skibby
        names_en: ~
        names_es: ~
        population: 2661
        timezone: Europe/Copenhagen
      - 
        alternate_names: 
          - Ronne
          - Rønne
        ascii_name: Ronne
        geonamesid: 2614553
        latitude: 55.1
        longitude: 14.7
        name: Rønne
        names_en: 
          - Rønne
        names_es: ~
        population: 13890
        timezone: Europe/Copenhagen
      - 
        alternate_names: 
          - Rodovre
          - Rødovre
        ascii_name: Rodovre
        geonamesid: 2614600
        latitude: 55.68062
        longitude: 12.45373
        name: Rødovre
        names_en: 
          - Rødovre
        names_es: ~
        population: 30000
        timezone: Europe/Copenhagen
      - 
        alternate_names: ~
        ascii_name: Olstykke
        geonamesid: 2615730
        latitude: 55.78333
        longitude: 12.18333
        name: Ølstykke
        names_en: ~
        names_es: ~
        population: 5348
        timezone: Europe/Copenhagen
      - 
        alternate_names: ~
        ascii_name: Nodebo
        geonamesid: 2616423
        latitude: 55.98333
        longitude: 12.35
        name: Nødebo
        names_en: ~
        names_es: ~
        population: 1875
        timezone: Europe/Copenhagen
      - 
        alternate_names: 
          - Niva
          - Nivaa
          - Nivå
        ascii_name: Niva
        geonamesid: 2616450
        latitude: 55.93333
        longitude: 12.51667
        name: Nivå
        names_en: ~
        names_es: ~
        population: 8035
        timezone: Europe/Copenhagen
      - 
        alternate_names: 
          - Nekso
          - Neksø
        ascii_name: Nexo
        geonamesid: 2616504
        latitude: 55.06067
        longitude: 15.13058
        name: Nexø
        names_en: ~
        names_es: ~
        population: 3841
        timezone: Europe/Copenhagen
      - 
        alternate_names: 
          - Maalov
          - Maaløv
          - Malov
          - Måløv
        ascii_name: Malov
        geonamesid: 2617112
        latitude: 55.75
        longitude: 12.33333
        name: Måløv
        names_en: ~
        names_es: ~
        population: 8513
        timezone: Europe/Copenhagen
      - 
        alternate_names: ~
        ascii_name: Lynge
        geonamesid: 2617220
        latitude: 55.85
        longitude: 12.28333
        name: Lynge
        names_en: ~
        names_es: ~
        population: 4284
        timezone: Europe/Copenhagen
      - 
        alternate_names: ~
        ascii_name: Liseleje
        geonamesid: 2617538
        latitude: 56.01667
        longitude: 11.98333
        name: Liseleje
        names_en: ~
        names_es: ~
        population: 2906
        timezone: Europe/Copenhagen
      - 
        alternate_names: 
          - "Lille Vaerlose"
          - "Lille Værløse"
          - Vaerlose
          - Værløse
        ascii_name: Vaerlose
        geonamesid: 2617626
        latitude: 55.78333
        longitude: 12.38333
        name: Værløse
        names_en: ~
        names_es: ~
        population: 12842
        timezone: Europe/Copenhagen
      - 
        alternate_names: ~
        ascii_name: Lillerod
        geonamesid: 2617658
        latitude: 55.87496
        longitude: 12.34579
        name: Lillerød
        names_en: ~
        names_es: ~
        population: 15359
        timezone: Europe/Copenhagen
      - 
        alternate_names: 
          - Cobanhavan
          - Copenaga
          - Copenaghen
          - Copenaguen
        ascii_name: Copenhagen
        geonamesid: 2618425
        latitude: 55.67594
        longitude: 12.56553
        name: Copenhagen
        names_en: 
          - Copenhagen
        names_es: 
          - Copenhague
        population: 1153615
        timezone: Europe/Copenhagen
      - 
        alternate_names: 
          - "Konigs Lyngby"
          - Lyngby
        ascii_name: "Kongens Lyngby"
        geonamesid: 2618468
        latitude: 55.77044
        longitude: 12.50378
        name: "Kongens Lyngby"
        names_en: ~
        names_es: ~
        population: 10600
        timezone: Europe/Copenhagen
      - 
        alternate_names: 
          - "Gmina Jaegerspris"
          - "Gmina Jægerspris"
          - Jaegerspris
          - Jægerspris
        ascii_name: Jaegerspris
        geonamesid: 2619287
        latitude: 55.85
        longitude: 11.98333
        name: Jægerspris
        names_en: 
          - Jægerspris
        names_es: ~
        population: 3805
        timezone: Europe/Copenhagen
      - 
        alternate_names: 
          - Ishoj
          - Ishøj
        ascii_name: Ishoj
        geonamesid: 2619377
        latitude: 55.61543
        longitude: 12.35182
        name: Ishøj
        names_en: 
          - Ishøj
        names_es: ~
        population: 19453
        timezone: Europe/Copenhagen
      - 
        alternate_names: 
          - Hvidovre
          - Khvidovre
          - Хвидовре
        ascii_name: Hvidovre
        geonamesid: 2619528
        latitude: 55.65719
        longitude: 12.47364
        name: Hvidovre
        names_en: 
          - Hvidovre
        names_es: ~
        population: 49380
        timezone: Europe/Copenhagen
      - 
        alternate_names: 
          - "Gmina Hundested"
          - Hundested
        ascii_name: Hundested
        geonamesid: 2619650
        latitude: 55.96667
        longitude: 11.86667
        name: Hundested
        names_en: 
          - Hundested
        names_es: ~
        population: 8615
        timezone: Europe/Copenhagen
      - 
        alternate_names: ~
        ascii_name: Humlebaek
        geonamesid: 2619669
        latitude: 55.9618
        longitude: 12.5341
        name: Humlebæk
        names_en: ~
        names_es: ~
        population: 8965
        timezone: Europe/Copenhagen
      - 
        alternate_names: ~
        ascii_name: Hornbaek
        geonamesid: 2619807
        latitude: 56.08333
        longitude: 12.46667
        name: Hornbæk
        names_en: ~
        names_es: ~
        population: 3223
        timezone: Europe/Copenhagen
      - 
        alternate_names: 
          - Horsholm
          - Hørsholm
          - Kherskhol'm
          - Херсхольм
        ascii_name: Horsholm
        geonamesid: 2619856
        latitude: 55.88333
        longitude: 12.5
        name: Hørsholm
        names_en: 
          - Hørsholm
        names_es: ~
        population: 36670
        timezone: Europe/Copenhagen
      - 
        alternate_names: 
          - Hillerod
          - Hillerød
          - Khillerod
          - hylrwd
        ascii_name: Hillerod
        geonamesid: 2620320
        latitude: 55.92667
        longitude: 12.31091
        name: Hillerød
        names_en: 
          - Hillerød
        names_es: ~
        population: 28313
        timezone: Europe/Copenhagen
      - 
        alternate_names: 
          - Herlev
        ascii_name: Herlev
        geonamesid: 2620431
        latitude: 55.72366
        longitude: 12.43998
        name: Herlev
        names_en: 
          - Herlev
        names_es: ~
        population: 0
        timezone: Europe/Copenhagen
      - 
        alternate_names: 
          - Elseneur
          - Elsinor
          - Elsinore
          - Helsingor
        ascii_name: Helsingor
        geonamesid: 2620473
        latitude: 56.03606
        longitude: 12.6136
        name: Helsingør
        names_en: 
          - Elsinore
        names_es: 
          - Elsinor
        population: 35048
        timezone: Europe/Copenhagen
      - 
        alternate_names: 
          - Khel'singe
          - Хельсинге
        ascii_name: Helsinge
        geonamesid: 2620476
        latitude: 56.02283
        longitude: 12.19752
        name: Helsinge
        names_en: ~
        names_es: ~
        population: 7354
        timezone: Europe/Copenhagen
      - 
        alternate_names: ~
        ascii_name: Hellebaek
        geonamesid: 2620528
        latitude: 56.06667
        longitude: 12.56667
        name: Hellebæk
        names_en: ~
        names_es: ~
        population: 5243
        timezone: Europe/Copenhagen
      - 
        alternate_names: ~
        ascii_name: Graested
        geonamesid: 2621101
        latitude: 56.06667
        longitude: 12.28333
        name: Græsted
        names_en: ~
        names_es: ~
        population: 3310
        timezone: Europe/Copenhagen
      - 
        alternate_names: 
          - Glostrup
        ascii_name: Glostrup
        geonamesid: 2621356
        latitude: 55.66667
        longitude: 12.4
        name: Glostrup
        names_en: ~
        names_es: ~
        population: 20673
        timezone: Europe/Copenhagen
      - 
        alternate_names: 
          - Gladsakse
          - Gladsaxe
          - "Gmina Gladsaxe"
        ascii_name: Gladsakse
        geonamesid: 2621395
        latitude: 55.73333
        longitude: 12.48333
        name: Gladsakse
        names_en: 
          - Gladsaxe
        names_es: ~
        population: 0
        timezone: Europe/Copenhagen
      - 
        alternate_names: 
          - Gilleje
          - Gilleleje
        ascii_name: Gilleleje
        geonamesid: 2621471
        latitude: 56.11667
        longitude: 12.31667
        name: Gilleleje
        names_en: ~
        names_es: ~
        population: 5799
        timezone: Europe/Copenhagen
      - 
        alternate_names: 
          - Gentofte
          - Gjentofte
          - "Gmina Gentofte"
          - Гентофте
        ascii_name: Gentofte
        geonamesid: 2621515
        latitude: 55.75
        longitude: 12.55
        name: Gentofte
        names_en: 
          - Gentofte
        names_es: ~
        population: 0
        timezone: Europe/Copenhagen
      - 
        alternate_names: ~
        ascii_name: Ganlose
        geonamesid: 2621614
        latitude: 55.78333
        longitude: 12.26667
        name: Ganløse
        names_en: ~
        names_es: ~
        population: 2843
        timezone: Europe/Copenhagen
      - 
        alternate_names: 
          - Frederiksvaerk
          - Frederiksværk
        ascii_name: Frederiksvaerk
        geonamesid: 2621910
        latitude: 55.97073
        longitude: 12.0225
        name: Frederiksværk
        names_en: 
          - Frederiksværk
        names_es: ~
        population: 12176
        timezone: Europe/Copenhagen
      - 
        alternate_names: 
          - Frederikssund
          - Frederiksund
        ascii_name: Frederikssund
        geonamesid: 2621912
        latitude: 55.83956
        longitude: 12.06896
        name: Frederikssund
        names_en: 
          - Frederikssund
        names_es: ~
        population: 14564
        timezone: Europe/Copenhagen
      - 
        alternate_names: 
          - Frederiksberg
          - Фредериксберг
        ascii_name: Frederiksberg
        geonamesid: 2621942
        latitude: 55.67938
        longitude: 12.53463
        name: Frederiksberg
        names_en: ~
        names_es: ~
        population: 95029
        timezone: Europe/Copenhagen
      - 
        alternate_names: ~
        ascii_name: Fredensborg
        geonamesid: 2621956
        latitude: 55.96667
        longitude: 12.4
        name: Fredensborg
        names_en: ~
        names_es: ~
        population: 8249
        timezone: Europe/Copenhagen
      - 
        alternate_names: 
          - Flong
          - Fløng
        ascii_name: Flong
        geonamesid: 2622061
        latitude: 55.66667
        longitude: 12.18333
        name: Fløng
        names_en: ~
        names_es: ~
        population: 11108
        timezone: Europe/Copenhagen
      - 
        alternate_names: 
          - Farum
          - Фарум
        ascii_name: Farum
        geonamesid: 2622306
        latitude: 55.80858
        longitude: 12.36066
        name: Farum
        names_en: ~
        names_es: ~
        population: 18376
        timezone: Europe/Copenhagen
      - 
        alternate_names: 
          - Espergaerde
          - Espergjaerde
          - Espergjærde
          - Espergærde
        ascii_name: Espergaerde
        geonamesid: 2622418
        latitude: 56.0
        longitude: 12.56667
        name: Espergærde
        names_en: ~
        names_es: ~
        population: 11358
        timezone: Europe/Copenhagen
      - 
        alternate_names: 
          - Dragoer
          - Dragor
          - Dragör
          - Dragør
        ascii_name: Dragor
        geonamesid: 2622937
        latitude: 55.59455
        longitude: 12.66638
        name: Dragør
        names_en: 
          - Dragør
        names_es: ~
        population: 11045
        timezone: Europe/Copenhagen
      - 
        alternate_names: ~
        ascii_name: Charlottenlund
        geonamesid: 2623188
        latitude: 55.75
        longitude: 12.58333
        name: Charlottenlund
        names_en: ~
        names_es: ~
        population: 40000
        timezone: Europe/Copenhagen
      - 
        alternate_names: ~
        ascii_name: Blovstrod
        geonamesid: 2623905
        latitude: 55.86667
        longitude: 12.4
        name: Blovstrød
        names_en: ~
        names_es: ~
        population: 2137
        timezone: Europe/Copenhagen
      - 
        alternate_names: 
          - Birkerod
          - Birkerød
        ascii_name: Birkerod
        geonamesid: 2624112
        latitude: 55.84759
        longitude: 12.42791
        name: Birkerød
        names_en: 
          - Birkerød
        names_es: ~
        population: 18901
        timezone: Europe/Copenhagen
      - 
        alternate_names: 
          - Balleru
          - Ballerup
        ascii_name: Ballerup
        geonamesid: 2624341
        latitude: 55.73165
        longitude: 12.36328
        name: Ballerup
        names_en: 
          - Ballerup
        names_es: ~
        population: 40000
        timezone: Europe/Copenhagen
      - 
        alternate_names: 
          - Al'bertslunn
          - Albertslund
          - "Gmina Albertslund"
          - Альбертслунн
        ascii_name: Albertslund
        geonamesid: 2624906
        latitude: 55.65691
        longitude: 12.36381
        name: Albertslund
        names_en: 
          - Albertslund
        names_es: ~
        population: 30000
        timezone: Europe/Copenhagen
      - 
        alternate_names: 
          - Aakirkeby
        ascii_name: Akirkeby
        geonamesid: 2624929
        latitude: 55.0708
        longitude: 14.91978
        name: Åkirkeby
        names_en: ~
        names_es: ~
        population: 2195
        timezone: Europe/Copenhagen
    geonamesid: 6418538
    name: "Capital Region"
    names_en: 
      - "Capital Region"
      - "Capital Region of Denmark"
    names_es: ~
  - 
    ascii_name: "Central Jutland"
    cities: 
      - 
        alternate_names: ~
        ascii_name: Virklund
        geonamesid: 2610159
        latitude: 56.11667
        longitude: 9.56667
        name: Virklund
        names_en: ~
        names_es: ~
        population: 3113
        timezone: Europe/Copenhagen
      - 
        alternate_names: 
          - Vinderup
          - "Vinderup Garde"
          - "Vinderup Gårde"
        ascii_name: Vinderup
        geonamesid: 2610196
        latitude: 56.48333
        longitude: 8.78333
        name: Vinderup
        names_en: ~
        names_es: ~
        population: 2991
        timezone: Europe/Copenhagen
      - 
        alternate_names: 
          - Vilbjaerg
          - Vilbjerg
          - Vilbjærg
          - Vildbjerg
        ascii_name: Vildbjerg
        geonamesid: 2610259
        latitude: 56.2
        longitude: 8.76667
        name: Vildbjerg
        names_en: ~
        names_es: ~
        population: 3773
        timezone: Europe/Copenhagen
      - 
        alternate_names: 
          - Videbaek
          - Videbäk
          - Videbæk
        ascii_name: Videbaek
        geonamesid: 2610307
        latitude: 56.08333
        longitude: 8.63333
        name: Videbæk
        names_en: 
          - Videbæk
        names_es: ~
        population: 4052
        timezone: Europe/Copenhagen
      - 
        alternate_names: 
          - Viborg
          - Wibergis
          - Виборг
        ascii_name: Viborg
        geonamesid: 2610319
        latitude: 56.45319
        longitude: 9.40201
        name: Viborg
        names_en: 
          - Viborg
        names_es: ~
        population: 34831
        timezone: Europe/Copenhagen
      - 
        alternate_names: 
          - Ulstrup
          - Ulstrupbro
        ascii_name: Ulstrup
        geonamesid: 2610908
        latitude: 56.4
        longitude: 9.8
        name: Ulstrup
        names_en: ~
        names_es: ~
        population: 1963
        timezone: Europe/Copenhagen
      - 
        alternate_names: 
          - Ulborg
          - Ulfborg
          - Ulfkaer
          - Ulfkær
        ascii_name: Ulfborg
        geonamesid: 2610959
        latitude: 56.26667
        longitude: 8.33333
        name: Ulfborg
        names_en: ~
        names_es: ~
        population: 1994
        timezone: Europe/Copenhagen
      - 
        alternate_names: ~
        ascii_name: Trige
        geonamesid: 2611256
        latitude: 56.25
        longitude: 10.16667
        name: Trige
        names_en: ~
        names_es: ~
        population: 2475
        timezone: Europe/Copenhagen
      - 
        alternate_names: 
          - Tranbjaerg
          - Tranbjerg
          - Tranbjærg
        ascii_name: Tranbjerg
        geonamesid: 2611316
        latitude: 56.1
        longitude: 10.15
        name: Tranbjerg
        names_en: ~
        names_es: ~
        population: 7307
        timezone: Europe/Copenhagen
      - 
        alternate_names: 
          - "Nye Torring"
          - "Nye Törring"
          - Torring
          - "Torring Stationsby"
        ascii_name: Torring
        geonamesid: 2611486
        latitude: 55.85
        longitude: 9.48333
        name: Tørring
        names_en: ~
        names_es: ~
        population: 2370
        timezone: Europe/Copenhagen
      - 
        alternate_names: 
          - Thyboron
          - Thyborøn
          - Tyboron
          - "Tyboron By"
        ascii_name: Thyboron
        geonamesid: 2611738
        latitude: 56.7
        longitude: 8.21667
        name: Thyborøn
        names_en: ~
        names_es: ~
        population: 2587
        timezone: Europe/Copenhagen
      - 
        alternate_names: ~
        ascii_name: Tarm
        geonamesid: 2611865
        latitude: 55.91667
        longitude: 8.53333
        name: Tarm
        names_en: ~
        names_es: ~
        population: 4080
        timezone: Europe/Copenhagen
      - 
        alternate_names: ~
        ascii_name: Svejbaek
        geonamesid: 2612053
        latitude: 56.13333
        longitude: 9.63333
        name: Svejbæk
        names_en: ~
        names_es: ~
        population: 3743
        timezone: Europe/Copenhagen
      - 
        alternate_names: 
          - Sunde
          - Sunds
        ascii_name: Sunds
        geonamesid: 2612107
        latitude: 56.2
        longitude: 9.01667
        name: Sunds
        names_en: ~
        names_es: ~
        population: 3525
        timezone: Europe/Copenhagen
      - 
        alternate_names: 
          - Struehr
          - Struer
          - Струэр
        ascii_name: Struer
        geonamesid: 2612204
        latitude: 56.49122
        longitude: 8.58376
        name: Struer
        names_en: 
          - Struer
        names_es: ~
        population: 11317
        timezone: Europe/Copenhagen
      - 
        alternate_names: ~
        ascii_name: Stoholm
        geonamesid: 2612529
        latitude: 56.48333
        longitude: 9.16667
        name: Stoholm
        names_en: ~
        names_es: ~
        population: 2202
        timezone: Europe/Copenhagen
      - 
        alternate_names: ~
        ascii_name: Stilling
        geonamesid: 2612541
        latitude: 56.06667
        longitude: 10.0
        name: Stilling
        names_en: ~
        names_es: ~
        population: 3655
        timezone: Europe/Copenhagen
      - 
        alternate_names: 
          - Stautrup
          - Stavtrup
        ascii_name: Stavtrup
        geonamesid: 2612695
        latitude: 56.13333
        longitude: 10.11667
        name: Stavtrup
        names_en: ~
        names_es: ~
        population: 3519
        timezone: Europe/Copenhagen
      - 
        alternate_names: ~
        ascii_name: Spentrup
        geonamesid: 2612823
        latitude: 56.55
        longitude: 10.03333
        name: Spentrup
        names_en: ~
        names_es: ~
        population: 2155
        timezone: Europe/Copenhagen
      - 
        alternate_names: 
          - Soften
          - Søften
        ascii_name: Soften
        geonamesid: 2613172
        latitude: 56.23333
        longitude: 10.1
        name: Søften
        names_en: ~
        names_es: ~
        population: 2030
        timezone: Europe/Copenhagen
      - 
        alternate_names: 
          - Solbjaerg
          - Solbjærg
        ascii_name: Solbjerg
        geonamesid: 2613254
        latitude: 56.04271
        longitude: 10.08631
        name: Solbjerg
        names_en: ~
        names_es: ~
        population: 2964
        timezone: Europe/Copenhagen
      - 
        alternate_names: 
          - Snejbjaerg
          - Snejbjerg
          - Snejbjærg
        ascii_name: Snejbjerg
        geonamesid: 2613322
        latitude: 56.13333
        longitude: 8.91667
        name: Snejbjerg
        names_en: ~
        names_es: ~
        population: 3513
        timezone: Europe/Copenhagen
      - 
        alternate_names: 
          - Skovby
          - "Skovby Ostj"
          - "Skovby Østj"
        ascii_name: Skovby
        geonamesid: 2613621
        latitude: 56.15
        longitude: 9.95
        name: Skovby
        names_en: ~
        names_es: ~
        population: 2489
        timezone: Europe/Copenhagen
      - 
        alternate_names: 
          - "Gmina Skjern"
          - Skern
          - Skerne
          - Skjern
        ascii_name: Skjern
        geonamesid: 2613715
        latitude: 55.95
        longitude: 8.5
        name: Skjern
        names_en: 
          - Skjern
        names_es: ~
        population: 7145
        timezone: Europe/Copenhagen
      - 
        alternate_names: 
          - Skive
          - Скиве
        ascii_name: Skive
        geonamesid: 2613731
        latitude: 56.56667
        longitude: 9.03333
        name: Skive
        names_en: 
          - Skive
        names_es: ~
        population: 20815
        timezone: Europe/Copenhagen
      - 
        alternate_names: 
          - Skanderborg
        ascii_name: Skanderborg
        geonamesid: 2613887
        latitude: 56.03991
        longitude: 9.9272
        name: Skanderborg
        names_en: 
          - Skanderborg
        names_es: ~
        population: 13543
        timezone: Europe/Copenhagen
      - 
        alternate_names: 
          - Sil'keborg
          - Silkeborg
          - Силькеборг
        ascii_name: Silkeborg
        geonamesid: 2614030
        latitude: 56.1697
        longitude: 9.54508
        name: Silkeborg
        names_en: 
          - Silkeborg
        names_es: ~
        population: 41674
        timezone: Europe/Copenhagen
      - 
        alternate_names: ~
        ascii_name: Sabro
        geonamesid: 2614343
        latitude: 56.21667
        longitude: 10.05
        name: Sabro
        names_en: ~
        names_es: ~
        population: 1977
        timezone: Europe/Copenhagen
      - 
        alternate_names: 
          - Ryomgaard
          - Ryomgard
          - Ryomgård
          - Ryumgaard
        ascii_name: Ryomgard
        geonamesid: 2614353
        latitude: 56.38333
        longitude: 10.5
        name: Ryomgård
        names_en: ~
        names_es: ~
        population: 1952
        timezone: Europe/Copenhagen
      - 
        alternate_names: 
          - Ry
          - Rye
          - "Rye Stationsby"
        ascii_name: Ry
        geonamesid: 2614387
        latitude: 56.08333
        longitude: 9.76667
        name: Ry
        names_en: ~
        names_es: ~
        population: 4909
        timezone: Europe/Copenhagen
      - 
        alternate_names: 
          - Ronde
          - Rønde
        ascii_name: Ronde
        geonamesid: 2614565
        latitude: 56.3
        longitude: 10.48333
        name: Rønde
        names_en: ~
        names_es: ~
        population: 2213
        timezone: Europe/Copenhagen
      - 
        alternate_names: 
          - Ringkjobing
          - Ringkjöbing
          - Ringkobing
          - Ringkøbing
        ascii_name: Ringkobing
        geonamesid: 2614776
        latitude: 56.09006
        longitude: 8.24402
        name: Ringkøbing
        names_en: 
          - Ringkøbing
        names_es: ~
        population: 9315
        timezone: Europe/Copenhagen
      - 
        alternate_names: 
          - Randers
          - Рандерс
        ascii_name: Randers
        geonamesid: 2615006
        latitude: 56.46667
        longitude: 10.05
        name: Randers
        names_en: 
          - Randers
        names_es: ~
        population: 55780
        timezone: Europe/Copenhagen
      - 
        alternate_names: 
          - Odder
          - Оддер
        ascii_name: Odder
        geonamesid: 2615886
        latitude: 55.97313
        longitude: 10.153
        name: Odder
        names_en: 
          - Odder
        names_es: ~
        population: 11009
        timezone: Europe/Copenhagen
      - 
        alternate_names: 
          - Maarslet
          - Marslet
          - Mårslet
        ascii_name: Marslet
        geonamesid: 2617034
        latitude: 56.06667
        longitude: 10.16667
        name: Mårslet
        names_en: ~
        names_es: ~
        population: 2698
        timezone: Europe/Copenhagen
      - 
        alternate_names: ~
        ascii_name: Malling
        geonamesid: 2617114
        latitude: 56.03333
        longitude: 10.16667
        name: Malling
        names_en: ~
        names_es: ~
        population: 3339
        timezone: Europe/Copenhagen
      - 
        alternate_names: ~
        ascii_name: Lystrup
        geonamesid: 2617176
        latitude: 56.23333
        longitude: 10.25
        name: Lystrup
        names_en: ~
        names_es: ~
        population: 9107
        timezone: Europe/Copenhagen
      - 
        alternate_names: ~
        ascii_name: Logten
        geonamesid: 2617463
        latitude: 56.28333
        longitude: 10.31667
        name: Løgten
        names_en: ~
        names_es: ~
        population: 5048
        timezone: Europe/Copenhagen
      - 
        alternate_names: ~
        ascii_name: Lind
        geonamesid: 2617619
        latitude: 56.1
        longitude: 8.98333
        name: Lind
        names_en: ~
        names_es: ~
        population: 3777
        timezone: Europe/Copenhagen
      - 
        alternate_names: 
          - Lemvig
          - Лемвиг
        ascii_name: Lemvig
        geonamesid: 2617812
        latitude: 56.54856
        longitude: 8.31019
        name: Lemvig
        names_en: 
          - Lemvig
        names_es: ~
        population: 7330
        timezone: Europe/Copenhagen
      - 
        alternate_names: 
          - Langa
          - Langaa
          - Langå
        ascii_name: Langa
        geonamesid: 2617981
        latitude: 56.38333
        longitude: 9.9
        name: Langå
        names_en: ~
        names_es: ~
        population: 2710
        timezone: Europe/Copenhagen
      - 
        alternate_names: ~
        ascii_name: Kolt
        geonamesid: 2618489
        latitude: 56.1
        longitude: 10.06667
        name: Kolt
        names_en: ~
        names_es: ~
        population: 5061
        timezone: Europe/Copenhagen
      - 
        alternate_names: 
          - Kellerup
          - Kjellerup
        ascii_name: Kjellerup
        geonamesid: 2618814
        latitude: 56.28333
        longitude: 9.43333
        name: Kjellerup
        names_en: ~
        names_es: ~
        population: 4514
        timezone: Europe/Copenhagen
      - 
        alternate_names: 
          - Kibaek
          - Kibæk
        ascii_name: Kibaek
        geonamesid: 2618931
        latitude: 56.03333
        longitude: 8.85
        name: Kibæk
        names_en: ~
        names_es: ~
        population: 2656
        timezone: Europe/Copenhagen
      - 
        alternate_names: ~
        ascii_name: Karup
        geonamesid: 2619068
        latitude: 56.30673
        longitude: 9.16835
        name: Karup
        names_en: ~
        names_es: ~
        population: 2176
        timezone: Europe/Copenhagen
      - 
        alternate_names: ~
        ascii_name: Juelsminde
        geonamesid: 2619251
        latitude: 55.70667
        longitude: 10.01528
        name: Juelsminde
        names_en: ~
        names_es: ~
        population: 3667
        timezone: Europe/Copenhagen
      - 
        alternate_names: ~
        ascii_name: Ikast
        geonamesid: 2619426
        latitude: 56.13883
        longitude: 9.15768
        name: Ikast
        names_en: ~
        names_es: ~
        population: 14692
        timezone: Europe/Copenhagen
      - 
        alternate_names: ~
        ascii_name: "Hvide Sande"
        geonamesid: 2619537
        latitude: 56.00452
        longitude: 8.12937
        name: "Hvide Sande"
        names_en: ~
        names_es: ~
        population: 3291
        timezone: Europe/Copenhagen
      - 
        alternate_names: 
          - Horsens
          - Khorsens
          - "huo er sen si"
          - Хорсенс
        ascii_name: Horsens
        geonamesid: 2619771
        latitude: 55.86066
        longitude: 9.85034
        name: Horsens
        names_en: 
          - Horsens
        names_es: ~
        population: 50074
        timezone: Europe/Copenhagen
      - 
        alternate_names: ~
        ascii_name: Hornslet
        geonamesid: 2619787
        latitude: 56.31667
        longitude: 10.33333
        name: Hornslet
        names_en: ~
        names_es: ~
        population: 4906
        timezone: Europe/Copenhagen
      - 
        alternate_names: ~
        ascii_name: Horning
        geonamesid: 2619860
        latitude: 56.08333
        longitude: 10.05
        name: Hørning
        names_en: ~
        names_es: ~
        population: 6085
        timezone: Europe/Copenhagen
      - 
        alternate_names: 
          - Hoislev
          - Hojslev
          - Höislev
          - Højslev
        ascii_name: Hojslev
        geonamesid: 2619908
        latitude: 56.58333
        longitude: 9.15
        name: Højslev
        names_en: ~
        names_es: ~
        population: 1857
        timezone: Europe/Copenhagen
      - 
        alternate_names: 
          - Holstebro
          - Khol'stebro
          - Хольстебро
        ascii_name: Holstebro
        geonamesid: 2620046
        latitude: 56.36009
        longitude: 8.61607
        name: Holstebro
        names_en: 
          - Holstebro
        names_es: ~
        population: 32072
        timezone: Europe/Copenhagen
      - 
        alternate_names: 
          - Hjortshoj
          - Hjortshøj
        ascii_name: Hjortshoj
        geonamesid: 2620186
        latitude: 56.25
        longitude: 10.26667
        name: Hjortshøj
        names_en: ~
        names_es: ~
        population: 2515
        timezone: Europe/Copenhagen
      - 
        alternate_names: 
          - "Gmina Hinnerup"
          - Hinnerup
          - Hinnerup-Broby
          - Khinnerup
        ascii_name: Hinnerup
        geonamesid: 2620288
        latitude: 56.26667
        longitude: 10.06667
        name: Hinnerup
        names_en: 
          - Hinnerup
        names_es: ~
        population: 7055
        timezone: Europe/Copenhagen
      - 
        alternate_names: 
          - Herning
          - Kherning
          - Хернинг
        ascii_name: Herning
        geonamesid: 2620425
        latitude: 56.13932
        longitude: 8.97378
        name: Herning
        names_en: 
          - Herning
        names_es: ~
        population: 44763
        timezone: Europe/Copenhagen
      - 
        alternate_names: ~
        ascii_name: Hedensted
        geonamesid: 2620583
        latitude: 55.77043
        longitude: 9.7011
        name: Hedensted
        names_en: ~
        names_es: ~
        population: 10048
        timezone: Europe/Copenhagen
      - 
        alternate_names: 
          - Harboor
          - Harboør
        ascii_name: Harboore
        geonamesid: 2620767
        latitude: 56.61752
        longitude: 8.18069
        name: Harboøre
        names_en: ~
        names_es: ~
        population: 1745
        timezone: Europe/Copenhagen
      - 
        alternate_names: 
          - Hammerum
          - Hamrum
        ascii_name: Hammerum
        geonamesid: 2620814
        latitude: 56.13333
        longitude: 9.06667
        name: Hammerum
        names_en: ~
        names_es: ~
        population: 3025
        timezone: Europe/Copenhagen
      - 
        alternate_names: 
          - "Gmina Hammel"
          - Hammel
          - "funmeru ren xing"
          - フンメル人形
        ascii_name: Hammel
        geonamesid: 2620835
        latitude: 56.25
        longitude: 9.86667
        name: Hammel
        names_en: 
          - Hammel
        names_es: ~
        population: 6138
        timezone: Europe/Copenhagen
      - 
        alternate_names: 
          - "Hadsten Stationsby"
          - Khadsten
          - Хадстен
        ascii_name: Hadsten
        geonamesid: 2620956
        latitude: 56.32819
        longitude: 10.04931
        name: Hadsten
        names_en: ~
        names_es: ~
        population: 7020
        timezone: Europe/Copenhagen
      - 
        alternate_names: 
          - Grena
          - Grenaa
          - Grenå
        ascii_name: Grenaa
        geonamesid: 2621230
        latitude: 56.41578
        longitude: 10.87825
        name: Grenaa
        names_en: 
          - Grenå
        names_es: ~
        population: 14317
        timezone: Europe/Copenhagen
      - 
        alternate_names: 
          - Gjellerup
          - "Gjellerup Kirkeby"
          - Kirkeby
        ascii_name: "Gjellerup Kirkeby"
        geonamesid: 2621434
        latitude: 56.15
        longitude: 9.05
        name: "Gjellerup Kirkeby"
        names_en: ~
        names_es: ~
        population: 3627
        timezone: Europe/Copenhagen
      - 
        alternate_names: 
          - Galten
          - "Sonder Galten"
        ascii_name: Galten
        geonamesid: 2621710
        latitude: 56.15
        longitude: 9.91667
        name: Galten
        names_en: ~
        names_es: ~
        population: 4895
        timezone: Europe/Copenhagen
      - 
        alternate_names: ~
        ascii_name: Framlev
        geonamesid: 2621967
        latitude: 56.15664
        longitude: 10.01318
        name: Framlev
        names_en: ~
        names_es: ~
        population: 3067
        timezone: Europe/Copenhagen
      - 
        alternate_names: 
          - AEbeltoft
          - Ehbel'toft
          - Æbeltoft
          - Эбельтофт
        ascii_name: Ebeltoft
        geonamesid: 2622793
        latitude: 56.19442
        longitude: 10.6821
        name: Ebeltoft
        names_en: ~
        names_es: ~
        population: 7501
        timezone: Europe/Copenhagen
      - 
        alternate_names: 
          - Braedstrup
          - Bredstrup
          - Brædstrup
        ascii_name: Braedstrup
        geonamesid: 2623516
        latitude: 55.96667
        longitude: 9.61667
        name: Brædstrup
        names_en: ~
        names_es: ~
        population: 3130
        timezone: Europe/Copenhagen
      - 
        alternate_names: 
          - Brande
          - "Gmina Brande"
        ascii_name: Brande
        geonamesid: 2623554
        latitude: 55.95
        longitude: 9.11667
        name: Brande
        names_en: 
          - Brande
        names_es: ~
        population: 6357
        timezone: Europe/Copenhagen
      - 
        alternate_names: 
          - Bording
          - "Bording Kirkeby"
          - Borring
        ascii_name: "Bording Kirkeby"
        geonamesid: 2623694
        latitude: 56.16667
        longitude: 9.25
        name: "Bording Kirkeby"
        names_en: ~
        names_es: ~
        population: 2104
        timezone: Europe/Copenhagen
      - 
        alternate_names: ~
        ascii_name: Bjerringbro
        geonamesid: 2624019
        latitude: 56.38333
        longitude: 9.66667
        name: Bjerringbro
        names_en: ~
        names_es: ~
        population: 7390
        timezone: Europe/Copenhagen
      - 
        alternate_names: 
          - Beder
          - Бедер
        ascii_name: Beder
        geonamesid: 2624212
        latitude: 56.06025
        longitude: 10.21179
        name: Beder
        names_en: ~
        names_es: ~
        population: 4214
        timezone: Europe/Copenhagen
      - 
        alternate_names: 
          - Aulum
          - Avlum
        ascii_name: Avlum
        geonamesid: 2624419
        latitude: 56.26667
        longitude: 8.8
        name: Avlum
        names_en: ~
        names_es: ~
        population: 2875
        timezone: Europe/Copenhagen
      - 
        alternate_names: 
          - Auning
          - Avning
        ascii_name: Auning
        geonamesid: 2624435
        latitude: 56.43333
        longitude: 10.38333
        name: Auning
        names_en: ~
        names_es: ~
        population: 2509
        timezone: Europe/Copenhagen
      - 
        alternate_names: 
          - Assentoft
        ascii_name: Assentoft
        geonamesid: 2624499
        latitude: 56.43333
        longitude: 10.15
        name: Assentoft
        names_en: ~
        names_es: ~
        population: 2432
        timezone: Europe/Copenhagen
      - 
        alternate_names: 
          - Aarhus
          - Aarhusium
          - Arhus
          - Arhuzo
        ascii_name: Arhus
        geonamesid: 2624652
        latitude: 56.15674
        longitude: 10.21076
        name: Århus
        names_en: 
          - Aarhus
        names_es: 
          - Århus
        population: 237551
        timezone: Europe/Copenhagen
      - 
        alternate_names: 
          - Allingaabro
          - Allingabro
          - Allingåbro
        ascii_name: Allingabro
        geonamesid: 2624819
        latitude: 56.46667
        longitude: 10.33333
        name: Allingåbro
        names_en: ~
        names_es: ~
        population: 1842
        timezone: Europe/Copenhagen
    geonamesid: 6418539
    name: "Central Jutland"
    names_en: 
      - "Central Jutland"
      - "Region Central Jutland"
    names_es: ~
  - 
    ascii_name: "North Jutland"
    cities: 
      - 
        alternate_names: 
          - Vra
          - Vraa
          - Vrå
        ascii_name: Vra
        geonamesid: 2609990
        latitude: 57.35
        longitude: 9.95
        name: Vrå
        names_en: ~
        names_es: ~
        population: 2273
        timezone: Europe/Copenhagen
      - 
        alternate_names: ~
        ascii_name: Vodskov
        geonamesid: 2610095
        latitude: 57.1
        longitude: 10.03333
        name: Vodskov
        names_en: ~
        names_es: ~
        population: 4406
        timezone: Europe/Copenhagen
      - 
        alternate_names: 
          - "Vester Hasing"
          - "Vester Hassing"
        ascii_name: "Vester Hassing"
        geonamesid: 2610437
        latitude: 57.06667
        longitude: 10.13333
        name: "Vester Hassing"
        names_en: ~
        names_es: ~
        population: 2298
        timezone: Europe/Copenhagen
      - 
        alternate_names: 
          - Vestbjaerg
          - Vestbjerg
          - Vestbjærg
        ascii_name: Vestbjerg
        geonamesid: 2610499
        latitude: 57.13333
        longitude: 9.98333
        name: Vestbjerg
        names_en: ~
        names_es: ~
        population: 2251
        timezone: Europe/Copenhagen
      - 
        alternate_names: 
          - Thystad
          - Tisted
        ascii_name: Thisted
        geonamesid: 2611755
        latitude: 56.95523
        longitude: 8.69491
        name: Thisted
        names_en: ~
        names_es: ~
        population: 13020
        timezone: Europe/Copenhagen
      - 
        alternate_names: 
          - Taars
          - Tars
          - Tors
          - Tårs
        ascii_name: Tars
        geonamesid: 2611852
        latitude: 57.38333
        longitude: 10.11667
        name: Tårs
        names_en: ~
        names_es: ~
        population: 1856
        timezone: Europe/Copenhagen
      - 
        alternate_names: ~
        ascii_name: Svenstrup
        geonamesid: 2612021
        latitude: 56.98333
        longitude: 9.86667
        name: Svenstrup
        names_en: ~
        names_es: ~
        population: 4550
        timezone: Europe/Copenhagen
      - 
        alternate_names: ~
        ascii_name: Strandby
        geonamesid: 2612274
        latitude: 57.5
        longitude: 10.5
        name: Strandby
        names_en: ~
        names_es: ~
        population: 2518
        timezone: Europe/Copenhagen
      - 
        alternate_names: 
          - Storevorde
          - Storvorde
        ascii_name: Storvorde
        geonamesid: 2612301
        latitude: 57.0
        longitude: 10.1
        name: Storvorde
        names_en: ~
        names_es: ~
        population: 2796
        timezone: Europe/Copenhagen
      - 
        alternate_names: ~
        ascii_name: Stovring
        geonamesid: 2612500
        latitude: 56.88536
        longitude: 9.83839
        name: Støvring
        names_en: ~
        names_es: ~
        population: 6239
        timezone: Europe/Copenhagen
      - 
        alternate_names: 
          - "Gmina Skorping"
          - "Gmina Skørping"
          - Skoerping
          - Skorping
        ascii_name: Skorping
        geonamesid: 2613672
        latitude: 56.83333
        longitude: 9.88333
        name: Skørping
        names_en: 
          - Skørping
        names_es: ~
        population: 2722
        timezone: Europe/Copenhagen
      - 
        alternate_names: 
          - Skagen
          - Скаген
        ascii_name: Skagen
        geonamesid: 2613939
        latitude: 57.72093
        longitude: 10.58394
        name: Skagen
        names_en: 
          - Skagen
        names_es: 
          - Skagen
        population: 9747
        timezone: Europe/Copenhagen
      - 
        alternate_names: 
          - "Gmina Sindal"
          - Sindal
        ascii_name: Sindal
        geonamesid: 2614010
        latitude: 57.47117
        longitude: 10.20312
        name: Sindal
        names_en: 
          - Sindal
        names_es: ~
        population: 2898
        timezone: Europe/Copenhagen
      - 
        alternate_names: 
          - Saeby
          - Sæby
        ascii_name: Saeby
        geonamesid: 2614172
        latitude: 57.33333
        longitude: 10.53333
        name: Sæby
        names_en: ~
        names_es: ~
        population: 8435
        timezone: Europe/Copenhagen
      - 
        alternate_names: ~
        ascii_name: Rebild
        geonamesid: 2614907
        latitude: 56.83333
        longitude: 9.85
        name: Rebild
        names_en: ~
        names_es: ~
        population: 0
        timezone: Europe/Copenhagen
      - 
        alternate_names: 
          - "Gmina Pandrup"
          - Panderup
          - Pandrup
        ascii_name: Pandrup
        geonamesid: 2615222
        latitude: 57.22147
        longitude: 9.67569
        name: Pandrup
        names_en: 
          - Pandrup
        names_es: ~
        population: 2942
        timezone: Europe/Copenhagen
      - 
        alternate_names: 
          - Nykjobing
          - Nykjöbing
          - Nykobing
          - Nykøbing
        ascii_name: "Nykobing Mors"
        geonamesid: 2615964
        latitude: 56.79334
        longitude: 8.85282
        name: "Nykøbing Mors"
        names_en: ~
        names_es: ~
        population: 9326
        timezone: Europe/Copenhagen
      - 
        alternate_names: 
          - Nibe
          - Нибе
        ascii_name: Nibe
        geonamesid: 2616483
        latitude: 56.98333
        longitude: 9.63333
        name: Nibe
        names_en: ~
        names_es: ~
        population: 4376
        timezone: Europe/Copenhagen
      - 
        alternate_names: 
          - "Gmina Mariager"
          - Mariager
          - Мариагер
        ascii_name: Mariager
        geonamesid: 2617076
        latitude: 56.65
        longitude: 10.0
        name: Mariager
        names_en: 
          - Mariager
        names_es: ~
        population: 2433
        timezone: Europe/Copenhagen
      - 
        alternate_names: 
          - "Gmina Logstor"
          - "Gmina Løgstør"
          - Loegstoer
          - Logstor
        ascii_name: Logstor
        geonamesid: 2617467
        latitude: 56.96667
        longitude: 9.25
        name: Løgstør
        names_en: 
          - Løgstør
        names_es: ~
        population: 4469
        timezone: Europe/Copenhagen
      - 
        alternate_names: ~
        ascii_name: Klarup
        geonamesid: 2618787
        latitude: 57.01667
        longitude: 10.05
        name: Klarup
        names_en: ~
        names_es: ~
        population: 3352
        timezone: Europe/Copenhagen
      - 
        alternate_names: 
          - Kaas
          - Kas
          - Kås
        ascii_name: Kas
        geonamesid: 2619061
        latitude: 57.2
        longitude: 9.66667
        name: Kås
        names_en: ~
        names_es: ~
        population: 1990
        timezone: Europe/Copenhagen
      - 
        alternate_names: 
          - Hurup
          - Thy
        ascii_name: Hurup
        geonamesid: 2619624
        latitude: 56.75
        longitude: 8.41667
        name: Hurup
        names_en: ~
        names_es: ~
        population: 2769
        timezone: Europe/Copenhagen
      - 
        alternate_names: 
          - Hobro
          - Khobro
          - Хобро
        ascii_name: Hobro
        geonamesid: 2620167
        latitude: 56.64306
        longitude: 9.79029
        name: Hobro
        names_en: 
          - Hobro
        names_es: ~
        population: 11064
        timezone: Europe/Copenhagen
      - 
        alternate_names: 
          - Hjoerring
          - Hjorring
          - Hjörring
          - Hjørring
        ascii_name: Hjorring
        geonamesid: 2620214
        latitude: 57.46417
        longitude: 9.98229
        name: Hjørring
        names_en: 
          - Hjørring
        names_es: ~
        population: 24634
        timezone: Europe/Copenhagen
      - 
        alternate_names: ~
        ascii_name: Hjallerup
        geonamesid: 2620275
        latitude: 57.16667
        longitude: 10.15
        name: Hjallerup
        names_en: ~
        names_es: ~
        population: 3320
        timezone: Europe/Copenhagen
      - 
        alternate_names: 
          - Hirtshals
          - Khirtskhal's
          - "Lilleheden Hornsnaes"
          - "Lilleheden Hornsnæs"
        ascii_name: Hirtshals
        geonamesid: 2620279
        latitude: 57.58812
        longitude: 9.95922
        name: Hirtshals
        names_en: 
          - Hirtshals
        names_es: ~
        population: 6653
        timezone: Europe/Copenhagen
      - 
        alternate_names: 
          - "Gmina Hanstholm"
          - Hanstholm
        ascii_name: Hanstholm
        geonamesid: 2620786
        latitude: 57.11667
        longitude: 8.61667
        name: Hanstholm
        names_en: 
          - Hanstholm
        names_es: ~
        population: 2418
        timezone: Europe/Copenhagen
      - 
        alternate_names: ~
        ascii_name: Hals
        geonamesid: 2620871
        latitude: 57.0
        longitude: 10.31667
        name: Hals
        names_en: ~
        names_es: ~
        population: 2388
        timezone: Europe/Copenhagen
      - 
        alternate_names: 
          - "Gmina Hadsund"
          - Hadsund
        ascii_name: Hadsund
        geonamesid: 2620952
        latitude: 56.71667
        longitude: 10.11667
        name: Hadsund
        names_en: 
          - Hadsund
        names_es: ~
        population: 5066
        timezone: Europe/Copenhagen
      - 
        alternate_names: ~
        ascii_name: Gistrup
        geonamesid: 2621449
        latitude: 57.0
        longitude: 10.0
        name: Gistrup
        names_en: ~
        names_es: ~
        population: 3622
        timezone: Europe/Copenhagen
      - 
        alternate_names: 
          - Freilev
          - Frejlev
        ascii_name: Frejlev
        geonamesid: 2621896
        latitude: 57.0
        longitude: 9.83333
        name: Frejlev
        names_en: ~
        names_es: ~
        population: 2286
        timezone: Europe/Copenhagen
      - 
        alternate_names: 
          - Fladstrand
          - Frederikskhavn
          - Фредериксхавн
        ascii_name: Frederikshavn
        geonamesid: 2621927
        latitude: 57.44073
        longitude: 10.53661
        name: Frederikshavn
        names_en: ~
        names_es: ~
        population: 24103
        timezone: Europe/Copenhagen
      - 
        alternate_names: 
          - Fjerreslev
          - Fjerritslev
          - "Gmina Fjerritslev"
        ascii_name: Fjerritslev
        geonamesid: 2622139
        latitude: 57.08333
        longitude: 9.26667
        name: Fjerritslev
        names_en: 
          - Fjerritslev
        names_es: ~
        population: 3441
        timezone: Europe/Copenhagen
      - 
        alternate_names: 
          - Farso
          - Farsoe
          - Farsö
          - Farsø
        ascii_name: Farso
        geonamesid: 2622310
        latitude: 56.78333
        longitude: 9.35
        name: Farsø
        names_en: 
          - Farsø
        names_es: ~
        population: 3271
        timezone: Europe/Copenhagen
      - 
        alternate_names: 
          - Dronninglund
          - "Gmina Dronninglund"
        ascii_name: Dronninglund
        geonamesid: 2622888
        latitude: 57.15
        longitude: 10.3
        name: Dronninglund
        names_en: 
          - Dronninglund
        names_es: ~
        population: 3084
        timezone: Europe/Copenhagen
      - 
        alternate_names: 
          - Brovst
          - "Gmina Brovst"
        ascii_name: Brovst
        geonamesid: 2623306
        latitude: 57.1
        longitude: 9.53333
        name: Brovst
        names_en: 
          - Brovst
        names_es: ~
        population: 2710
        timezone: Europe/Copenhagen
      - 
        alternate_names: 
          - Bronderslev
          - Brønderslev
        ascii_name: Bronderslev
        geonamesid: 2623337
        latitude: 57.27021
        longitude: 9.94102
        name: Brønderslev
        names_en: 
          - Brønderslev
        names_es: ~
        population: 11671
        timezone: Europe/Copenhagen
      - 
        alternate_names: 
          - Aars
          - Ars
          - "Gmina Aars"
          - Års
        ascii_name: Aars
        geonamesid: 2624602
        latitude: 56.80399
        longitude: 9.51441
        name: Aars
        names_en: 
          - Aars
        names_es: ~
        population: 7771
        timezone: Europe/Copenhagen
      - 
        alternate_names: 
          - Arden
          - "Arden Stationsby"
        ascii_name: Arden
        geonamesid: 2624660
        latitude: 56.76667
        longitude: 9.88333
        name: Arden
        names_en: ~
        names_es: ~
        population: 2516
        timezone: Europe/Copenhagen
      - 
        alternate_names: 
          - Aalestrup
          - Alestrup
          - Ålestrup
        ascii_name: Alestrup
        geonamesid: 2624864
        latitude: 56.7
        longitude: 9.5
        name: Ålestrup
        names_en: ~
        names_es: ~
        population: 2787
        timezone: Europe/Copenhagen
      - 
        alternate_names: 
          - Aalborg
          - Alaborg
          - Alborg
          - Ol'borg
        ascii_name: Aalborg
        geonamesid: 2624886
        latitude: 57.048
        longitude: 9.9187
        name: Aalborg
        names_en: 
          - Aalborg
        names_es: 
          - Aalborg
        population: 122219
        timezone: Europe/Copenhagen
      - 
        alternate_names: 
          - Aabybro
          - Abybro
          - "Gmina Aabybro"
          - Åbybro
        ascii_name: Abybro
        geonamesid: 2625037
        latitude: 57.15836
        longitude: 9.73672
        name: Åbybro
        names_en: 
          - Aabybro
        names_es: ~
        population: 4849
        timezone: Europe/Copenhagen
    geonamesid: 6418540
    name: "North Jutland"
    names_en: 
      - "North Jutland"
      - "Region North Jutland"
    names_es: ~
  - 
    ascii_name: Zealand
    cities: 
      - 
        alternate_names: 
          - Vordingborg
          - Вордингборг
        ascii_name: Vordingborg
        geonamesid: 2610020
        latitude: 55.00801
        longitude: 11.91057
        name: Vordingborg
        names_en: ~
        names_es: ~
        population: 9131
        timezone: Europe/Copenhagen
      - 
        alternate_names: ~
        ascii_name: Vipperod
        geonamesid: 2610162
        latitude: 55.66667
        longitude: 11.75
        name: Vipperød
        names_en: ~
        names_es: ~
        population: 2345
        timezone: Europe/Copenhagen
      - 
        alternate_names: ~
        ascii_name: Vindinge
        geonamesid: 2610189
        latitude: 55.63333
        longitude: 12.15
        name: Vindinge
        names_en: ~
        names_es: ~
        population: 2045
        timezone: Europe/Copenhagen
      - 
        alternate_names: ~
        ascii_name: Viby
        geonamesid: 2610311
        latitude: 55.55
        longitude: 12.03333
        name: Viby
        names_en: ~
        names_es: ~
        population: 4505
        timezone: Europe/Copenhagen
      - 
        alternate_names: 
          - Tune
        ascii_name: Tune
        geonamesid: 2611132
        latitude: 55.6
        longitude: 12.18333
        name: Tune
        names_en: ~
        names_es: ~
        population: 5168
        timezone: Europe/Copenhagen
      - 
        alternate_names: 
          - Tollose
          - "Tollose Stationsby"
          - "Töllöse Stationsby"
          - Tølløse
        ascii_name: Tollose
        geonamesid: 2611509
        latitude: 55.61667
        longitude: 11.75
        name: Tølløse
        names_en: ~
        names_es: ~
        population: 3457
        timezone: Europe/Copenhagen
      - 
        alternate_names: ~
        ascii_name: Svogerslev
        geonamesid: 2611982
        latitude: 55.63333
        longitude: 12.01667
        name: Svogerslev
        names_en: ~
        names_es: ~
        population: 4355
        timezone: Europe/Copenhagen
      - 
        alternate_names: ~
        ascii_name: Svinninge
        geonamesid: 2611999
        latitude: 55.71667
        longitude: 11.46667
        name: Svinninge
        names_en: ~
        names_es: ~
        population: 2376
        timezone: Europe/Copenhagen
      - 
        alternate_names: 
          - Svebolle
          - "Svebolle Stationsby"
          - Svebølle
          - "Svebølle Stationsby"
        ascii_name: Svebolle
        geonamesid: 2612057
        latitude: 55.65
        longitude: 11.3
        name: Svebølle
        names_en: ~
        names_es: ~
        population: 2186
        timezone: Europe/Copenhagen
      - 
        alternate_names: 
          - Stadager
          - Sundby
        ascii_name: Sundby
        geonamesid: 2612121
        latitude: 54.85
        longitude: 11.78333
        name: Sundby
        names_en: ~
        names_es: ~
        population: 2922
        timezone: Europe/Copenhagen
      - 
        alternate_names: 
          - Stubbekiobing
          - Stubbekiöbing
          - Stubbekjobing
          - Stubbekjöbing
        ascii_name: Stubbekobing
        geonamesid: 2612192
        latitude: 54.88875
        longitude: 12.04102
        name: Stubbekøbing
        names_en: 
          - Stubbekøbing
        names_es: ~
        population: 2301
        timezone: Europe/Copenhagen
      - 
        alternate_names: ~
        ascii_name: "Stroby Egede"
        geonamesid: 2612211
        latitude: 55.41667
        longitude: 12.25
        name: "Strøby Egede"
        names_en: ~
        names_es: ~
        population: 2700
        timezone: Europe/Copenhagen
      - 
        alternate_names: 
          - "Store Hedinge"
        ascii_name: "Store Heddinge"
        geonamesid: 2612411
        latitude: 55.30965
        longitude: 12.38885
        name: "Store Heddinge"
        names_en: ~
        names_es: ~
        population: 3679
        timezone: Europe/Copenhagen
      - 
        alternate_names: ~
        ascii_name: Stenlille
        geonamesid: 2612633
        latitude: 55.53333
        longitude: 11.6
        name: Stenlille
        names_en: ~
        names_es: ~
        population: 1905
        timezone: Europe/Copenhagen
      - 
        alternate_names: ~
        ascii_name: Stege
        geonamesid: 2612689
        latitude: 54.98333
        longitude: 12.3
        name: Stege
        names_en: ~
        names_es: ~
        population: 3881
        timezone: Europe/Copenhagen
      - 
        alternate_names: ~
        ascii_name: Soro
        geonamesid: 2612862
        latitude: 55.43184
        longitude: 11.55547
        name: Sorø
        names_en: ~
        names_es: ~
        population: 7167
        timezone: Europe/Copenhagen
      - 
        alternate_names: ~
        ascii_name: Solrod
        geonamesid: 2613234
        latitude: 55.53628
        longitude: 12.1827
        name: Solrød
        names_en: ~
        names_es: ~
        population: 2000
        timezone: Europe/Copenhagen
      - 
        alternate_names: 
          - Slagel'se
          - Slagelse
          - Слагельсе
        ascii_name: Slagelse
        geonamesid: 2613460
        latitude: 55.40276
        longitude: 11.35459
        name: Slagelse
        names_en: 
          - Slagelse
        names_es: ~
        population: 31896
        timezone: Europe/Copenhagen
      - 
        alternate_names: 
          - Skaelskor
          - Skjelskor
          - Skjelskör
          - Skælskør
        ascii_name: Skaelskor
        geonamesid: 2613694
        latitude: 55.25
        longitude: 11.31667
        name: Skælskør
        names_en: ~
        names_es: ~
        population: 6455
        timezone: Europe/Copenhagen
      - 
        alternate_names: 
          - "Gmina Sakskobing"
          - "Gmina Sakskøbing"
          - Sakskobing
          - Sakskøbing
        ascii_name: Sakskobing
        geonamesid: 2614328
        latitude: 54.7997
        longitude: 11.62599
        name: Sakskøbing
        names_en: 
          - Sakskøbing
        names_es: ~
        population: 4928
        timezone: Europe/Copenhagen
      - 
        alternate_names: 
          - Hroarskelda
          - Hróarskelda
          - Roskilde
          - Roskille
        ascii_name: Roskilde
        geonamesid: 2614481
        latitude: 55.64152
        longitude: 12.08035
        name: Roskilde
        names_en: 
          - Roskilde
        names_es: 
          - Roskilde
        population: 44285
        timezone: Europe/Copenhagen
      - 
        alternate_names: 
          - "Gmina Ronnede"
          - "Gmina Rønnede"
          - Ronnede
          - Rønnede
        ascii_name: Ronnede
        geonamesid: 2614547
        latitude: 55.25
        longitude: 12.0
        name: Rønnede
        names_en: 
          - Rønnede
        names_es: ~
        population: 2395
        timezone: Europe/Copenhagen
      - 
        alternate_names: 
          - "Rodby Havn"
          - Rodbyhavn
          - Roedby-havn
          - Rødbyhavn
        ascii_name: Rodbyhavn
        geonamesid: 2614624
        latitude: 54.65
        longitude: 11.35
        name: Rødbyhavn
        names_en: ~
        names_es: ~
        population: 2145
        timezone: Europe/Copenhagen
      - 
        alternate_names: 
          - "Gmina Rodby"
          - "Gmina Rødby"
          - Rodby
          - Rødby
        ascii_name: Rodby
        geonamesid: 2614626
        latitude: 54.7
        longitude: 11.4
        name: Rødby
        names_en: 
          - Rødby
        names_es: ~
        population: 2379
        timezone: Europe/Copenhagen
      - 
        alternate_names: 
          - Ringsted
          - Рингстед
        ascii_name: Ringsted
        geonamesid: 2614764
        latitude: 55.4426
        longitude: 11.79011
        name: Ringsted
        names_en: 
          - Ringsted
        names_es: ~
        population: 20188
        timezone: Europe/Copenhagen
      - 
        alternate_names: 
          - "Gmina Praesto"
          - "Gmina Præstø"
          - Praesto
          - Præstø
        ascii_name: Praesto
        geonamesid: 2615089
        latitude: 55.11667
        longitude: 12.05
        name: Præstø
        names_en: 
          - Præstø
        names_es: ~
        population: 3695
        timezone: Europe/Copenhagen
      - 
        alternate_names: 
          - Osted
          - Ousted
        ascii_name: Osted
        geonamesid: 2615359
        latitude: 55.56667
        longitude: 11.96667
        name: Osted
        names_en: ~
        names_es: ~
        population: 2122
        timezone: Europe/Copenhagen
      - 
        alternate_names: ~
        ascii_name: Orslev
        geonamesid: 2615666
        latitude: 55.03333
        longitude: 11.98333
        name: Ørslev
        names_en: ~
        names_es: ~
        population: 1801
        timezone: Europe/Copenhagen
      - 
        alternate_names: 
          - Nyraad
          - Nyrad
          - Nyråd
        ascii_name: Nyrad
        geonamesid: 2615932
        latitude: 55.0
        longitude: 11.98333
        name: Nyråd
        names_en: ~
        names_es: ~
        population: 2224
        timezone: Europe/Copenhagen
      - 
        alternate_names: 
          - Nykjobing
        ascii_name: "Nykobing Falster"
        geonamesid: 2615961
        latitude: 54.76906
        longitude: 11.87425
        name: "Nykøbing Falster"
        names_en: ~
        names_es: ~
        population: 16807
        timezone: Europe/Copenhagen
      - 
        alternate_names: 
          - Nykiobing
          - Nykiöbing
          - Nykjobing
          - Nykjöbing
        ascii_name: "Nykobing Sjaelland"
        geonamesid: 2615962
        latitude: 55.92491
        longitude: 11.67109
        name: "Nykøbing Sjælland"
        names_en: ~
        names_es: ~
        population: 5596
        timezone: Europe/Copenhagen
      - 
        alternate_names: 
          - Nestved
          - Нествед
        ascii_name: Naestved
        geonamesid: 2616038
        latitude: 55.22992
        longitude: 11.76092
        name: Næstved
        names_en: ~
        names_es: ~
        population: 40660
        timezone: Europe/Copenhagen
      - 
        alternate_names: ~
        ascii_name: "Norre Hvalso"
        geonamesid: 2616308
        latitude: 55.6
        longitude: 11.86667
        name: "Nørre Hvalsø"
        names_en: ~
        names_es: ~
        population: 3930
        timezone: Europe/Copenhagen
      - 
        alternate_names: 
          - "Gmina Norre Alslev"
          - "Gmina Nørre Alslev"
          - "Norre Alslev"
          - "Nørre Alslev"
        ascii_name: "Norre Alslev"
        geonamesid: 2616365
        latitude: 54.9
        longitude: 11.9
        name: "Nørre Alslev"
        names_en: 
          - "Nørre Alslev"
        names_es: ~
        population: 2128
        timezone: Europe/Copenhagen
      - 
        alternate_names: ~
        ascii_name: "Neder Vindinge"
        geonamesid: 2616518
        latitude: 55.03333
        longitude: 11.88333
        name: "Neder Vindinge"
        names_en: ~
        names_es: ~
        population: 1900
        timezone: Europe/Copenhagen
      - 
        alternate_names: 
          - Nakskov
          - Naskov
          - Наксков
        ascii_name: Nakskov
        geonamesid: 2616599
        latitude: 54.83333
        longitude: 11.15
        name: Nakskov
        names_en: 
          - Nakskov
        names_es: ~
        population: 14081
        timezone: Europe/Copenhagen
      - 
        alternate_names: 
          - Maribo
          - Марибо
        ascii_name: Maribo
        geonamesid: 2617072
        latitude: 54.77662
        longitude: 11.50017
        name: Maribo
        names_en: 
          - Maribo
        names_es: ~
        population: 5349
        timezone: Europe/Copenhagen
      - 
        alternate_names: ~
        ascii_name: Lejre
        geonamesid: 2617832
        latitude: 55.60461
        longitude: 11.97477
        name: Lejre
        names_en: ~
        names_es: ~
        population: 2036
        timezone: Europe/Copenhagen
      - 
        alternate_names: 
          - Korsor
          - Korsør
        ascii_name: Korsor
        geonamesid: 2618361
        latitude: 55.32993
        longitude: 11.13857
        name: Korsør
        names_en: 
          - Korsør
        names_es: ~
        population: 15029
        timezone: Europe/Copenhagen
      - 
        alternate_names: 
          - Kege
          - Kjoge
          - Koge
          - Køge
        ascii_name: Koge
        geonamesid: 2618415
        latitude: 55.45802
        longitude: 12.18214
        name: Køge
        names_en: 
          - Køge
        names_es: ~
        population: 33885
        timezone: Europe/Copenhagen
      - 
        alternate_names: 
          - Kallundborg
          - Kalundborg
        ascii_name: Kalundborg
        geonamesid: 2619154
        latitude: 55.67954
        longitude: 11.08864
        name: Kalundborg
        names_en: 
          - Kalundborg
        names_es: ~
        population: 15939
        timezone: Europe/Copenhagen
      - 
        alternate_names: 
          - Jyllinge
        ascii_name: Jyllinge
        geonamesid: 2619216
        latitude: 55.75
        longitude: 12.11667
        name: Jyllinge
        names_en: ~
        names_es: ~
        population: 9981
        timezone: Europe/Copenhagen
      - 
        alternate_names: ~
        ascii_name: Jyderup
        geonamesid: 2619221
        latitude: 55.66667
        longitude: 11.43333
        name: Jyderup
        names_en: ~
        names_es: ~
        population: 3984
        timezone: Europe/Copenhagen
      - 
        alternate_names: 
          - Horv
          - Horve
          - Hørv
          - Hørve
        ascii_name: Horve
        geonamesid: 2619844
        latitude: 55.75
        longitude: 11.46667
        name: Hørve
        names_en: ~
        names_es: ~
        population: 2382
        timezone: Europe/Copenhagen
      - 
        alternate_names: 
          - "Gmina Hong"
          - "Gmina Høng"
          - Hong
          - Høng
        ascii_name: Hong
        geonamesid: 2619882
        latitude: 55.51165
        longitude: 11.29032
        name: Høng
        names_en: 
          - Høng
        names_es: ~
        population: 3789
        timezone: Europe/Copenhagen
      - 
        alternate_names: 
          - "Gmina Holeby"
          - Holeby
        ascii_name: Holeby
        geonamesid: 2620134
        latitude: 54.71667
        longitude: 11.46667
        name: Holeby
        names_en: 
          - Holeby
        names_es: ~
        population: 1844
        timezone: Europe/Copenhagen
      - 
        alternate_names: 
          - Holbaek
          - Holbæk
          - Hollbaek
          - Hollbæk
        ascii_name: Holbaek
        geonamesid: 2620147
        latitude: 55.71667
        longitude: 11.71667
        name: Holbæk
        names_en: ~
        names_es: ~
        population: 24544
        timezone: Europe/Copenhagen
      - 
        alternate_names: ~
        ascii_name: Havdrup
        geonamesid: 2620664
        latitude: 55.53333
        longitude: 12.13333
        name: Havdrup
        names_en: ~
        names_es: ~
        population: 3828
        timezone: Europe/Copenhagen
      - 
        alternate_names: 
          - Khaslev
          - Хаслев
        ascii_name: Haslev
        geonamesid: 2620712
        latitude: 55.32346
        longitude: 11.96389
        name: Haslev
        names_en: ~
        names_es: ~
        population: 10588
        timezone: Europe/Copenhagen
      - 
        alternate_names: 
          - Haarlev
          - Harlev
          - Hårlev
        ascii_name: Harlev
        geonamesid: 2620751
        latitude: 55.35
        longitude: 12.25
        name: Hårlev
        names_en: ~
        names_es: ~
        population: 2423
        timezone: Europe/Copenhagen
      - 
        alternate_names: ~
        ascii_name: Gundsomagle
        geonamesid: 2620997
        latitude: 55.73333
        longitude: 12.16667
        name: Gundsømagle
        names_en: ~
        names_es: ~
        population: 2149
        timezone: Europe/Copenhagen
      - 
        alternate_names: ~
        ascii_name: Greve
        geonamesid: 2621215
        latitude: 55.58333
        longitude: 12.3
        name: Greve
        names_en: ~
        names_es: ~
        population: 47671
        timezone: Europe/Copenhagen
      - 
        alternate_names: 
          - Giorley
          - Gjorlev
          - Gjörlev
          - "Gmina Gorlev"
        ascii_name: Gorlev
        geonamesid: 2621304
        latitude: 55.53926
        longitude: 11.22708
        name: Gørlev
        names_en: 
          - Gørlev
        names_es: ~
        population: 2269
        timezone: Europe/Copenhagen
      - 
        alternate_names: 
          - Fuglebaerg
          - Fuglebjerg
          - Fuglebærg
          - "Gmina Fuglebjerg"
        ascii_name: Fuglebjerg
        geonamesid: 2621805
        latitude: 55.30604
        longitude: 11.54766
        name: Fuglebjerg
        names_en: 
          - Fuglebjerg
        names_es: ~
        population: 1985
        timezone: Europe/Copenhagen
      - 
        alternate_names: ~
        ascii_name: Frederiksberg
        geonamesid: 2621945
        latitude: 55.41667
        longitude: 11.56667
        name: Frederiksberg
        names_en: ~
        names_es: ~
        population: 3142
        timezone: Europe/Copenhagen
      - 
        alternate_names: ~
        ascii_name: Forlev
        geonamesid: 2622002
        latitude: 55.38333
        longitude: 11.28333
        name: Forlev
        names_en: ~
        names_es: ~
        population: 2058
        timezone: Europe/Copenhagen
      - 
        alternate_names: ~
        ascii_name: Fensmark
        geonamesid: 2622226
        latitude: 55.27919
        longitude: 11.80382
        name: Fensmark
        names_en: ~
        names_es: ~
        population: 4203
        timezone: Europe/Copenhagen
      - 
        alternate_names: 
          - "Fakse Ladeplads"
          - "Faxe Havn"
        ascii_name: "Fakse Ladeplads"
        geonamesid: 2622369
        latitude: 55.21667
        longitude: 12.18333
        name: "Fakse Ladeplads"
        names_en: ~
        names_es: ~
        population: 2837
        timezone: Europe/Copenhagen
      - 
        alternate_names: 
          - Fakse
          - Faxe
          - "Gmina Fakse"
          - Факсе
        ascii_name: Fakse
        geonamesid: 2622372
        latitude: 55.25
        longitude: 12.13333
        name: Fakse
        names_en: 
          - Fakse
        names_es: ~
        population: 3747
        timezone: Europe/Copenhagen
      - 
        alternate_names: ~
        ascii_name: Ejby
        geonamesid: 2622664
        latitude: 55.68333
        longitude: 11.86667
        name: Ejby
        names_en: ~
        names_es: ~
        population: 1987
        timezone: Europe/Copenhagen
      - 
        alternate_names: ~
        ascii_name: Ejby
        geonamesid: 2622665
        latitude: 55.48333
        longitude: 12.08333
        name: Ejby
        names_en: ~
        names_es: ~
        population: 2692
        timezone: Europe/Copenhagen
      - 
        alternate_names: ~
        ascii_name: Dianalund
        geonamesid: 2623028
        latitude: 55.53333
        longitude: 11.5
        name: Dianalund
        names_en: ~
        names_es: ~
        population: 3605
        timezone: Europe/Copenhagen
      - 
        alternate_names: ~
        ascii_name: Borup
        geonamesid: 2623628
        latitude: 55.5
        longitude: 11.98333
        name: Borup
        names_en: ~
        names_es: ~
        population: 3120
        timezone: Europe/Copenhagen
      - 
        alternate_names: 
          - Bjaeverskov
          - Bjeverskov
          - Bjæverskov
        ascii_name: Bjaeverskov
        geonamesid: 2623978
        latitude: 55.45
        longitude: 12.03333
        name: Bjæverskov
        names_en: ~
        names_es: ~
        population: 2618
        timezone: Europe/Copenhagen
      - 
        alternate_names: ~
        ascii_name: Asnaes
        geonamesid: 2624521
        latitude: 55.81667
        longitude: 11.51667
        name: Asnæs
        names_en: ~
        names_es: ~
        population: 2441
        timezone: Europe/Copenhagen
    geonamesid: 6418541
    name: Zealand
    names_en: 
      - Zealand
      - "Region Zealand"
    names_es: ~
  - 
    ascii_name: "South Denmark"
    cities: 
      - 
        alternate_names: 
          - Vojens
        ascii_name: Vojens
        geonamesid: 2610075
        latitude: 55.25
        longitude: 9.31667
        name: Vojens
        names_en: 
          - Vojens
        names_es: ~
        population: 8019
        timezone: Europe/Copenhagen
      - 
        alternate_names: 
          - Vissenbjerg
          - "Vissenbjerg Kirke"
        ascii_name: Vissenbjerg
        geonamesid: 2610140
        latitude: 55.38333
        longitude: 10.13333
        name: Vissenbjerg
        names_en: 
          - Vissenbjerg
        names_es: ~
        population: 3055
        timezone: Europe/Copenhagen
      - 
        alternate_names: ~
        ascii_name: Vindeby
        geonamesid: 2610207
        latitude: 55.05
        longitude: 10.63333
        name: Vindeby
        names_en: ~
        names_es: ~
        population: 2144
        timezone: Europe/Copenhagen
      - 
        alternate_names: 
          - Vajle
          - Vejle
          - Вайле
        ascii_name: Vejle
        geonamesid: 2610613
        latitude: 55.70927
        longitude: 9.5357
        name: Vejle
        names_en: 
          - Vejle
        names_es: ~
        population: 51177
        timezone: Europe/Copenhagen
      - 
        alternate_names: 
          - Vejen
        ascii_name: Vejen
        geonamesid: 2610634
        latitude: 55.48333
        longitude: 9.15
        name: Vejen
        names_en: 
          - Vejen
        names_es: ~
        population: 8525
        timezone: Europe/Copenhagen
      - 
        alternate_names: 
          - Varde
          - Варде
        ascii_name: Varde
        geonamesid: 2610726
        latitude: 55.62112
        longitude: 8.48069
        name: Varde
        names_en: 
          - Varde
        names_es: ~
        population: 12735
        timezone: Europe/Copenhagen
      - 
        alternate_names: 
          - Vamdrup
        ascii_name: Vamdrup
        geonamesid: 2610760
        latitude: 55.41667
        longitude: 9.28333
        name: Vamdrup
        names_en: ~
        names_es: ~
        population: 4685
        timezone: Europe/Copenhagen
      - 
        alternate_names: ~
        ascii_name: Ullerslev
        geonamesid: 2610942
        latitude: 55.36667
        longitude: 10.66667
        name: Ullerslev
        names_en: ~
        names_es: ~
        population: 2962
        timezone: Europe/Copenhagen
      - 
        alternate_names: 
          - Tonder
          - Tondern
          - Tuner
          - Tynne
        ascii_name: Tonder
        geonamesid: 2611497
        latitude: 54.93306
        longitude: 8.86674
        name: Tønder
        names_en: 
          - Tønder
        names_es: ~
        population: 7841
        timezone: Europe/Copenhagen
      - 
        alternate_names: ~
        ascii_name: Tommerup
        geonamesid: 2611520
        latitude: 55.31667
        longitude: 10.21667
        name: Tommerup
        names_en: ~
        names_es: ~
        population: 2072
        timezone: Europe/Copenhagen
      - 
        alternate_names: ~
        ascii_name: Toftlund
        geonamesid: 2611565
        latitude: 55.18333
        longitude: 9.06667
        name: Toftlund
        names_en: ~
        names_es: ~
        population: 3438
        timezone: Europe/Copenhagen
      - 
        alternate_names: ~
        ascii_name: Tjaereborg
        geonamesid: 2611610
        latitude: 55.46667
        longitude: 8.58333
        name: Tjæreborg
        names_en: ~
        names_es: ~
        population: 2146
        timezone: Europe/Copenhagen
      - 
        alternate_names: 
          - Tinglev
        ascii_name: Tinglev
        geonamesid: 2611684
        latitude: 54.93333
        longitude: 9.25
        name: Tinglev
        names_en: 
          - Tinglev
        names_es: ~
        population: 2829
        timezone: Europe/Copenhagen
      - 
        alternate_names: 
          - Thuro
          - "Thuro By"
          - Thurø
          - "Thurø By"
        ascii_name: "Thuro By"
        geonamesid: 2611742
        latitude: 55.05
        longitude: 10.66667
        name: "Thurø By"
        names_en: ~
        names_es: ~
        population: 3350
        timezone: Europe/Copenhagen
      - 
        alternate_names: 
          - Tavlov
          - "Tavlov Nebel"
        ascii_name: Taulov
        geonamesid: 2611817
        latitude: 55.54582
        longitude: 9.61553
        name: Taulov
        names_en: ~
        names_es: ~
        population: 2898
        timezone: Europe/Copenhagen
      - 
        alternate_names: 
          - Svenborg
          - Svendborg
          - Svennborge
          - Свеннборге
        ascii_name: Svendborg
        geonamesid: 2612045
        latitude: 55.05982
        longitude: 10.60677
        name: Svendborg
        names_en: 
          - Svendborg
        names_es: ~
        population: 27553
        timezone: Europe/Copenhagen
      - 
        alternate_names: 
          - Strib
          - Стриб
        ascii_name: Strib
        geonamesid: 2612224
        latitude: 55.53333
        longitude: 9.78333
        name: Strib
        names_en: ~
        names_es: ~
        population: 4339
        timezone: Europe/Copenhagen
      - 
        alternate_names: ~
        ascii_name: Stige
        geonamesid: 2612552
        latitude: 55.43333
        longitude: 10.41667
        name: Stige
        names_en: ~
        names_es: ~
        population: 2182
        timezone: Europe/Copenhagen
      - 
        alternate_names: ~
        ascii_name: Starup
        geonamesid: 2612730
        latitude: 55.23333
        longitude: 9.53333
        name: Starup
        names_en: ~
        names_es: ~
        population: 2091
        timezone: Europe/Copenhagen
      - 
        alternate_names: 
          - Sonderse
          - Sonderso
          - Sönderse
          - Søndersø
        ascii_name: Sonderso
        geonamesid: 2612955
        latitude: 55.48333
        longitude: 10.26667
        name: Søndersø
        names_en: ~
        names_es: ~
        population: 2850
        timezone: Europe/Copenhagen
      - 
        alternate_names: 
          - Sjonnenborg
          - Sonderborg
          - Sonderburg
          - Synneborre
        ascii_name: Sonderborg
        geonamesid: 2613102
        latitude: 54.90926
        longitude: 9.80737
        name: Sønderborg
        names_en: 
          - Sønderborg
        names_es: ~
        population: 27033
        timezone: Europe/Copenhagen
      - 
        alternate_names: 
          - Bjaert
          - Bjært
          - "Sonder Bjert"
          - "Sønder Bjert"
        ascii_name: "Sonder Bjert"
        geonamesid: 2613106
        latitude: 55.45
        longitude: 9.56667
        name: "Sønder Bjert"
        names_en: ~
        names_es: ~
        population: 1815
        timezone: Europe/Copenhagen
      - 
        alternate_names: 
          - Snoghoj
          - Snoghøj
        ascii_name: Snoghoj
        geonamesid: 2613293
        latitude: 55.51667
        longitude: 9.71667
        name: Snoghøj
        names_en: ~
        names_es: ~
        population: 2371
        timezone: Europe/Copenhagen
      - 
        alternate_names: 
          - Sherrebek
          - Skaerbaek
          - Skærbæk
        ascii_name: Sherrebek
        geonamesid: 2613539
        latitude: 55.15
        longitude: 8.76667
        name: Sherrebek
        names_en: ~
        names_es: ~
        population: 3174
        timezone: Europe/Copenhagen
      - 
        alternate_names: ~
        ascii_name: Seden
        geonamesid: 2614135
        latitude: 55.41667
        longitude: 10.45
        name: Seden
        names_en: ~
        names_es: ~
        population: 3350
        timezone: Europe/Copenhagen
      - 
        alternate_names: 
          - Rudkiobing
          - Rudkjobing
          - Rudkjöbing
          - Rudkobing
        ascii_name: Rudkobing
        geonamesid: 2614432
        latitude: 54.93639
        longitude: 10.71019
        name: Rudkøbing
        names_en: 
          - Rudkøbing
        names_es: ~
        population: 4666
        timezone: Europe/Copenhagen
      - 
        alternate_names: 
          - "Gmina Rodekro"
          - "Gmina Rødekro"
          - Rodekro
          - Rødekro
        ascii_name: Rodekro
        geonamesid: 2614611
        latitude: 55.06667
        longitude: 9.35
        name: Rødekro
        names_en: 
          - Rødekro
        names_es: ~
        population: 5452
        timezone: Europe/Copenhagen
      - 
        alternate_names: ~
        ascii_name: Rodding
        geonamesid: 2614623
        latitude: 55.36667
        longitude: 9.06667
        name: Rødding
        names_en: ~
        names_es: ~
        population: 2769
        timezone: Europe/Copenhagen
      - 
        alternate_names: ~
        ascii_name: Ringe
        geonamesid: 2614790
        latitude: 55.23333
        longitude: 10.48333
        name: Ringe
        names_en: ~
        names_es: ~
        population: 4849
        timezone: Europe/Copenhagen
      - 
        alternate_names: 
          - Ribe
          - Рибе
        ascii_name: Ribe
        geonamesid: 2614813
        latitude: 55.33051
        longitude: 8.76966
        name: Ribe
        names_en: 
          - Ribe
        names_es: 
          - Ribe
        population: 7983
        timezone: Europe/Copenhagen
      - 
        alternate_names: 
          - Padborg
          - Падборг
        ascii_name: Padborg
        geonamesid: 2615242
        latitude: 54.81667
        longitude: 9.36667
        name: Padborg
        names_en: ~
        names_es: ~
        population: 4684
        timezone: Europe/Copenhagen
      - 
        alternate_names: 
          - Otterup
        ascii_name: Otterup
        geonamesid: 2615351
        latitude: 55.51667
        longitude: 10.4
        name: Otterup
        names_en: ~
        names_es: ~
        population: 4522
        timezone: Europe/Copenhagen
      - 
        alternate_names: 
          - "Gmina Olgod"
          - "Gmina Ølgod"
          - OElgod
          - Olgod
        ascii_name: Olgod
        geonamesid: 2615749
        latitude: 55.81667
        longitude: 8.61667
        name: Ølgod
        names_en: 
          - Ølgod
        names_es: ~
        population: 3891
        timezone: Europe/Copenhagen
      - 
        alternate_names: 
          - Oksbol
          - Oksbøl
          - Oxbol
          - Oxbøl
        ascii_name: Oksbol
        geonamesid: 2615859
        latitude: 55.63333
        longitude: 8.28333
        name: Oksbøl
        names_en: ~
        names_es: ~
        population: 2845
        timezone: Europe/Copenhagen
      - 
        alternate_names: 
          - Odense
          - Odenze
          - awdnsh
          - odense
        ascii_name: Odense
        geonamesid: 2615876
        latitude: 55.39594
        longitude: 10.38831
        name: Odense
        names_en: 
          - Odense
        names_es: 
          - Odense
        population: 145931
        timezone: Europe/Copenhagen
      - 
        alternate_names: 
          - Nyborg
        ascii_name: Nyborg
        geonamesid: 2616015
        latitude: 55.31274
        longitude: 10.78964
        name: Nyborg
        names_en: 
          - Nyborg
        names_es: ~
        population: 15826
        timezone: Europe/Copenhagen
      - 
        alternate_names: 
          - Nordby
          - Odden
        ascii_name: Nordby
        geonamesid: 2616172
        latitude: 55.45
        longitude: 8.41667
        name: Nordby
        names_en: ~
        names_es: ~
        population: 2512
        timezone: Europe/Copenhagen
      - 
        alternate_names: 
          - "Gmina Nordborg"
          - Nordborg
          - Nordburg
        ascii_name: Nordborg
        geonamesid: 2616176
        latitude: 55.05
        longitude: 9.75
        name: Nordborg
        names_en: 
          - Nordborg
        names_es: ~
        population: 7406
        timezone: Europe/Copenhagen
      - 
        alternate_names: 
          - "Norre Aaby"
          - "Norre Aby"
          - "Nørre Aaby"
          - "Nørre Åby"
        ascii_name: "Norre Aby"
        geonamesid: 2616368
        latitude: 55.45
        longitude: 9.9
        name: "Nørre Åby"
        names_en: ~
        names_es: ~
        population: 2678
        timezone: Europe/Copenhagen
      - 
        alternate_names: ~
        ascii_name: "Neder Holluf"
        geonamesid: 2616540
        latitude: 55.35
        longitude: 10.45
        name: "Neder Holluf"
        names_en: ~
        names_es: ~
        population: 5612
        timezone: Europe/Copenhagen
      - 
        alternate_names: 
          - Munkebo
        ascii_name: Munkebo
        geonamesid: 2616672
        latitude: 55.45
        longitude: 10.56667
        name: Munkebo
        names_en: ~
        names_es: ~
        population: 5225
        timezone: Europe/Copenhagen
      - 
        alternate_names: 
          - Middel'fart
          - Миддельфарт
        ascii_name: Middelfart
        geonamesid: 2616933
        latitude: 55.50591
        longitude: 9.73054
        name: Middelfart
        names_en: ~
        names_es: ~
        population: 13596
        timezone: Europe/Copenhagen
      - 
        alternate_names: 
          - Marstal
          - Marstal'
          - Марсталь
        ascii_name: Marstal
        geonamesid: 2617030
        latitude: 54.85
        longitude: 10.51667
        name: Marstal
        names_en: ~
        names_es: ~
        population: 2265
        timezone: Europe/Copenhagen
      - 
        alternate_names: ~
        ascii_name: Lunderskov
        geonamesid: 2617312
        latitude: 55.48333
        longitude: 9.3
        name: Lunderskov
        names_en: ~
        names_es: ~
        population: 2687
        timezone: Europe/Copenhagen
      - 
        alternate_names: 
          - Loitkirkeby
          - Lojt
          - "Lojt Kirkeby"
          - Löjt
        ascii_name: "Lojt Kirkeby"
        geonamesid: 2617450
        latitude: 55.08333
        longitude: 9.46667
        name: "Løjt Kirkeby"
        names_en: ~
        names_es: ~
        population: 1975
        timezone: Europe/Copenhagen
      - 
        alternate_names: 
          - "Gmina Logumkloster"
          - "Gmina Løgumkloster"
          - Loegumkloster
          - Logumkloster
        ascii_name: Logumkloster
        geonamesid: 2617457
        latitude: 55.05
        longitude: 8.95
        name: Løgumkloster
        names_en: 
          - Løgumkloster
        names_es: ~
        population: 3056
        timezone: Europe/Copenhagen
      - 
        alternate_names: 
          - Langeskov
        ascii_name: Langeskov
        geonamesid: 2617936
        latitude: 55.36667
        longitude: 10.6
        name: Langeskov
        names_en: ~
        names_es: ~
        population: 3713
        timezone: Europe/Copenhagen
      - 
        alternate_names: 
          - Krusa
          - Krusaa
          - Kruså
        ascii_name: Krusa
        geonamesid: 2618148
        latitude: 54.85
        longitude: 9.41667
        name: Kruså
        names_en: ~
        names_es: ~
        population: 1694
        timezone: Europe/Copenhagen
      - 
        alternate_names: 
          - Kolding
          - Koldingo
          - Kolinga
          - Колдинг
        ascii_name: Kolding
        geonamesid: 2618528
        latitude: 55.4904
        longitude: 9.47216
        name: Kolding
        names_en: 
          - Kolding
        names_es: ~
        population: 55363
        timezone: Europe/Copenhagen
      - 
        alternate_names: 
          - Kierteminde
          - Kjerteminde
        ascii_name: Kerteminde
        geonamesid: 2618944
        latitude: 55.44903
        longitude: 10.65769
        name: Kerteminde
        names_en: ~
        names_es: ~
        population: 5748
        timezone: Europe/Copenhagen
      - 
        alternate_names: 
          - Elling
          - Gravhoegarna
          - Gravhögarna
          - Jelling
        ascii_name: Jelling
        geonamesid: 2619340
        latitude: 55.75
        longitude: 9.43333
        name: Jelling
        names_en: 
          - Jelling
        names_es: ~
        population: 3059
        timezone: Europe/Copenhagen
      - 
        alternate_names: ~
        ascii_name: Horuphav
        geonamesid: 2619845
        latitude: 54.91667
        longitude: 9.9
        name: Høruphav
        names_en: ~
        names_es: ~
        population: 2514
        timezone: Europe/Copenhagen
      - 
        alternate_names: ~
        ascii_name: Hojby
        geonamesid: 2619967
        latitude: 55.33333
        longitude: 10.45
        name: Højby
        names_en: ~
        names_es: ~
        population: 4406
        timezone: Europe/Copenhagen
      - 
        alternate_names: ~
        ascii_name: Holsted
        geonamesid: 2620042
        latitude: 55.5
        longitude: 8.91667
        name: Holsted
        names_en: ~
        names_es: ~
        population: 3096
        timezone: Europe/Copenhagen
      - 
        alternate_names: 
          - Haarby
          - Harby
          - Hårby
        ascii_name: Harby
        geonamesid: 2620765
        latitude: 55.21667
        longitude: 10.11667
        name: Hårby
        names_en: ~
        names_es: ~
        population: 2400
        timezone: Europe/Copenhagen
      - 
        alternate_names: 
          - Hadersleben
          - Haderslev
          - Haderslevo
          - Khaderslev
        ascii_name: Haderslev
        geonamesid: 2620964
        latitude: 55.25377
        longitude: 9.48982
        name: Haderslev
        names_en: 
          - Haderslev
        names_es: ~
        population: 20825
        timezone: Europe/Copenhagen
      - 
        alternate_names: ~
        ascii_name: Guderup
        geonamesid: 2621072
        latitude: 54.98333
        longitude: 9.88333
        name: Guderup
        names_en: ~
        names_es: ~
        population: 2424
        timezone: Europe/Copenhagen
      - 
        alternate_names: ~
        ascii_name: Grindsted
        geonamesid: 2621193
        latitude: 55.75
        longitude: 8.93333
        name: Grindsted
        names_en: ~
        names_es: ~
        population: 9414
        timezone: Europe/Copenhagen
      - 
        alternate_names: 
          - "Gmina Grasten"
          - "Gmina Gråsten"
          - Graasten
          - Grasten
        ascii_name: Grasten
        geonamesid: 2621258
        latitude: 54.91667
        longitude: 9.6
        name: Gråsten
        names_en: 
          - Gråsten
        names_es: ~
        population: 4022
        timezone: Europe/Copenhagen
      - 
        alternate_names: ~
        ascii_name: Gram
        geonamesid: 2621279
        latitude: 55.28948
        longitude: 9.04913
        name: Gram
        names_en: ~
        names_es: ~
        population: 2548
        timezone: Europe/Copenhagen
      - 
        alternate_names: 
          - Glamsbjaerg
          - Glamsbjerg
          - Glamsbjærg
          - "Gmina Glamsbjerg"
        ascii_name: Glamsbjerg
        geonamesid: 2621393
        latitude: 55.26667
        longitude: 10.11667
        name: Glamsbjerg
        names_en: 
          - Glamsbjerg
        names_es: ~
        population: 3099
        timezone: Europe/Copenhagen
      - 
        alternate_names: 
          - Give
        ascii_name: Give
        geonamesid: 2621448
        latitude: 55.85
        longitude: 9.25
        name: Give
        names_en: ~
        names_es: ~
        population: 4240
        timezone: Europe/Copenhagen
      - 
        alternate_names: 
          - Fredericia
          - Frederisija
          - Фредерисия
        ascii_name: Fredericia
        geonamesid: 2621951
        latitude: 55.56568
        longitude: 9.75257
        name: Fredericia
        names_en: 
          - Fredericia
        names_es: ~
        population: 36946
        timezone: Europe/Copenhagen
      - 
        alternate_names: 
          - Fabberg
          - Faborg
          - Fåborg
        ascii_name: Faaborg
        geonamesid: 2622383
        latitude: 55.0951
        longitude: 10.24226
        name: Faaborg
        names_en: ~
        names_es: ~
        population: 7239
        timezone: Europe/Copenhagen
      - 
        alternate_names: 
          - Ehsberg
          - Esbjaerg
          - Esbjerg
          - Esbjerga
        ascii_name: Esbjerg
        geonamesid: 2622447
        latitude: 55.46667
        longitude: 8.45
        name: Esbjerg
        names_en: 
          - Esbjerg
        names_es: ~
        population: 72205
        timezone: Europe/Copenhagen
      - 
        alternate_names: 
          - Egby
          - Ejby
          - "Gammel Ejby"
        ascii_name: Ejby
        geonamesid: 2622666
        latitude: 55.43333
        longitude: 9.95
        name: Ejby
        names_en: ~
        names_es: ~
        population: 1996
        timezone: Europe/Copenhagen
      - 
        alternate_names: 
          - Egtved
          - "Gmina Egtved"
        ascii_name: Egtved
        geonamesid: 2622686
        latitude: 55.61667
        longitude: 9.3
        name: Egtved
        names_en: 
          - Egtved
        names_es: ~
        population: 2151
        timezone: Europe/Copenhagen
      - 
        alternate_names: ~
        ascii_name: Dybbol
        geonamesid: 2622854
        latitude: 54.91667
        longitude: 9.75
        name: Dybbøl
        names_en: ~
        names_es: ~
        population: 2303
        timezone: Europe/Copenhagen
      - 
        alternate_names: 
          - Christiansfeld
          - "Gmina Christiansfeld"
        ascii_name: Christiansfeld
        geonamesid: 2623183
        latitude: 55.35
        longitude: 9.48333
        name: Christiansfeld
        names_en: 
          - Christiansfeld
        names_es: ~
        population: 2709
        timezone: Europe/Copenhagen
      - 
        alternate_names: ~
        ascii_name: Bullerup
        geonamesid: 2623247
        latitude: 55.43333
        longitude: 10.48333
        name: Bullerup
        names_en: ~
        names_es: ~
        population: 2982
        timezone: Europe/Copenhagen
      - 
        alternate_names: ~
        ascii_name: Brorup
        geonamesid: 2623321
        latitude: 55.48333
        longitude: 9.01667
        name: Brørup
        names_en: ~
        names_es: ~
        population: 4233
        timezone: Europe/Copenhagen
      - 
        alternate_names: 
          - Broacker
          - Broager
          - "Broager Sogn"
          - "Gmina Broager"
        ascii_name: Broager
        geonamesid: 2623394
        latitude: 54.88333
        longitude: 9.68333
        name: Broager
        names_en: 
