--- 
geonamesid: 3658394
iso: EC
name: Ecuador
names_en: 
  - Ecuador
  - "Republic of Ecuador"
names_es: 
  - Ecuador
  - "República del Ecuador"
regions: 
  - 
    ascii_name: "Provincia de Zamora Chinchipe"
    cities: 
      - 
        alternate_names: ~
        ascii_name: Zamora
        geonamesid: 3649959
        latitude: -4.06917
        longitude: -78.95667
        name: Zamora
        names_en: ~
        names_es: ~
        population: 15276
        timezone: America/Guayaquil
      - 
        alternate_names: ~
        ascii_name: Yantzaza
        geonamesid: 3650053
        latitude: -3.82778
        longitude: -78.75944
        name: Yantzaza
        names_en: ~
        names_es: ~
        population: 9970
        timezone: America/Guayaquil
    geonamesid: 3649953
    name: Zamora-Chinchipe
    names_en: ~
    names_es: ~
  - 
    ascii_name: "Provincia del Tungurahua"
    cities: 
      - 
        alternate_names: 
          - Pillaro
          - Píllaro
        ascii_name: Pillaro
        geonamesid: 3653159
        latitude: -1.16667
        longitude: -78.53333
        name: Píllaro
        names_en: ~
        names_es: ~
        population: 7462
        timezone: America/Guayaquil
      - 
        alternate_names: ~
        ascii_name: Pelileo
        geonamesid: 3653287
        latitude: -1.31667
        longitude: -78.53333
        name: Pelileo
        names_en: ~
        names_es: ~
        population: 16572
        timezone: America/Guayaquil
      - 
        alternate_names: 
          - Banos
          - Baños
        ascii_name: Banos
        geonamesid: 3660346
        latitude: -1.4
        longitude: -78.41667
        name: Baños
        names_en: ~
        names_es: ~
        population: 9501
        timezone: America/Guayaquil
      - 
        alternate_names: 
          - Ambato
          - "San Juan de Ambato"
          - Амбато
        ascii_name: Ambato
        geonamesid: 3660689
        latitude: -1.24908
        longitude: -78.61675
        name: Ambato
        names_en: 
          - Ambato
          - "San Juan de Ambato"
        names_es: 
          - Ambato
        population: 154369
        timezone: America/Guayaquil
    geonamesid: 3650445
    name: Tungurahua
    names_en: ~
    names_es: ~
  - 
    ascii_name: "Provincia de Pichincha"
    cities: 
      - 
        alternate_names: 
          - "Santo Domingo"
          - "Santo Domingo de los Colorados"
          - Santo-Domingo-de-los-Kolorados
          - Санто-Доминго-де-лос-Колорадос
        ascii_name: "Santo Domingo de los Colorados"
        geonamesid: 3651297
        latitude: -0.25
        longitude: -79.15
        name: "Santo Domingo de los Colorados"
        names_en: 
          - "Santo Domingo de los Colorados"
        names_es: 
          - "Santo Domingo de los Colorados"
        population: 200421
        timezone: America/Guayaquil
      - 
        alternate_names: ~
        ascii_name: Sangolqui
        geonamesid: 3651857
        latitude: -0.33405
        longitude: -78.45217
        name: Sangolquí
        names_en: ~
        names_es: ~
        population: 5114
        timezone: America/Guayaquil
      - 
        alternate_names: 
          - Kita
          - Kitas
          - Kito
          - Kitu
        ascii_name: Quito
        geonamesid: 3652462
        latitude: -0.22985
        longitude: -78.52495
        name: Quito
        names_en: 
          - Quito
        names_es: 
          - Quito
        population: 1399814
        timezone: America/Guayaquil
      - 
        alternate_names: 
          - "Ciudad de Machachi"
          - Machache
          - Machachi
        ascii_name: Machachi
        geonamesid: 3654536
        latitude: -0.5
        longitude: -78.56667
        name: Machachi
        names_en: ~
        names_es: ~
        population: 25742
        timezone: America/Guayaquil
      - 
        alternate_names: 
          - Cayambe
          - Kajambe
          - Каямбе
        ascii_name: Cayambe
        geonamesid: 3659578
        latitude: 0.05
        longitude: -78.13333
        name: Cayambe
        names_en: ~
        names_es: ~
        population: 26582
        timezone: America/Guayaquil
    geonamesid: 3653224
    name: Pichincha
    names_en: ~
    names_es: ~
  - 
    ascii_name: "Provincia del Pastaza"
    cities: 
      - 
        alternate_names: 
          - "El Puyo"
          - Pujo
          - Puyo
          - Пуйо
        ascii_name: Puyo
        geonamesid: 3652584
        latitude: -1.46667
        longitude: -77.98333
        name: Puyo
        names_en: ~
        names_es: ~
        population: 24881
        timezone: America/Guayaquil
    geonamesid: 3653392
    name: Pastaza
    names_en: ~
    names_es: ~
  - 
    ascii_name: "Provincia de Napo"
    cities: 
      - 
        alternate_names: 
          - Napo
          - "San Juan de Tena"
          - Tena
        ascii_name: Tena
        geonamesid: 3650721
        latitude: -0.98333
        longitude: -77.81667
        name: Tena
        names_en: ~
        names_es: ~
        population: 17172
        timezone: America/Guayaquil
      - 
        alternate_names: ~
        ascii_name: Archidona
        geonamesid: 3660573
        latitude: -0.91667
        longitude: -77.8
        name: Archidona
        names_en: ~
        names_es: ~
        population: 7309
        timezone: America/Guayaquil
    geonamesid: 3653890
    name: Napo
    names_en: ~
    names_es: ~
  - 
    ascii_name: "Provincia de Morona Santiago"
    cities: 
      - 
        alternate_names: ~
        ascii_name: Sucua
        geonamesid: 3650956
        latitude: -2.46667
        longitude: -78.16667
        name: Sucúa
        names_en: ~
        names_es: ~
        population: 7413
        timezone: America/Guayaquil
      - 
        alternate_names: 
          - Metzera
          - Palora
        ascii_name: Palora
        geonamesid: 3653523
        latitude: -1.7
        longitude: -77.93333
        name: Palora
        names_en: ~
        names_es: ~
        population: 6472
        timezone: America/Guayaquil
      - 
        alternate_names: ~
        ascii_name: Macas
        geonamesid: 3654541
        latitude: -2.31667
        longitude: -78.11667
        name: Macas
        names_en: ~
        names_es: ~
        population: 23687
        timezone: America/Guayaquil
      - 
        alternate_names: 
          - Gualaquiza
          - Gualiquiza
          - Santiago
        ascii_name: Gualaquiza
        geonamesid: 3657661
        latitude: -3.4
        longitude: -78.55
        name: Gualaquiza
        names_en: ~
        names_es: ~
        population: 4611
        timezone: America/Guayaquil
    geonamesid: 3654005
    name: Morona-Santiago
    names_en: ~
    names_es: ~
  - 
    ascii_name: "Provincia de Manabi"
    cities: 
      - 
        alternate_names: 
          - Tosagua
        ascii_name: Tosagua
        geonamesid: 3650554
        latitude: -0.78333
        longitude: -80.25
        name: Tosagua
        names_en: ~
        names_es: ~
        population: 14680
        timezone: America/Guayaquil
      - 
        alternate_names: ~
        ascii_name: Sucre
        geonamesid: 3650960
        latitude: -1.26667
        longitude: -80.43333
        name: Sucre
        names_en: ~
        names_es: ~
        population: 15286
        timezone: America/Guayaquil
      - 
        alternate_names: ~
        ascii_name: "Santa Ana"
        geonamesid: 3651495
        latitude: -1.21667
        longitude: -80.38333
        name: "Santa Ana"
        names_en: ~
        names_es: ~
        population: 12833
        timezone: America/Guayaquil
      - 
        alternate_names: ~
        ascii_name: Rocafuerte
        geonamesid: 3652315
        latitude: -0.91667
        longitude: -80.43333
        name: Rocafuerte
        names_en: ~
        names_es: ~
        population: 10274
        timezone: America/Guayaquil
      - 
        alternate_names: 
          - Portov'ekho
          - Portoviejo
          - Портовьехо
        ascii_name: Portoviejo
        geonamesid: 3652941
        latitude: -1.05
        longitude: -80.45
        name: Portoviejo
        names_en: ~
        names_es: ~
        population: 170326
        timezone: America/Guayaquil
      - 
        alternate_names: ~
        ascii_name: Pedernales
        geonamesid: 3653307
        latitude: 0.08333
        longitude: -80.05
        name: Pedernales
        names_en: ~
        names_es: ~
        population: 5983
        timezone: America/Guayaquil
      - 
        alternate_names: ~
        ascii_name: Pajan
        geonamesid: 3653609
        latitude: -1.56667
        longitude: -80.41667
        name: Paján
        names_en: ~
        names_es: ~
        population: 9183
        timezone: America/Guayaquil
      - 
        alternate_names: ~
        ascii_name: Montecristi
        geonamesid: 3654055
        latitude: -1.05
        longitude: -80.66667
        name: Montecristi
        names_en: ~
        names_es: ~
        population: 18351
        timezone: America/Guayaquil
      - 
        alternate_names: 
          - Manta
          - "Manta Ecuador"
          - "Puerto de Manta"
          - Манта
        ascii_name: Manta
        geonamesid: 3654410
        latitude: -0.95
        longitude: -80.73333
        name: Manta
        names_en: 
          - Manta
        names_es: 
          - Manta
        population: 183166
        timezone: America/Guayaquil
      - 
        alternate_names: ~
        ascii_name: Junin
        geonamesid: 3655385
        latitude: -0.93333
        longitude: -80.21667
        name: Junín
        names_en: ~
        names_es: ~
        population: 9128
        timezone: America/Guayaquil
      - 
        alternate_names: ~
        ascii_name: Jipijapa
        geonamesid: 3655446
        latitude: -1.33333
        longitude: -80.58333
        name: Jipijapa
        names_en: ~
        names_es: ~
        population: 35901
        timezone: America/Guayaquil
      - 
        alternate_names: 
          - Chone
        ascii_name: Chone
        geonamesid: 3659139
        latitude: -0.68333
        longitude: -80.1
        name: Chone
        names_en: ~
        names_es: ~
        population: 44751
        timezone: America/Guayaquil
      - 
        alternate_names: 
          - Bolivar
          - Bolívar
          - Calceta
        ascii_name: Calceta
        geonamesid: 3659926
        latitude: -0.85
        longitude: -80.16667
        name: Calceta
        names_en: ~
        names_es: ~
        population: 17286
        timezone: America/Guayaquil
      - 
        alternate_names: 
          - Bahia
          - "Bahia de Caraques"
          - "Bahia de Caraquez"
          - "Bahia de Caráques"
        ascii_name: "Bahia de Caraquez"
        geonamesid: 3660401
        latitude: -0.6
        longitude: -80.41667
        name: "Bahía de Caráquez"
        names_en: ~
        names_es: ~
        population: 37056
        timezone: America/Guayaquil
    geonamesid: 3654451
    name: Manabí
    names_en: ~
    names_es: ~
  - 
    ascii_name: "Provincia de Los Rios"
    cities: 
      - 
        alternate_names: 
          - Vinces
        ascii_name: Vinces
        geonamesid: 3650186
        latitude: -1.55
        longitude: -79.73333
        name: Vinces
        names_en: ~
        names_es: ~
        population: 32497
        timezone: America/Guayaquil
      - 
        alternate_names: ~
        ascii_name: Ventanas
        geonamesid: 3650267
        latitude: -1.45
        longitude: -79.46667
        name: Ventanas
        names_en: ~
        names_es: ~
        population: 46708
        timezone: America/Guayaquil
      - 
        alternate_names: ~
        ascii_name: Quevedo
        geonamesid: 3652567
        latitude: -1.03333
        longitude: -79.45
        name: Quevedo
        names_en: ~
        names_es: ~
        population: 119436
        timezone: America/Guayaquil
      - 
        alternate_names: ~
        ascii_name: Palenque
        geonamesid: 3653587
        latitude: -1.45
        longitude: -79.73333
        name: Palenque
        names_en: ~
        names_es: ~
        population: 9083
        timezone: America/Guayaquil
      - 
        alternate_names: ~
        ascii_name: Montalvo
        geonamesid: 3654064
        latitude: -1.8
        longitude: -79.33333
        name: Montalvo
        names_en: ~
        names_es: ~
        population: 15547
        timezone: America/Guayaquil
      - 
        alternate_names: 
          - Catarama
          - Urdaneta
        ascii_name: Catarama
        geonamesid: 3659592
        latitude: -1.58333
        longitude: -79.46667
        name: Catarama
        names_en: ~
        names_es: ~
        population: 9723
        timezone: America/Guayaquil
      - 
        alternate_names: 
          - Babahoya
          - Babahoyo
        ascii_name: Babahoyo
        geonamesid: 3660418
        latitude: -1.81667
        longitude: -79.51667
        name: Babahoyo
        names_en: 
          - Babahoyo
        names_es: ~
        population: 76279
        timezone: America/Guayaquil
    geonamesid: 3654592
    name: "Los Ríos"
    names_en: ~
    names_es: ~
  - 
    ascii_name: "Provincia de Loja"
    cities: 
      - 
        alternate_names: ~
        ascii_name: Macara
        geonamesid: 3654545
        latitude: -4.38333
        longitude: -79.95
        name: Macará
        names_en: ~
        names_es: ~
        population: 13035
        timezone: America/Guayaquil
      - 
        alternate_names: 
          - Loja
          - Lokha
          - Лоха
        ascii_name: Loja
        geonamesid: 3654667
        latitude: -3.99313
        longitude: -79.20422
        name: Loja
        names_en: 
          - Loja
        names_es: 
          - Loja
        population: 117796
        timezone: America/Guayaquil
      - 
        alternate_names: ~
        ascii_name: Celica
        geonamesid: 3659544
        latitude: -4.11667
        longitude: -79.95
        name: Celica
        names_en: ~
        names_es: ~
        population: 5499
        timezone: America/Guayaquil
      - 
        alternate_names: 
          - Catamayo
          - "La Toma"
        ascii_name: Catamayo
        geonamesid: 3659599
        latitude: -3.98333
        longitude: -79.35
        name: Catamayo
        names_en: ~
        names_es: ~
        population: 18565
        timezone: America/Guayaquil
      - 
        alternate_names: ~
        ascii_name: Catacocha
        geonamesid: 3659602
        latitude: -4.06667
        longitude: -79.63333
        name: Catacocha
        names_en: ~
        names_es: ~
        population: 10872
        timezone: America/Guayaquil
      - 
        alternate_names: 
          - Calvas
          - Cariamanga
        ascii_name: Cariamanga
        geonamesid: 3659711
        latitude: -4.33333
        longitude: -79.55
        name: Cariamanga
        names_en: ~
        names_es: ~
        population: 16862
        timezone: America/Guayaquil
    geonamesid: 3654665
    name: Loja
    names_en: ~
    names_es: ~
  - 
    ascii_name: "Provincia de Imbabura"
    cities: 
      - 
        alternate_names: 
          - Pimampiro
          - Pimanpiro
        ascii_name: Pimampiro
        geonamesid: 3653146
        latitude: 0.4
        longitude: -77.96667
        name: Pimampiro
        names_en: ~
        names_es: ~
        population: 7408
        timezone: America/Guayaquil
      - 
        alternate_names: 
          - Otavalo
          - Otovalo
          - Отавало
        ascii_name: Otavalo
        geonamesid: 3653693
        latitude: 0.23333
        longitude: -78.26667
        name: Otavalo
        names_en: 
          - Otavalo
        names_es: 
          - Otavalo
        population: 32330
        timezone: America/Guayaquil
      - 
        alternate_names: 
          - Ibarra
          - Ибарра
        ascii_name: Ibarra
        geonamesid: 3655673
        latitude: 0.35
        longitude: -78.11667
        name: Ibarra
        names_en: 
          - Ibarra
        names_es: ~
        population: 108666
        timezone: America/Guayaquil
      - 
        alternate_names: 
          - Cotacachi
        ascii_name: Cotacachi
        geonamesid: 3658781
        latitude: 0.3
        longitude: -78.26667
        name: Cotacachi
        names_en: ~
        names_es: ~
        population: 8238
        timezone: America/Guayaquil
      - 
        alternate_names: ~
        ascii_name: Atuntaqui
        geonamesid: 3660478
        latitude: 0.33333
        longitude: -78.21667
        name: Atuntaqui
        names_en: ~
        names_es: ~
        population: 17456
        timezone: America/Guayaquil
    geonamesid: 3655635
    name: Imbabura
    names_en: ~
    names_es: ~
  - 
    ascii_name: "Provincia del Guayas"
    cities: 
      - 
        alternate_names: 
          - Yaguachi
          - "Yaguachi Nuevo"
        ascii_name: Yaguachi
        geonamesid: 3650121
        latitude: -2.11667
        longitude: -79.68333
        name: Yaguachi
        names_en: ~
        names_es: ~
        population: 27947
        timezone: America/Guayaquil
      - 
        alternate_names: 
          - "El Empalme"
          - Empalme
          - "Velasco Ibarra"
        ascii_name: "Velasco Ibarra"
        geonamesid: 3650273
        latitude: -1.05
        longitude: -79.61667
        name: "Velasco Ibarra"
        names_en: ~
        names_es: ~
        population: 48754
        timezone: America/Guayaquil
      - 
        alternate_names: ~
        ascii_name: "Santa Lucia"
        geonamesid: 3651411
        latitude: -2.18333
        longitude: -80.0
        name: "Santa Lucía"
        names_en: ~
        names_es: ~
        population: 12523
        timezone: America/Guayaquil
      - 
        alternate_names: 
          - Samborondon
          - Samborondón
          - Samrondon
          - Samrondón
        ascii_name: Samborondon
        geonamesid: 3652065
        latitude: -1.95
        longitude: -79.73333
        name: Samborondón
        names_en: ~
        names_es: ~
        population: 24118
        timezone: America/Guayaquil
      - 
        alternate_names: 
          - Salinas
          - Салинас
        ascii_name: Salinas
        geonamesid: 3652100
        latitude: -2.21667
        longitude: -80.96667
        name: Salinas
        names_en: ~
        names_es: ~
        population: 43862
        timezone: America/Guayaquil
      - 
        alternate_names: 
          - "General Villamil"
          - Playas
          - Villamil
        ascii_name: Playas
        geonamesid: 3653015
        latitude: -2.63333
        longitude: -80.38333
        name: Playas
        names_en: ~
        names_es: ~
        population: 30564
        timezone: America/Guayaquil
      - 
        alternate_names: ~
        ascii_name: "Pedro Carbo"
        geonamesid: 3653295
        latitude: -1.83333
        longitude: -80.23333
        name: "Pedro Carbo"
        names_en: ~
        names_es: ~
        population: 23372
        timezone: America/Guayaquil
      - 
        alternate_names: ~
        ascii_name: Palestina
        geonamesid: 3653581
        latitude: -1.93333
        longitude: -79.73333
        name: Palestina
        names_en: ~
        names_es: ~
        population: 9364
        timezone: America/Guayaquil
      - 
        alternate_names: ~
        ascii_name: Naranjito
        geonamesid: 3653873
        latitude: -2.21667
        longitude: -79.48333
        name: Naranjito
        names_en: ~
        names_es: ~
        population: 34206
        timezone: America/Guayaquil
      - 
        alternate_names: ~
        ascii_name: Naranjal
        geonamesid: 3653882
        latitude: -2.66667
        longitude: -79.61667
        name: Naranjal
        names_en: ~
        names_es: ~
        population: 32045
        timezone: America/Guayaquil
      - 
        alternate_names: ~
        ascii_name: "Lomas de Sargentillo"
        geonamesid: 3654650
        latitude: -1.88333
        longitude: -80.08333
        name: "Lomas de Sargentillo"
        names_en: ~
        names_es: ~
        population: 7542
        timezone: America/Guayaquil
      - 
        alternate_names: 
          - "La Libertad"
        ascii_name: "La Libertad"
        geonamesid: 3655131
        latitude: -2.23333
        longitude: -80.9
        name: "La Libertad"
        names_en: ~
        names_es: ~
        population: 75881
        timezone: America/Guayaquil
      - 
        alternate_names: 
          - Gouagiakil
          - Guajakil'
          - Guayaquil
          - Gvajakil
        ascii_name: Guayaquil
        geonamesid: 3657509
        latitude: -2.16667
        longitude: -79.9
        name: Guayaquil
        names_en: 
          - Guayaquil
        names_es: 
          - Guayaquil
        population: 1952029
        timezone: America/Guayaquil
      - 
        alternate_names: ~
        ascii_name: "El Triunfo"
        geonamesid: 3658053
        latitude: -1.93333
        longitude: -79.96667
        name: "El Triunfo"
        names_en: ~
        names_es: ~
        population: 32282
        timezone: America/Guayaquil
      - 
        alternate_names: 
          - Alfaro
          - Duran
          - Durán
          - "Eloy alfaro"
        ascii_name: Duran
        geonamesid: 3658192
        latitude: -2.2
        longitude: -79.83333
        name: Durán
        names_en: 
          - Durán
        names_es: ~
        population: 167784
        timezone: America/Guayaquil
      - 
        alternate_names: 
          - "Coronel Marcelino Mariduena"
          - "Coronel Marcelino Maridueña"
          - "Coronel Mariduena"
          - "Coronel Maridueña"
        ascii_name: "Coronel Marcelino Mariduena"
        geonamesid: 3658822
        latitude: -2.2
        longitude: -79.41667
        name: "Coronel Marcelino Maridueña"
        names_en: ~
        names_es: ~
        population: 7303
        timezone: America/Guayaquil
      - 
        alternate_names: ~
        ascii_name: Colimes
        geonamesid: 3658948
        latitude: -1.55
        longitude: -80.01667
        name: Colimes
        names_en: ~
        names_es: ~
        population: 9384
        timezone: America/Guayaquil
      - 
        alternate_names: ~
        ascii_name: Balzar
        geonamesid: 3660361
        latitude: -1.36667
        longitude: -79.9
        name: Balzar
        names_en: ~
        names_es: ~
        population: 40115
        timezone: America/Guayaquil
      - 
        alternate_names: 
          - Balao
          - Baláo
        ascii_name: Balao
        geonamesid: 3660387
        latitude: -2.91667
        longitude: -79.81667
        name: Baláo
        names_en: ~
        names_es: ~
        population: 12205
        timezone: America/Guayaquil
      - 
        alternate_names: 
          - "Alfredo Baquerizo Moreno"
          - Jujan
          - Juján
        ascii_name: "Alfredo Baquerizo Moreno"
        geonamesid: 3660773
        latitude: -1.91667
        longitude: -79.51667
        name: "Alfredo Baquerizo Moreno"
        names_en: ~
        names_es: ~
        population: 12617
        timezone: America/Guayaquil
    geonamesid: 3657505
    name: Guayas
    names_en: ~
    names_es: ~
  - 
    ascii_name: "Provincia de Galapagos"
    cities: 
      - 
        alternate_names: ~
        ascii_name: "San Cristobal"
        geonamesid: 3651949
        latitude: -0.9045
        longitude: -89.61744
        name: "San Cristóbal"
        names_en: ~
        names_es: ~
        population: 6164
        timezone: Pacific/Galapagos
      - 
        alternate_names: 
          - "Puerto Villamil"
          - Villamil
        ascii_name: "Puerto Villamil"
        geonamesid: 3652694
        latitude: -0.95542
        longitude: -90.96654
        name: "Puerto Villamil"
        names_en: ~
        names_es: ~
        population: 2200
        timezone: Pacific/Galapagos
      - 
        alternate_names: 
          - "Baquerizo Moreno"
          - "Puerto Baquerizo"
          - "Puerto Baquerizo Moreno"
          - "Puerto Chico"
        ascii_name: "Puerto Baquerizo Moreno"
        geonamesid: 3652758
        latitude: -0.9
        longitude: -89.6
        name: "Puerto Baquerizo Moreno"
        names_en: ~
        names_es: ~
        population: 4214
        timezone: Pacific/Galapagos
      - 
        alternate_names: 
          - "Puerto Ayora"
        ascii_name: "Puerto Ayora"
        geonamesid: 3652764
        latitude: -0.73931
        longitude: -90.35176
        name: "Puerto Ayora"
        names_en: ~
        names_es: ~
        population: 8996
        timezone: Pacific/Galapagos
    geonamesid: 3657879
    name: Galápagos
    names_en: ~
    names_es: ~
  - 
    ascii_name: "Provincia de Esmeraldas"
    cities: 
      - 
        alternate_names: 
          - Limones
          - Valdes
          - Valdez
          - Valdés
        ascii_name: Valdez
        geonamesid: 3650312
        latitude: 1.24917
        longitude: -78.98306
        name: Valdez
        names_en: ~
        names_es: ~
        population: 11441
        timezone: America/Guayaquil
      - 
        alternate_names: 
          - "Puerto San Lorenzo"
          - "San Lorenzo"
          - "San Lorenzo de Esmeraldas"
        ascii_name: "San Lorenzo de Esmeraldas"
        geonamesid: 3651694
        latitude: 1.28833
        longitude: -78.83694
        name: "San Lorenzo de Esmeraldas"
        names_en: ~
        names_es: ~
        population: 20209
        timezone: America/Guayaquil
      - 
        alternate_names: 
          - Quininde
          - "Rosa Zarate"
          - "Rosa Zárate"
        ascii_name: "Rosa Zarate"
        geonamesid: 3652257
        latitude: 0.33333
        longitude: -79.46667
        name: "Rosa Zárate"
        names_en: ~
        names_es: ~
        population: 42121
        timezone: America/Guayaquil
      - 
        alternate_names: ~
        ascii_name: Propicia
        geonamesid: 3652881
        latitude: 0.93333
        longitude: -79.68333
        name: Propicia
        names_en: ~
        names_es: ~
        population: 95630
        timezone: America/Guayaquil
      - 
        alternate_names: ~
        ascii_name: Muisne
        geonamesid: 3653967
        latitude: 0.6
        longitude: -80.03333
        name: Muisne
        names_en: ~
        names_es: ~
        population: 13393
        timezone: America/Guayaquil
    geonamesid: 3657986
    name: Esmeraldas
    names_en: ~
    names_es: ~
  - 
    ascii_name: "Provincia de El Oro"
    cities: 
      - 
        alternate_names: ~
        ascii_name: Zaruma
        geonamesid: 3649914
        latitude: -3.68333
        longitude: -79.61667
        name: Zaruma
        names_en: ~
        names_es: ~
        population: 12505
        timezone: America/Guayaquil
      - 
        alternate_names: ~
        ascii_name: "Santa Rosa"
        geonamesid: 3651356
        latitude: -3.45
        longitude: -79.96667
        name: "Santa Rosa"
        names_en: ~
        names_es: ~
        population: 41816
        timezone: America/Guayaquil
      - 
        alternate_names: 
          - "Ponto Bolivar"
          - "Puerto Bolivar"
          - "Puerto Bolívar"
          - "Пуерто Боливар"
        ascii_name: "Puerto Bolivar"
        geonamesid: 3652757
        latitude: -3.26667
        longitude: -79.98333
        name: "Puerto Bolívar"
        names_en: 
          - "Puerto Bolivar"
        names_es: ~
        population: 8300
        timezone: America/Guayaquil
      - 
        alternate_names: 
          - Portobelo
          - Portovelo
          - Portoviejo
        ascii_name: Portovelo
        geonamesid: 3652943
        latitude: -3.71667
        longitude: -79.61667
        name: Portovelo
        names_en: ~
        names_es: ~
        population: 9708
        timezone: America/Guayaquil
      - 
        alternate_names: 
          - Pinas
          - Piñas
        ascii_name: Pinas
        geonamesid: 3653130
        latitude: -3.66667
        longitude: -79.65
        name: Piñas
        names_en: ~
        names_es: ~
        population: 16981
        timezone: America/Guayaquil
      - 
        alternate_names: ~
        ascii_name: Pasaje
        geonamesid: 3653403
        latitude: -3.33333
        longitude: -79.81667
        name: Pasaje
        names_en: ~
        names_es: ~
        population: 44860
        timezone: America/Guayaquil
      - 
        alternate_names: 
          - Machala
          - machala
          - Мачала
          - ماچالا
        ascii_name: Machala
        geonamesid: 3654533
        latitude: -3.26667
        longitude: -79.96667
        name: Machala
        names_en: 
          - Machala
        names_es: ~
        population: 198123
        timezone: America/Guayaquil
      - 
        alternate_names: ~
        ascii_name: Huaquillas
        geonamesid: 3655720
        latitude: -3.48333
        longitude: -80.23333
        name: Huaquillas
        names_en: ~
        names_es: ~
        population: 39757
        timezone: America/Guayaquil
    geonamesid: 3658195
    name: "El Oro"
    names_en: ~
    names_es: ~
  - 
    ascii_name: "Provincia de Cotopaxi"
    cities: 
      - 
        alternate_names: ~
        ascii_name: Saquisili
        geonamesid: 3651251
        latitude: -0.83333
        longitude: -78.66667
        name: Saquisilí
        names_en: ~
        names_es: ~
        population: 3778
        timezone: America/Guayaquil
      - 
        alternate_names: 
          - Salcedo
          - "San Miguel"
          - "San Miguel de Salcedo"
        ascii_name: "San Miguel de Salcedo"
        geonamesid: 3651613
        latitude: -1.03333
        longitude: -78.56667
        name: "San Miguel de Salcedo"
        names_en: ~
        names_es: ~
        population: 10838
        timezone: America/Guayaquil
      - 
        alternate_names: 
          - Pajili
          - Pujili
          - Pujilí
        ascii_name: Pujili
        geonamesid: 3652684
        latitude: -0.95
        longitude: -78.68333
        name: Pujilí
        names_en: ~
        names_es: ~
        population: 16168
        timezone: America/Guayaquil
      - 
        alternate_names: 
          - Latacunga
        ascii_name: Latacunga
        geonamesid: 3654870
        latitude: -0.93333
        longitude: -78.61667
        name: Latacunga
        names_en: 
          - Latacunga
        names_es: 
          - Latacunga
        population: 51717
        timezone: America/Guayaquil
      - 
        alternate_names: ~
        ascii_name: "La Mana"
        geonamesid: 3655117
        latitude: -0.93333
        longitude: -79.21667
        name: "La Maná"
        names_en: ~
        names_es: ~
        population: 16450
        timezone: America/Guayaquil
    geonamesid: 3658766
    name: Cotopaxi
    names_en: ~
    names_es: ~
  - 
    ascii_name: "Provincia del Chimborazo"
    cities: 
      - 
        alternate_names: 
          - Riobamba
        ascii_name: Riobamba
        geonamesid: 3652350
        latitude: -1.66667
        longitude: -78.63333
        name: Riobamba
        names_en: 
          - Riobamba
        names_es: 
          - Riobamba
        population: 124478
        timezone: America/Guayaquil
      - 
        alternate_names: ~
        ascii_name: Guano
        geonamesid: 3657594
        latitude: -1.58333
        longitude: -78.63333
        name: Guano
        names_en: ~
        names_es: ~
        population: 12659
        timezone: America/Guayaquil
      - 
        alternate_names: ~
        ascii_name: Alausi
        geonamesid: 3660798
        latitude: -2.2
        longitude: -78.83333
        name: Alausí
        names_en: ~
        names_es: ~
        population: 14294
        timezone: America/Guayaquil
    geonamesid: 3659237
    name: Chimborazo
    names_en: ~
    names_es: ~
  - 
    ascii_name: "Provincia del Carchi"
    cities: 
      - 
        alternate_names: 
          - Montufar
          - Montúfar
          - "San Gabriel"
        ascii_name: "San Gabriel"
        geonamesid: 3651868
        latitude: 0.6
        longitude: -77.81667
        name: "San Gabriel"
        names_en: ~
        names_es: ~
        population: 15112
        timezone: America/Guayaquil
      - 
        alternate_names: 
          - "El Angel"
          - "El Ángel"
          - Espejo
        ascii_name: "El Angel"
        geonamesid: 3658379
        latitude: 0.61667
        longitude: -77.93333
        name: "El Ángel"
        names_en: ~
        names_es: ~
        population: 3983
        timezone: America/Guayaquil
    geonamesid: 3659718
    name: Carchi
    names_en: ~
    names_es: ~
  - 
    ascii_name: "Provincia del Canar"
    cities: 
      - 
        alternate_names: ~
        ascii_name: "La Troncal"
        geonamesid: 3654853
        latitude: -2.4
        longitude: -79.33333
        name: "La Troncal"
        names_en: ~
        names_es: ~
        population: 36353
        timezone: America/Guayaquil
      - 
        alternate_names: ~
        ascii_name: Canar
        geonamesid: 3659852
        latitude: -2.55
        longitude: -78.93333
        name: Cañar
        names_en: ~
        names_es: ~
        population: 9900
        timezone: America/Guayaquil
      - 
        alternate_names: 
          - Azogues
          - Azoguez
        ascii_name: Azogues
        geonamesid: 3660434
        latitude: -2.73333
        longitude: -78.83333
        name: Azogues
        names_en: ~
        names_es: ~
        population: 34877
        timezone: America/Guayaquil
    geonamesid: 3659849
    name: Cañar
    names_en: ~
    names_es: ~
  - 
    ascii_name: "Provincia de Bolivar"
    cities: 
      - 
        alternate_names: 
          - "San Miguel"
          - "San Miguel de Chimbo"
        ascii_name: "San Miguel"
        geonamesid: 3651639
        latitude: -1.7
        longitude: -79.03333
        name: "San Miguel"
        names_en: ~
        names_es: ~
        population: 12575
        timezone: America/Guayaquil
      - 
        alternate_names: 
          - Guaranda
          - Гуаранда
        ascii_name: Guaranda
        geonamesid: 3657571
        latitude: -1.6
        longitude: -79.0
        name: Guaranda
        names_en: 
          - Guaranda
        names_es: ~
        population: 22199
        timezone: America/Guayaquil
    geonamesid: 3660130
    name: Bolívar
    names_en: ~
    names_es: ~
  - 
    ascii_name: "Provincia del Azuay"
    cities: 
      - 
        alternate_names: 
          - Gualaceo
        ascii_name: Gualaceo
        geonamesid: 3657670
        latitude: -2.9
        longitude: -78.78333
        name: Gualaceo
        names_en: ~
        names_es: ~
        population: 17122
        timezone: America/Guayaquil
      - 
        alternate_names: 
          - Cuenca
          - Kuehnka
          - Куэнка
        ascii_name: Cuenca
        geonamesid: 3658666
        latitude: -2.88333
        longitude: -78.98333
        name: Cuenca
        names_en: 
          - Cuenca
        names_es: 
          - Cuenca
        population: 276964
        timezone: America/Guayaquil
    geonamesid: 3660431
    name: Azuay
    names_en: ~
    names_es: ~
  - 
    ascii_name: "Provincia de Sucumbios"
    cities: 
      - 
        alternate_names: 
          - "Lago Agrio"
          - Nuehva-Lokha
          - "Nueva Loja"
          - Нуэва-Лоха
        ascii_name: "Nueva Loja"
        geonamesid: 3655185
        latitude: 0.08472
        longitude: -76.88278
        name: "Nueva Loja"
        names_en: ~
        names_es: ~
        population: 24211
        timezone: America/Guayaquil
    geonamesid: 3830305
    name: Sucumbios
    names_en: ~
    names_es: ~
  - 
    ascii_name: "Provincia de Francisco de Orellana"
    cities: 
      - 
        alternate_names: 
          - "Boca Suno"
          - Suno
        ascii_name: "Boca Suno"
        geonamesid: 3660152
        latitude: -0.71667
        longitude: -77.13333
        name: "Boca Suno"
        names_en: ~
        names_es: ~
        population: 20313
        timezone: America/Guayaquil
    geonamesid: 3830306
    name: Orellana
    names_en: ~
    names_es: ~
  - 
    ascii_name: "Provincia de Santo Domingo de los Tsachilas"
    cities: []
    geonamesid: 7062136
    name: "Santo Domingo de los Tsáchilas"
    names_en: ~
    names_es: ~
  - 
    ascii_name: "Provincia de Santa Elena"
    cities: 
      - 
        alternate_names: ~
        ascii_name: "Santa Elena"
        geonamesid: 3651438
        latitude: -2.23333
        longitude: -80.85
        name: "Santa Elena"
        names_en: ~
        names_es: ~
        population: 42214
        timezone: America/Guayaquil
    geonamesid: 7062138
    name: "Santa Elena"
    names_en: ~
    names_es: 
      - "Provincia de Santa Elena"
