--- 
geonamesid: 2400553
iso: GA
name: Gabon
names_en: 
  - Gabon
  - "Gabonese Republic"
names_es: 
  - Gabón
regions: 
  - 
    ascii_name: "Province du Woleu-Ntem"
    cities: 
      - 
        alternate_names: ~
        ascii_name: Oyem
        geonamesid: 2396646
        latitude: 1.5983
        longitude: 11.57537
        name: Oyem
        names_en: ~
        names_es: ~
        population: 30870
        timezone: Africa/Libreville
      - 
        alternate_names: 
          - Midzik
          - Mitsig
          - Mitzic
          - Mitzick
        ascii_name: Mitzic
        geonamesid: 2398283
        latitude: 0.78206
        longitude: 11.54904
        name: Mitzic
        names_en: ~
        names_es: ~
        population: 3886
        timezone: Africa/Libreville
      - 
        alternate_names: ~
        ascii_name: Bitam
        geonamesid: 2401578
        latitude: 2.07597
        longitude: 11.50065
        name: Bitam
        names_en: ~
        names_es: ~
        population: 10297
        timezone: Africa/Libreville
    geonamesid: 2396076
    name: Woleu-Ntem
    names_en: ~
    names_es: ~
  - 
    ascii_name: "Province de l' Ogooue-Maritime"
    cities: 
      - 
        alternate_names: 
          - "Port Gentil"
          - "Port Zhantil"
          - Port-Gentil
          - "Порт Жантил"
        ascii_name: Port-Gentil
        geonamesid: 2396518
        latitude: -0.71667
        longitude: 8.78333
        name: Port-Gentil
        names_en: 
          - Port-Gentil
        names_es: ~
        population: 109163
        timezone: Africa/Libreville
      - 
        alternate_names: 
          - "Fernan Vaz"
          - Fernand-Vaz
          - Omboue
          - Omboué
        ascii_name: Omboue
        geonamesid: 2396853
        latitude: -1.57464
        longitude: 9.26184
        name: Omboué
        names_en: ~
        names_es: ~
        population: 1667
        timezone: Africa/Libreville
      - 
        alternate_names: 
          - Gamba
        ascii_name: Gamba
        geonamesid: 2400547
        latitude: -2.65
        longitude: 10.0
        name: Gamba
        names_en: ~
        names_es: ~
        population: 9928
        timezone: Africa/Libreville
    geonamesid: 2396924
    name: Ogooué-Maritime
    names_en: ~
    names_es: ~
  - 
    ascii_name: "Province de l' Ogooue-Lolo"
    cities: 
      - 
        alternate_names: 
          - Bonda
          - Lastoursville
          - Lastourville
        ascii_name: Lastoursville
        geonamesid: 2399870
        latitude: -0.83132
        longitude: 12.77934
        name: Lastoursville
        names_en: ~
        names_es: ~
        population: 8340
        timezone: Africa/Libreville
      - 
        alternate_names: 
          - "Koula Moubou"
          - "Koula Mouta"
          - Koulamotou
          - Koulamoutou
        ascii_name: Koulamoutou
        geonamesid: 2399959
        latitude: -1.13032
        longitude: 12.47359
        name: Koulamoutou
        names_en: 
          - Koulamoutou
        names_es: ~
        population: 16222
        timezone: Africa/Libreville
    geonamesid: 2396925
    name: Ogooué-Lolo
    names_en: ~
    names_es: ~
  - 
    ascii_name: "Province de l' Ogooue-Ivindo"
    cities: 
      - 
        alternate_names: 
          - Makokou
          - "Makokou Fortifie"
          - "Makokou Fortifié"
          - Makoku
        ascii_name: Makokou
        geonamesid: 2399371
        latitude: 0.57381
        longitude: 12.86419
        name: Makokou
        names_en: 
          - Makokou
        names_es: ~
        population: 13571
        timezone: Africa/Libreville
      - 
        alternate_names: 
          - Booue
          - Booué
          - Boque
          - Boue
        ascii_name: Booue
        geonamesid: 2401495
        latitude: -0.09207
        longitude: 11.93846
        name: Booué
        names_en: ~
        names_es: ~
        population: 5787
        timezone: Africa/Libreville
    geonamesid: 2396926
    name: Ogooué-Ivindo
    names_en: ~
    names_es: ~
  - 
    ascii_name: "Province de la Nyanga"
    cities: 
      - 
        alternate_names: ~
        ascii_name: Tchibanga
        geonamesid: 2396253
        latitude: -2.85
        longitude: 11.03333
        name: Tchibanga
        names_en: ~
        names_es: ~
        population: 19365
        timezone: Africa/Libreville
      - 
        alternate_names: 
          - Mavumba
          - Mayoumba
          - Mayumba
        ascii_name: Mayumba
        geonamesid: 2399001
        latitude: -3.43198
        longitude: 10.6554
        name: Mayumba
        names_en: ~
        names_es: ~
        population: 3996
        timezone: Africa/Libreville
    geonamesid: 2397141
    name: Nyanga
    names_en: ~
    names_es: ~
  - 
    ascii_name: "Province de la Ngounie"
    cities: 
      - 
        alternate_names: ~
        ascii_name: Ndende
        geonamesid: 2397614
        latitude: -2.40077
        longitude: 11.35813
        name: Ndendé
        names_en: ~
        names_es: ~
        population: 6200
        timezone: Africa/Libreville
      - 
        alternate_names: ~
        ascii_name: Mouila
        geonamesid: 2398073
        latitude: -1.8635
        longitude: 11.05995
        name: Mouila
        names_en: ~
        names_es: ~
        population: 22469
        timezone: Africa/Libreville
      - 
        alternate_names: ~
        ascii_name: Mimongo
        geonamesid: 2398430
        latitude: -1.61952
        longitude: 11.60675
        name: Mimongo
        names_en: ~
        names_es: ~
        population: 3307
        timezone: Africa/Libreville
      - 
        alternate_names: 
          - M'bigou
          - Mbigou
          - M’bigou
        ascii_name: Mbigou
        geonamesid: 2398929
        latitude: -1.8971
        longitude: 11.91253
        name: Mbigou
        names_en: ~
        names_es: ~
        population: 4134
        timezone: Africa/Libreville
      - 
        alternate_names: ~
        ascii_name: Fougamou
        geonamesid: 2400578
        latitude: -1.21038
        longitude: 10.59022
        name: Fougamou
        names_en: ~
        names_es: ~
        population: 5649
        timezone: Africa/Libreville
    geonamesid: 2397466
    name: Ngounié
    names_en: ~
    names_es: ~
  - 
    ascii_name: "Province du Moyen-Ogooue"
    cities: 
      - 
        alternate_names: 
          - Ndjole
          - Ndjolé
          - Njole
        ascii_name: Ndjole
        geonamesid: 2397674
        latitude: -0.18333
        longitude: 10.75
        name: Ndjolé
        names_en: ~
        names_es: ~
        population: 5098
        timezone: Africa/Libreville
      - 
        alternate_names: 
          - Lambarene
          - Lambaréné
          - Ламбарене
        ascii_name: Lambarene
        geonamesid: 2399888
        latitude: -0.7
        longitude: 10.21667
        name: Lambaréné
        names_en: 
          - Lambaréné
        names_es: ~
        population: 20714
        timezone: Africa/Libreville
    geonamesid: 2397842
    name: Moyen-Ogooué
    names_en: ~
    names_es: ~
  - 
    ascii_name: "Province du Haut-Ogooue"
    cities: 
      - 
        alternate_names: 
          - Okandja
          - Okondi
          - Okondja
        ascii_name: Okondja
        geonamesid: 2396898
        latitude: -0.65487
        longitude: 13.67533
        name: Okondja
        names_en: ~
        names_es: ~
        population: 7155
        timezone: Africa/Libreville
      - 
        alternate_names: 
          - Mounana
        ascii_name: Mounana
        geonamesid: 2397978
        latitude: -1.4085
        longitude: 13.15857
        name: Mounana
        names_en: ~
        names_es: ~
        population: 8780
        timezone: Africa/Libreville
      - 
        alternate_names: 
          - Moanda
          - Mouanda
          - Mouenda
        ascii_name: Moanda
        geonamesid: 2398269
        latitude: -1.56542
        longitude: 13.18937
        name: Moanda
        names_en: ~
        names_es: ~
        population: 30151
        timezone: Africa/Libreville
      - 
        alternate_names: 
          - "Fortifie du Lekoni"
          - "Fortifie du Liconi"
          - "Fortifié du Liconi"
          - "Fortifié du Lékoni"
        ascii_name: Lekoni
        geonamesid: 2399831
        latitude: -1.58431
        longitude: 14.25905
        name: Lékoni
        names_en: ~
        names_es: ~
        population: 3583
        timezone: Africa/Libreville
      - 
        alternate_names: 
          - Franceville
          - Fransvil
          - Франсвил
        ascii_name: Franceville
        geonamesid: 2400555
        latitude: -1.63333
        longitude: 13.58357
        name: Franceville
        names_en: 
          - Franceville
        names_es: 
          - Franceville
        population: 42967
        timezone: Africa/Libreville
    geonamesid: 2400454
    name: Haut-Ogooué
    names_en: ~
    names_es: ~
  - 
    ascii_name: "Province de l' Estuaire"
    cities: 
      - 
        alternate_names: ~
        ascii_name: Ntoum
        geonamesid: 2397169
        latitude: 0.38333
        longitude: 9.78333
        name: Ntoum
        names_en: ~
        names_es: ~
        population: 8569
        timezone: Africa/Libreville
      - 
        alternate_names: 
          - Librevil
          - Librevil'
          - Librevilis
          - Libreville
        ascii_name: Libreville
        geonamesid: 2399697
        latitude: 0.38333
        longitude: 9.45
        name: Libreville
        names_en: 
          - Libreville
        names_es: 
          - Libreville
        population: 578156
        timezone: Africa/Libreville
      - 
        alternate_names: 
          - Cocoabeach
          - Cocobeach
          - Ukoko
        ascii_name: Cocobeach
        geonamesid: 2401357
        latitude: 1.00019
        longitude: 9.58228
        name: Cocobeach
        names_en: ~
        names_es: ~
        population: 1653
        timezone: Africa/Libreville
    geonamesid: 2400682
    name: Estuaire
    names_en: ~
    names_es: ~
