--- 
geonamesid: 614540
iso: GE
name: Georgia
names_en: 
  - Georgia
  - "Georgian Soviet Socialist Republic"
names_es: 
  - Georgia
regions: 
  - 
    ascii_name: "K'alak'i T'bilisi"
    cities: 
      - 
        alternate_names: 
          - Kalak
          - TBILISI
          - Tbilisi
          - "Tbilisi - tbilisi"
        ascii_name: Tbilisi
        geonamesid: 611717
        latitude: 41.69411
        longitude: 44.83368
        name: Tbilisi
        names_en: 
          - Tbilisi
        names_es: 
          - Tiflis
        population: 1049498
        timezone: Asia/Tbilisi
    geonamesid: 611716
    name: T'bilisi
    names_en: ~
    names_es: ~
  - 
    ascii_name: Ajaria
    cities: 
      - 
        alternate_names: 
          - OCHKHAMURI
          - Och'khamuri
          - Ochkamuri
          - Och’khamuri
        ascii_name: Och'khamuri
        geonamesid: 612648
        latitude: 41.85528
        longitude: 41.83611
        name: Och’khamuri
        names_en: 
          - Och'khamuri
        names_es: ~
        population: 2061
        timezone: Asia/Tbilisi
      - 
        alternate_names: 
          - MAKHINDZHAURI
          - Makhindzhauri
          - Makhinjauri
          - МАХИНДЖАУРИ
        ascii_name: Makhinjauri
        geonamesid: 613125
        latitude: 41.67385
        longitude: 41.69401
        name: Makhinjauri
        names_en: 
          - Makhinjauri
        names_es: ~
        population: 2736
        timezone: Asia/Tbilisi
      - 
        alternate_names: 
          - K'obulet'i
          - Kobuleti
          - Kobulyety
          - Кобулети
        ascii_name: Kobuleti
        geonamesid: 613762
        latitude: 41.82
        longitude: 41.77528
        name: Kobuleti
        names_en: 
          - K'obulet'i
        names_es: ~
        population: 18600
        timezone: Asia/Tbilisi
      - 
        alternate_names: 
          - BATUMI
          - Bat'umi
          - Bathumi
          - Batoemi
        ascii_name: Bat'umi
        geonamesid: 615532
        latitude: 41.64159
        longitude: 41.63593
        name: Bat’umi
        names_en: 
          - Batumi
          - Bat'umi
        names_es: 
          - Batum
        population: 121806
        timezone: Asia/Tbilisi
    geonamesid: 615929
    name: Ajaria
    names_en: ~
    names_es: ~
  - 
    ascii_name: "Kvemo Kartli"
    cities: 
      - 
        alternate_names: 
          - Barmaksiz
          - Barmaksus
          - Barmaksys
          - CALKA
        ascii_name: Tsalka
        geonamesid: 611548
        latitude: 41.5946
        longitude: 44.08909
        name: Tsalka
        names_en: 
          - Tsalka
        names_es: ~
        population: 1570
        timezone: Asia/Tbilisi
      - 
        alternate_names: 
          - Agbulag
          - Agbulak
          - Agbulakh
          - Agbularh
        ascii_name: "T'et'ri Tsqaro"
        geonamesid: 611674
        latitude: 41.54448
        longitude: 44.46153
        name: "T’et’ri Tsqaro"
        names_en: 
          - "T'et'ri Tsqaro"
        names_es: ~
        population: 3624
        timezone: Asia/Tbilisi
      - 
        alternate_names: 
          - Borchalo
          - MARNEULI
          - Marneuli
          - Sarvan
        ascii_name: Marneuli
        geonamesid: 613074
        latitude: 41.47588
        longitude: 44.80894
        name: Marneuli
        names_en: 
          - Marneuli
        names_es: ~
        population: 18755
        timezone: Asia/Tbilisi
      - 
        alternate_names: 
          - MANGLISI
          - Manglis
          - Manglisi
          - МАНГЛИСИ
        ascii_name: Manglisi
        geonamesid: 613093
        latitude: 41.69698
        longitude: 44.38448
        name: Manglisi
        names_en: 
          - Manglisi
        names_es: ~
        population: 4817
        timezone: Asia/Tbilisi
      - 
        alternate_names: 
          - GARDABANI
          - Gardabani
          - Karaya
          - Karayazi
        ascii_name: Gardabani
        geonamesid: 614575
        latitude: 41.46054
        longitude: 45.09283
        name: Gardabani
        names_en: 
          - Gardabani
        names_es: ~
        population: 10972
        timezone: Asia/Tbilisi
    geonamesid: 865536
    name: "Kvemo Kartli"
    names_en: ~
    names_es: ~
  - 
    ascii_name: Kakheti
    cities: 
      - 
        alternate_names: 
          - T'elavi
          - TELAVI
          - Telav
          - Telavi
        ascii_name: T'elavi
        geonamesid: 611694
        latitude: 41.91978
        longitude: 45.47315
        name: T’elavi
        names_en: 
          - T'elavi
          - Telavi
        names_es: ~
        population: 21800
        timezone: Asia/Tbilisi
      - 
        alternate_names: 
          - SIGNAKHI
          - Sighnaghi
          - Signagi
          - Signakh
        ascii_name: Sighnaghi
        geonamesid: 611902
        latitude: 41.62046
        longitude: 45.92198
        name: Sighnaghi
        names_en: 
          - Sighnaghi
        names_es: ~
        population: 1923
        timezone: Asia/Tbilisi
      - 
        alternate_names: 
          - SAGAREDZHO
          - Sagaredzho
          - Sagarejo
          - САГАРЕДЖО
        ascii_name: Sagarejo
        geonamesid: 612230
        latitude: 41.73397
        longitude: 45.33148
        name: Sagarejo
        names_en: 
          - Sagarejo
        names_es: ~
        population: 12173
        timezone: Asia/Tbilisi
      - 
        alternate_names: 
          - KVARELI
          - Kvareli
          - Kvarely
          - Qvareli
        ascii_name: Qvareli
        geonamesid: 612338
        latitude: 41.95492
        longitude: 45.81716
        name: Qvareli
        names_en: 
          - Qvareli
        names_es: ~
        population: 8612
        timezone: Asia/Tbilisi
      - 
        alternate_names: 
          - LAGODEKHI
          - Lagodechis
          - Lagodekhi
          - lagodekhi
        ascii_name: Lagodekhi
        geonamesid: 613342
        latitude: 41.82681
        longitude: 46.27667
        name: Lagodekhi
        names_en: 
          - Lagodekhi
        names_es: 
          - Lagodekhi
        population: 6550
        timezone: Asia/Tbilisi
      - 
        alternate_names: 
          - GURDZHAANI
          - Gurdjaani
          - Gurdzhaani
          - Gurdzhani
        ascii_name: Gurjaani
        geonamesid: 614351
        latitude: 41.74292
        longitude: 45.80111
        name: Gurjaani
        names_en: 
          - Gurjaani
        names_es: ~
        population: 9466
        timezone: Asia/Tbilisi
      - 
        alternate_names: 
          - AKHMETA
          - Akhmeta
          - Akhmeti
          - Akhmety
        ascii_name: Akhmeta
        geonamesid: 615844
        latitude: 42.03111
        longitude: 45.2075
        name: Akhmeta
        names_en: 
          - Akhmeta
        names_es: ~
        population: 8569
        timezone: Asia/Tbilisi
    geonamesid: 865537
    name: Kakheti
    names_en: ~
    names_es: ~
  - 
    ascii_name: Guria
    cities: 
      - 
        alternate_names: 
          - UREKI
          - Urek'i
          - Ureki
          - Urek’i
        ascii_name: Urek'i
        geonamesid: 611274
        latitude: 41.99556
        longitude: 41.77861
        name: Urek’i
        names_en: 
          - Ureki
        names_es: ~
        population: 1625
        timezone: Asia/Tbilisi
      - 
        alternate_names: 
          - Naruja
          - "Sovkhoz Narudzhskiy"
          - ნარუჯა
        ascii_name: Naruja
        geonamesid: 824385
        latitude: 41.90694
        longitude: 41.95417
        name: Naruja
        names_en: ~
        names_es: ~
        population: 3065
        timezone: Asia/Tbilisi
    geonamesid: 865538
    name: Guria
    names_en: ~
    names_es: ~
  - 
    ascii_name: Imereti
    cities: 
      - 
        alternate_names: 
          - Dshugeli
          - Dzhugeli
          - Kvirily
          - Namaneva
        ascii_name: Zestap'oni
        geonamesid: 610864
        latitude: 42.11
        longitude: 43.0525
        name: Zestap’oni
        names_en: 
          - Zestap'oni
          - Zetaponi
        names_es: ~
        population: 25891
        timezone: Asia/Tbilisi
      - 
        alternate_names: 
          - Bzvani
          - VANI
          - Vani
          - ВАНИ
        ascii_name: Vani
        geonamesid: 611219
        latitude: 42.0832
        longitude: 42.52163
        name: Vani
        names_en: 
          - Vani
        names_es: ~
        population: 4265
        timezone: Asia/Tbilisi
      - 
        alternate_names: 
          - KUTAISI
          - Khuthaisi
          - Kutais
          - Kutaisi
        ascii_name: K'ut'aisi
        geonamesid: 613607
        latitude: 42.24961
        longitude: 42.69974
        name: K'ut'aisi
        names_en: 
          - Kutaisi
        names_es: 
          - Kutaisi
        population: 178338
        timezone: Asia/Tbilisi
      - 
        alternate_names: 
          - Choni
          - KHONI
          - Khoni
          - Tsulukidze
        ascii_name: Khoni
        geonamesid: 613902
        latitude: 42.3226
        longitude: 42.42061
        name: Khoni
        names_en: 
          - Khoni
        names_es: ~
        population: 10796
        timezone: Asia/Tbilisi
      - 
        alternate_names: 
          - CKHALTUBO
          - Tskaltubo
          - Tskhaltubo
          - Tsqaltubo
        ascii_name: Tsqaltubo
        geonamesid: 824288
        latitude: 42.34129
        longitude: 42.5976
        name: Tsqaltubo
        names_en: 
          - Tsqaltubo
        names_es: ~
        population: 16736
        timezone: Asia/Tbilisi
      - 
        alternate_names: ~
        ascii_name: Kharagauli
        geonamesid: 7667751
        latitude: 42.02137
        longitude: 43.19773
        name: Kharagauli
        names_en: ~
        names_es: ~
        population: 0
        timezone: Asia/Tbilisi
    geonamesid: 865539
    name: Imereti
    names_en: ~
    names_es: ~
  - 
    ascii_name: "Shida Kartli"
    cities: 
      - 
        alternate_names: 
          - Chaschuri
          - KHASHURI
          - Khachuri
          - Khashuri
        ascii_name: Khashuri
        geonamesid: 613988
        latitude: 41.99414
        longitude: 43.59994
        name: Khashuri
        names_en: 
          - Khashuri
          - Khachuri
        names_es: ~
        population: 27811
        timezone: Asia/Tbilisi
      - 
        alternate_names: 
          - KASPI
          - Kasni
          - Kaspi
          - КАСПИ
        ascii_name: Kaspi
        geonamesid: 614104
        latitude: 41.9252
        longitude: 44.42568
        name: Kaspi
        names_en: 
          - Kaspi
        names_es: ~
        population: 14734
        timezone: Asia/Tbilisi
      - 
        alternate_names: 
          - GORI
          - Gori
          - Goris
          - "ge li"
        ascii_name: Gori
        geonamesid: 614455
        latitude: 41.98422
        longitude: 44.11578
        name: Gori
        names_en: 
          - Gori
        names_es: 
          - Gori
        population: 46676
        timezone: Asia/Tbilisi
    geonamesid: 865540
    name: "Shida Kartli"
    names_en: ~
    names_es: ~
  - 
    ascii_name: Mtskheta-Mtianeti
    cities: 
      - 
        alternate_names: 
          - T'ianet'i
          - TIANETI
          - Tianety
          - Tioneti
        ascii_name: T'ianet'i
        geonamesid: 611669
        latitude: 42.10833
        longitude: 44.96389
        name: T’ianet’i
        names_en: 
          - T'ianet'i
        names_es: ~
        population: 0
        timezone: Asia/Tbilisi
      - 
        alternate_names: 
          - P'asanauri
          - PASANAURI
          - Pasanaur
          - Pasanauri
        ascii_name: P'asanauri
        geonamesid: 612502
        latitude: 42.3506
        longitude: 44.68912
        name: P’asanauri
        names_en: 
          - Pasanauri
        names_es: ~
        population: 2904
        timezone: Asia/Tbilisi
      - 
        alternate_names: 
          - Mckheta
          - Mts'khet'a
          - Mtskhera
          - Mtskheta
        ascii_name: Mts'khet'a
        geonamesid: 612890
        latitude: 41.84514
        longitude: 44.71875
        name: Mts’khet’a
        names_en: 
          - Mts'khet'a
          - Mtskheta
        names_es: ~
        population: 7423
        timezone: Asia/Tbilisi
      - 
        alternate_names: 
          - KAZBEGI
          - Kasbek
          - Kazbeg
          - Kazbegi
        ascii_name: Step'antsminda
        geonamesid: 614087
        latitude: 42.65667
        longitude: 44.64333
        name: Step’antsminda
        names_en: 
          - Qazbegi
        names_es: ~
        population: 2628
        timezone: Asia/Tbilisi
      - 
        alternate_names: 
          - Akhalgori
          - LENINGORI
          - Leningori
          - ЛЕНИНГОРИ
        ascii_name: Akhalgori
        geonamesid: 615914
        latitude: 42.12597
        longitude: 44.48333
        name: Akhalgori
        names_en: 
          - Akhalgori
        names_es: ~
        population: 1420
        timezone: Asia/Tbilisi
    geonamesid: 865541
    name: Mtskheta-Mtianeti
    names_en: ~
    names_es: ~
  - 
    ascii_name: "Racha-Lechkhumi and Kvemo Svaneti"
    cities: 
      - 
        alternate_names: 
          - ONI
          - Oni
          - ОНИ
        ascii_name: Oni
        geonamesid: 612592
        latitude: 42.57944
        longitude: 43.4425
        name: Oni
        names_en: 
          - Oni
        names_es: ~
        population: 3012
        timezone: Asia/Tbilisi
      - 
        alternate_names: 
          - LENTEKHI
          - Leksura
          - Lentekhi
          - ЛЕНТЕХИ
        ascii_name: Lentekhi
        geonamesid: 613226
        latitude: 42.78556
        longitude: 42.72611
        name: Lentekhi
        names_en: 
          - Lentekhi
        names_es: ~
        population: 10442
        timezone: Asia/Tbilisi
      - 
        alternate_names: 
          - AMBROLAURI
          - Ambralauri
          - Ambrolauri
          - АМБРОЛАУРИ
        ascii_name: Ambrolauri
        geonamesid: 615776
        latitude: 42.52111
        longitude: 43.16222
        name: Ambrolauri
        names_en: 
          - Ambrolauri
        names_es: ~
        population: 2408
        timezone: Asia/Tbilisi
    geonamesid: 865542
    name: "Racha-Lechkhumi and Kvemo Svaneti"
    names_en: ~
    names_es: ~
  - 
    ascii_name: "Samegrelo and Zemo Svaneti"
    cities: 
      - 
        alternate_names: 
          - Sugdidi
          - ZUGDIDI
          - Zugdidi
          - Zugdidis
        ascii_name: Zugdidi
        geonamesid: 610824
        latitude: 42.5088
        longitude: 41.87088
        name: Zugdidi
        names_en: 
          - Zugdidi
        names_es: 
          - Zugdidi
        population: 73006
        timezone: Asia/Tbilisi
      - 
        alternate_names: 
          - CALENDZHIKHA
          - Tsalendzhikha
          - Tsalenjikha
          - ЦАЛЕНДЖИХА
        ascii_name: Tsalenjikha
        geonamesid: 611551
        latitude: 42.60444
        longitude: 42.06825
        name: Tsalenjikha
        names_en: 
          - Tsalenjikha
        names_es: ~
        population: 8879
        timezone: Asia/Tbilisi
      - 
        alternate_names: 
          - "Achal Senaki"
          - Akhalsenaki
          - Micha-Zchakaja
          - "Mikha Tskhakaya"
        ascii_name: Senaki
        geonamesid: 612053
        latitude: 42.27042
        longitude: 42.0675
        name: Senaki
        names_en: 
          - Senaki
        names_es: ~
        population: 27752
        timezone: Asia/Tbilisi
      - 
        alternate_names: 
          - P'ot'i
          - Poti
          - P’ot’i
          - Поти
        ascii_name: P'ot'i
        geonamesid: 612366
        latitude: 42.14616
        longitude: 41.67197
        name: P’ot’i
        names_en: ~
        names_es: ~
        population: 47149
        timezone: Asia/Tbilisi
      - 
        alternate_names: 
          - MESTIA
          - Mestia
          - Mestiya
          - Mestno
        ascii_name: Mestia
        geonamesid: 612987
        latitude: 43.04581
        longitude: 42.7278
        name: Mestia
        names_en: 
          - Mestia
        names_es: ~
        population: 3187
        timezone: Asia/Tbilisi
      - 
        alternate_names: 
          - Gegechkari
          - Gegechkori
          - MARTVILI
          - Martvili
        ascii_name: Martvili
        geonamesid: 613065
        latitude: 42.41436
        longitude: 42.37924
        name: Martvili
        names_en: 
          - Martvili
        names_es: ~
        population: 5483
        timezone: Asia/Tbilisi
      - 
        alternate_names: 
          - "K'veda Ch'khorotsqu"
          - "Kveda Chkhorotsku"
          - "K’veda Ch’khorotsqu"
          - "ქვედა ჩხოროწყუ"
        ascii_name: "K'veda Ch'khorotsqu"
        geonamesid: 613559
        latitude: 42.48103
        longitude: 42.09661
        name: "K’veda Ch’khorotsqu"
        names_en: ~
        names_es: ~
        population: 4357
        timezone: Asia/Tbilisi
      - 
        alternate_names: 
          - KHOBI
          - Khobi
          - Khopi
          - ХОБИ
        ascii_name: Khobi
        geonamesid: 613918
        latitude: 42.31558
        longitude: 41.89871
        name: Khobi
        names_en: 
          - Khobi
        names_es: ~
        population: 5375
        timezone: Asia/Tbilisi
      - 
        alternate_names: 
          - DZHVARI
          - Dzhvara
          - Dzhvari
          - Dzhvary
        ascii_name: Jvari
        geonamesid: 614740
        latitude: 42.71692
        longitude: 42.052
        name: Jvari
        names_en: 
          - Jvari
        names_es: ~
        population: 4756
        timezone: Asia/Tbilisi
      - 
        alternate_names: 
          - ABASHA
          - Abacha
          - Abascha
          - Abasha
        ascii_name: Abasha
        geonamesid: 616022
        latitude: 42.20959
        longitude: 42.22111
        name: Abasha
        names_en: 
          - Abasha
          - Abacha
        names_es: ~
        population: 6221
        timezone: Asia/Tbilisi
    geonamesid: 865543
    name: "Samegrelo and Zemo Svaneti"
    names_en: 
      - "Samegrelo and Zemo Svaneti"
    names_es: ~
  - 
    ascii_name: Samtskhe-Javakheti
    cities: 
      - 
        alternate_names: 
          - CAGVERI
          - "Kurgan Tsagveri"
          - Tsaghveri
          - Tsagveri
        ascii_name: Tsaghveri
        geonamesid: 611564
        latitude: 41.80365
        longitude: 43.48194
        name: Tsaghveri
        names_en: 
          - Tsaghveri
        names_es: ~
        population: 2745
        timezone: Asia/Tbilisi
      - 
        alternate_names: 
          - Bogdanovka
          - NINOCMINDA
          - Ninotsminda
          - НИНОЦМИНДА
        ascii_name: Ninotsminda
        geonamesid: 612691
        latitude: 41.26458
        longitude: 43.5916
        name: Ninotsminda
        names_en: 
          - Ninotsminda
        names_es: ~
        population: 6141
        timezone: Asia/Tbilisi
      - 
        alternate_names: 
          - BORZHOMI
          - Borcomi
          - Bordschomi
          - Bordzomi
        ascii_name: Borjomi
        geonamesid: 615403
        latitude: 41.85272
        longitude: 43.41284
        name: Borjomi
        names_en: 
          - Borjomi
        names_es: 
          - Borjomi
        population: 13825
        timezone: Asia/Tbilisi
      - 
        alternate_names: 
          - ASPINDZA
          - Aspindza
          - АСПИНДЗА
          - ასპინძა
        ascii_name: Aspindza
        geonamesid: 615660
        latitude: 41.57389
        longitude: 43.24826
        name: Aspindza
        names_en: 
          - Aspindza
        names_es: ~
        population: 3940
        timezone: Asia/Tbilisi
      - 
        alternate_names: 
          - ADIGENI
          - Adigeni
          - АДИГЕНИ
        ascii_name: Adigeni
        geonamesid: 615973
        latitude: 41.6819
        longitude: 42.69867
        name: Adigeni
        names_en: 
          - Adigeni
        names_es: ~
        population: 1313
        timezone: Asia/Tbilisi
    geonamesid: 865544
    name: Samtskhe-Javakheti
    names_en: ~
    names_es: ~
  - 
    ascii_name: Abkhazia
    cities: 
      - 
        alternate_names: 
          - Akva
          - SUKHUMI
          - Sochumi
          - Sohumi
        ascii_name: Sokhumi
        geonamesid: 611847
        latitude: 43.00697
        longitude: 40.9893
        name: Sokhumi
        names_en: 
          - Sokhumi
          - Sukhumi
        names_es: 
          - Sujumi
        population: 81546
        timezone: Asia/Tbilisi
      - 
        alternate_names: 
          - Gudaut'a
          - Gudauta
          - Gudauti
          - Gudauty
        ascii_name: Gudaut'a
        geonamesid: 614409
        latitude: 43.10547
        longitude: 40.62067
        name: Gudaut’a
        names_en: 
          - Gudaut'a
        names_es: ~
        population: 7700
        timezone: Asia/Tbilisi
      - 
        alternate_names: 
          - GALI
          - Gali
          - ГАЛИ
          - გალი
        ascii_name: Gali
        geonamesid: 614613
        latitude: 42.62655
        longitude: 41.73808
        name: Gali
        names_en: 
          - Gali
        names_es: ~
        population: 11861
        timezone: Asia/Tbilisi
      - 
        alternate_names: 
          - GAGRA
          - Gagra
          - Gagrae
          - Gagri
        ascii_name: Gagra
        geonamesid: 614622
        latitude: 43.30387
        longitude: 40.25614
        name: Gagra
        names_en: 
          - Gagra
        names_es: 
          - Gagra
        population: 8266
        timezone: Asia/Tbilisi
      - 
        alternate_names: 
          - Bichvint'a
          - Bichvinta
          - Bichvint’a
          - Bitchvinta
        ascii_name: Bichvint'a
        geonamesid: 615460
        latitude: 43.16198
        longitude: 40.34102
        name: Bichvint’a
        names_en: 
          - Bichvint'a
          - Pitsunda
        names_es: ~
        population: 8401
        timezone: Asia/Tbilisi
    geonamesid: 6643410
    name: Abkhazia
    names_en: 
      - Abkhazia
    names_es: 
      - Abjasia
