--- 
geonamesid: 1643084
iso: ID
name: Indonesia
names_en: 
  - Indonesia
  - "Republic of Indonesia"
names_es: 
  - Indonesia
regions: 
  - 
    ascii_name: "North Sumatra"
    cities: 
      - 
        alternate_names: 
          - Teloekniboeng
          - "Teluk Nibung"
        ascii_name: "Teluk Nibung"
        geonamesid: 1213493
        latitude: 3.001
        longitude: 99.8164
        name: "Teluk Nibung"
        names_en: ~
        names_es: ~
        population: 25146
        timezone: Asia/Jakarta
      - 
        alternate_names: 
          - Tebingtinggi
        ascii_name: Tebingtinggi
        geonamesid: 1213500
        latitude: 3.3285
        longitude: 99.1625
        name: Tebingtinggi
        names_en: ~
        names_es: ~
        population: 117530
        timezone: Asia/Jakarta
      - 
        alternate_names: 
          - Tandjoengtiram
          - Tandjungtiram
          - Tanjungtiram
        ascii_name: Tanjungtiram
        geonamesid: 1213530
        latitude: 4.0613
        longitude: 98.3699
        name: Tanjungtiram
        names_en: ~
        names_es: ~
        population: 25118
        timezone: Asia/Jakarta
      - 
        alternate_names: 
          - Tandjoengbalai
          - Tandjungbalai
          - Tanjungbalai
        ascii_name: Tanjungbalai
        geonamesid: 1213547
        latitude: 2.96667
        longitude: 99.8
        name: Tanjungbalai
        names_en: ~
        names_es: ~
        population: 142506
        timezone: Asia/Jakarta
      - 
        alternate_names: 
          - Sungal
          - Sunggal
        ascii_name: Sunggal
        geonamesid: 1213614
        latitude: 3.5765
        longitude: 98.6151
        name: Sunggal
        names_en: ~
        names_es: ~
        population: 157914
        timezone: Asia/Jakarta
      - 
        alternate_names: 
          - Stabat
          - Stabatbaru
        ascii_name: Stabat
        geonamesid: 1213655
        latitude: 3.761
        longitude: 98.4513
        name: Stabat
        names_en: ~
        names_es: ~
        population: 26862
        timezone: Asia/Jakarta
      - 
        alternate_names: 
          - "Kota Sibolga"
          - Sibolga
          - Сиболга
        ascii_name: Sibolga
        geonamesid: 1213855
        latitude: 1.7427
        longitude: 98.7792
        name: Sibolga
        names_en: 
          - Sibolga
        names_es: ~
        population: 79714
        timezone: Asia/Jakarta
      - 
        alternate_names: 
          - Rantauprapat
        ascii_name: Rantauprapat
        geonamesid: 1214073
        latitude: 2.1
        longitude: 99.83333
        name: Rantauprapat
        names_en: ~
        names_es: ~
        population: 103009
        timezone: Asia/Jakarta
      - 
        alternate_names: 
          - Percut
          - Pertjoet
          - Pertjut
        ascii_name: Percut
        geonamesid: 1214189
        latitude: 3.6253
        longitude: 98.864
        name: Percut
        names_en: ~
        names_es: ~
        population: 311063
        timezone: Asia/Jakarta
      - 
        alternate_names: 
          - Baoengan
          - Baoengar
          - Baungan
          - Perbaungan
        ascii_name: Perbaungan
        geonamesid: 1214191
        latitude: 3.5679
        longitude: 98.956
        name: Perbaungan
        names_en: ~
        names_es: ~
        population: 157174
        timezone: Asia/Jakarta
      - 
        alternate_names: 
          - Pematangsiantar
          - Pematangsieantar
        ascii_name: Pematangsiantar
        geonamesid: 1214204
        latitude: 2.9595
        longitude: 99.0687
        name: Pematangsiantar
        names_en: ~
        names_es: ~
        population: 209614
        timezone: Asia/Jakarta
      - 
        alternate_names: 
          - "Pangkalan Brandan"
          - Pangkalanberandan
        ascii_name: "Pangkalan Brandan"
        geonamesid: 1214302
        latitude: 4.0238
        longitude: 98.2782
        name: "Pangkalan Brandan"
        names_en: ~
        names_es: ~
        population: 25542
        timezone: Asia/Jakarta
      - 
        alternate_names: 
          - Padangsidempuan
          - Padangsidimpoean
          - Padangsidimpuan
        ascii_name: Padangsidempuan
        geonamesid: 1214369
        latitude: 1.36667
        longitude: 99.26667
        name: Padangsidempuan
        names_en: ~
        names_es: ~
        population: 100561
        timezone: Asia/Jakarta
      - 
        alternate_names: 
          - "Kota Medan"
          - Medan
          - Medana
          - Medanas
        ascii_name: Medan
        geonamesid: 1214520
        latitude: 3.58333
        longitude: 98.66667
        name: Medan
        names_en: 
          - Medan
        names_es: 
          - Medan
        population: 1750971
        timezone: Asia/Jakarta
      - 
        alternate_names: 
          - Deli
          - "Laboean Deli"
          - Laboehan
          - Laboehandeli
        ascii_name: "Labuhan Deli"
        geonamesid: 1214800
        latitude: 3.7278
        longitude: 98.6738
        name: "Labuhan Deli"
        names_en: ~
        names_es: ~
        population: 49668
        timezone: Asia/Jakarta
      - 
        alternate_names: 
          - Kisaran
          - "Kisaran Baru"
        ascii_name: Kisaran
        geonamesid: 1214882
        latitude: 2.9845
        longitude: 99.6158
        name: Kisaran
        names_en: ~
        names_es: ~
        population: 129911
        timezone: Asia/Jakarta
      - 
        alternate_names: 
          - Kabandjahe
          - Kabanjahe
        ascii_name: Kabanjahe
        geonamesid: 1214965
        latitude: 3.1001
        longitude: 98.4908
        name: Kabanjahe
        names_en: ~
        names_es: ~
        population: 57159
        timezone: Asia/Jakarta
      - 
        alternate_names: 
          - "Deli Tua"
          - Delitoea
        ascii_name: "Deli Tua"
        geonamesid: 1215199
        latitude: 3.5078
        longitude: 98.6839
        name: "Deli Tua"
        names_en: ~
        names_es: ~
        population: 27940
        timezone: Asia/Jakarta
      - 
        alternate_names: 
          - Bindjai
          - Bindjei
          - Binjai
          - "Kota Binjai"
        ascii_name: Binjai
        geonamesid: 1215355
        latitude: 3.6001
        longitude: 98.4854
        name: Binjai
        names_en: 
          - Binjai
        names_es: ~
        population: 228763
        timezone: Asia/Jakarta
      - 
        alternate_names: 
          - Belawan
        ascii_name: Belawan
        geonamesid: 1215412
        latitude: 3.7755
        longitude: 98.6832
        name: Belawan
        names_en: ~
        names_es: ~
        population: 102707
        timezone: Asia/Jakarta
      - 
        alternate_names: 
          - "Onan Ganjang"
        ascii_name: "Onan Ganjang"
        geonamesid: 7439770
        latitude: 2.1581
        longitude: 98.6296
        name: "Onan Ganjang"
        names_en: ~
        names_es: ~
        population: 0
        timezone: Asia/Jakarta
    geonamesid: 1213642
    name: "North Sumatra"
    names_en: 
      - "North Sumatra"
    names_es: ~
  - 
    ascii_name: "Provinsi Nanggroe Aceh Darussalam"
    cities: 
      - 
        alternate_names: 
          - Sinabang
        ascii_name: Sinabang
        geonamesid: 1213721
        latitude: 2.4803
        longitude: 96.3801
        name: Sinabang
        names_en: ~
        names_es: ~
        population: 15000
        timezone: Asia/Jakarta
      - 
        alternate_names: 
          - Sigli
        ascii_name: Sigli
        geonamesid: 1213821
        latitude: 5.3848
        longitude: 95.9609
        name: Sigli
        names_en: ~
        names_es: ~
        population: 17504
        timezone: Asia/Jakarta
      - 
        alternate_names: 
          - Sabang
          - Sabong
        ascii_name: Sabang
        geonamesid: 1214026
        latitude: 5.89333
        longitude: 95.32139
        name: Sabang
        names_en: ~
        names_es: ~
        population: 24519
        timezone: Asia/Jakarta
      - 
        alternate_names: 
          - Melabokha
          - Meulaboh
          - Molabo
          - Mölabo 
        ascii_name: Meulaboh
        geonamesid: 1214488
        latitude: 4.1363
        longitude: 96.1285
        name: Meulaboh
        names_en: ~
        names_es: ~
        population: 35062
        timezone: Asia/Pontianak
      - 
        alternate_names: 
          - "Kota Lhokseumawe"
          - Lho'seumawe
          - Lhokseumawe
          - Lhoksumawe
        ascii_name: Lhokseumawe
        geonamesid: 1214658
        latitude: 5.1801
        longitude: 97.1507
        name: Lhokseumawe
        names_en: ~
        names_es: ~
        population: 88974
        timezone: Asia/Jakarta
      - 
        alternate_names: 
          - Langsa
          - Langsar
        ascii_name: Langsa
        geonamesid: 1214724
        latitude: 4.4683
        longitude: 97.9683
        name: Langsa
        names_en: ~
        names_es: ~
        population: 54465
        timezone: Asia/Jakarta
      - 
        alternate_names: 
          - Bireuen
          - Bireun
          - Biroen
          - Biröen 
        ascii_name: Bireun
        geonamesid: 1215350
        latitude: 5.203
        longitude: 96.7009
        name: Bireun
        names_en: ~
        names_es: ~
        population: 25793
        timezone: Asia/Jakarta
      - 
        alternate_names: 
          - Baiturahman
          - "Banda Aceh"
          - "Banda Acehas"
          - "Banda Atjeh"
        ascii_name: "Banda Aceh"
        geonamesid: 1215502
        latitude: 5.5577
        longitude: 95.3222
        name: "Banda Aceh"
        names_en: 
          - "Banda Aceh"
        names_es: 
          - "Banda Aceh"
        population: 250757
        timezone: Asia/Jakarta
    geonamesid: 1215638
    name: Aceh
    names_en: ~
    names_es: ~
  - 
    ascii_name: "Daerah Istimewa Yogyakarta"
    cities: 
      - 
        alternate_names: 
          - "Daerah Istimewa Yogyakarta"
          - Djogjakarta
          - Djokja
          - Djokjakarta
        ascii_name: Yogyakarta
        geonamesid: 1621177
        latitude: -7.78278
        longitude: 110.36083
        name: Yogyakarta
        names_en: ~
        names_es: ~
        population: 636660
        timezone: Asia/Jakarta
      - 
        alternate_names: ~
        ascii_name: Srandakan
        geonamesid: 1626493
        latitude: -7.93861
        longitude: 110.25056
        name: Srandakan
        names_en: ~
        names_es: ~
        population: 29529
        timezone: Asia/Jakarta
      - 
        alternate_names: 
          - Sleman
          - Suleman
        ascii_name: Sleman
        geonamesid: 1626754
        latitude: -7.71556
        longitude: 110.35556
        name: Sleman
        names_en: ~
        names_es: ~
        population: 56215
        timezone: Asia/Jakarta
      - 
        alternate_names: ~
        ascii_name: Sewon
        geonamesid: 1627357
        latitude: -7.87639
        longitude: 110.35889
        name: Sewon
        names_en: ~
        names_es: ~
        population: 73585
        timezone: Asia/Jakarta
      - 
        alternate_names: 
          - Poendoeng
          - Poendong
          - Pundong
          - Pundung
        ascii_name: Pundong
        geonamesid: 1630416
        latitude: -7.95222
        longitude: 110.34861
        name: Pundong
        names_en: ~
        names_es: ~
        population: 24081
        timezone: Asia/Jakarta
      - 
        alternate_names: ~
        ascii_name: Pandak
        geonamesid: 1632861
        latitude: -7.91306
        longitude: 110.29361
        name: Pandak
        names_en: ~
        names_es: ~
        population: 56043
        timezone: Asia/Jakarta
      - 
        alternate_names: 
          - Godean
          - Godejan
        ascii_name: Godean
        geonamesid: 1643981
        latitude: -7.76972
        longitude: 110.29389
        name: Godean
        names_en: ~
        names_es: ~
        population: 63164
        timezone: Asia/Jakarta
      - 
        alternate_names: ~
        ascii_name: Depok
        geonamesid: 1645518
        latitude: -7.7625
        longitude: 110.43167
        name: Depok
        names_en: ~
        names_es: ~
        population: 104527
        timezone: Asia/Jakarta
      - 
        alternate_names: 
          - Bantoel
          - Bantul
        ascii_name: Bantul
        geonamesid: 1650119
        latitude: -7.88806
        longitude: 110.32889
        name: Bantul
        names_en: ~
        names_es: ~
        population: 58653
        timezone: Asia/Jakarta
      - 
        alternate_names: ~
        ascii_name: Wonosari
        geonamesid: 2002872
        latitude: -7.96556
        longitude: 110.60361
        name: Wonosari
        names_en: ~
        names_es: ~
        population: 27458
        timezone: Asia/Jakarta
      - 
        alternate_names: ~
        ascii_name: "Gamping Lor"
        geonamesid: 2005057
        latitude: -7.79556
        longitude: 110.32639
        name: "Gamping Lor"
        names_en: ~
        names_es: ~
        population: 66110
        timezone: Asia/Jakarta
      - 
        alternate_names: ~
        ascii_name: Kasihan
        geonamesid: 2005237
        latitude: -7.82694
        longitude: 110.32917
        name: Kasihan
        names_en: ~
        names_es: ~
        population: 86234
        timezone: Asia/Jakarta
    geonamesid: 1621176
    name: "Daerah Istimewa Yogyakarta"
    names_en: ~
    names_es: ~
  - 
    ascii_name: "South Sumatra"
    cities: 
      - 
        alternate_names: 
          - Peraboemoelih
          - Perabumulih
          - Praboemoelih
          - Prabumuli
        ascii_name: Perabumulih
        geonamesid: 1631393
        latitude: -3.45
        longitude: 104.25
        name: Perabumulih
        names_en: ~
        names_es: ~
        population: 103470
        timezone: Asia/Jakarta
      - 
        alternate_names: 
          - "Kota Palembang"
          - Palembang
          - Palembangas
          - balymbanj
        ascii_name: Palembang
        geonamesid: 1633070
        latitude: -2.91673
        longitude: 104.7458
        name: Palembang
        names_en: 
          - Palembang
        names_es: ~
        population: 1441500
        timezone: Asia/Jakarta
      - 
        alternate_names: 
          - Pagaralam
          - Pageralam
        ascii_name: Pagaralam
        geonamesid: 1633308
        latitude: -4.01667
        longitude: 103.26667
        name: Pagaralam
        names_en: ~
        names_es: ~
        population: 70386
        timezone: Asia/Jakarta
      - 
        alternate_names: 
          - "Kota Lubuklinggau"
          - Loeboeklinggau
          - Lubuklinggao
          - Lubuklinggau
        ascii_name: Lubuklinggau
        geonamesid: 1637158
        latitude: -3.3
        longitude: 102.86667
        name: Lubuklinggau
        names_en: ~
        names_es: ~
        population: 148243
        timezone: Asia/Jakarta
      - 
        alternate_names: ~
        ascii_name: Lahat
        geonamesid: 1638775
        latitude: -3.8
        longitude: 103.53333
        name: Lahat
        names_en: ~
        names_es: ~
        population: 65906
        timezone: Asia/Jakarta
      - 
        alternate_names: 
          - Batoeradja
          - Batoerradja
          - "Batu Radia"
          - Baturadja
        ascii_name: Baturaja
        geonamesid: 1649593
        latitude: -4.13333
        longitude: 104.16667
        name: Baturaja
        names_en: ~
        names_es: ~
        population: 134759
        timezone: Asia/Jakarta
    geonamesid: 1626196
    name: "South Sumatra"
    names_en: 
      - "South Sumatra"
    names_es: ~
  - 
    ascii_name: "West Sumatra"
    cities: 
      - 
        alternate_names: 
          - Tikoe
          - Tiku
        ascii_name: Tiku
        geonamesid: 1213459
        latitude: -0.3958
        longitude: 99.92307
        name: Tiku
        names_en: ~
        names_es: ~
        population: 0
        timezone: Asia/Jakarta
      - 
        alternate_names: 
          - Moearasikabaloean
          - Muarasikabaluan
          - Sikabaluan
        ascii_name: Sikabaluan
        geonamesid: 1214449
        latitude: -1.11961
        longitude: 98.99217
        name: Sikabaluan
        names_en: ~
        names_es: ~
        population: 0
        timezone: Asia/Jakarta
      - 
        alternate_names: 
          - Moearasiberoet
          - Moearasioetort
          - "Muara Siberut"
          - Muarasiberut
        ascii_name: "Muara Siberut"
        geonamesid: 1214451
        latitude: -1.59787
        longitude: 99.21097
        name: "Muara Siberut"
        names_en: ~
        names_es: ~
        population: 0
        timezone: Asia/Jakarta
      - 
        alternate_names: 
          - Tandjungpati
          - Tanjungpati
        ascii_name: Tanjungpati
        geonamesid: 1624873
        latitude: -0.16046
        longitude: 100.67997
        name: Tanjungpati
        names_en: ~
        names_es: ~
        population: 0
        timezone: Asia/Jakarta
      - 
        alternate_names: 
          - Tandjunggadang
          - Tanjunggadang
        ascii_name: Tanjunggadang
        geonamesid: 1624930
        latitude: -0.30126
        longitude: 100.7384
        name: Tanjunggadang
        names_en: ~
        names_es: ~
        population: 0
        timezone: Asia/Jakarta
      - 
        alternate_names: 
          - Talawi
        ascii_name: Talawi
        geonamesid: 1625439
        latitude: -0.59745
        longitude: 100.73979
        name: Talawi
        names_en: ~
        names_es: ~
        population: 0
        timezone: Asia/Jakarta
      - 
        alternate_names: 
          - Tabing
        ascii_name: Tabing
        geonamesid: 1625693
        latitude: -0.87203
        longitude: 100.34279
        name: Tabing
        names_en: ~
        names_es: ~
        population: 0
        timezone: Asia/Jakarta
      - 
        alternate_names: 
          - Soerian
          - Surian
        ascii_name: Surian
        geonamesid: 1625797
        latitude: -1.25587
        longitude: 100.88129
        name: Surian
        names_en: ~
        names_es: ~
        population: 0
        timezone: Asia/Jakarta
      - 
        alternate_names: 
          - Soengailimau
          - Soengeilimau
          - Sungailimau
        ascii_name: Sungailimau
        geonamesid: 1625956
        latitude: -0.51638
        longitude: 100.06171
        name: Sungailimau
        names_en: ~
        names_es: ~
        population: 0
        timezone: Asia/Jakarta
      - 
        alternate_names: 
          - Soelitair
          - Sulitair
        ascii_name: Sulitair
        geonamesid: 1626219
        latitude: -0.61258
        longitude: 100.64788
        name: Sulitair
        names_en: ~
        names_es: ~
        population: 0
        timezone: Asia/Jakarta
      - 
        alternate_names: 
          - Solok
        ascii_name: Solok
        geonamesid: 1626649
        latitude: -0.79183
        longitude: 100.65932
        name: Solok
        names_en: ~
        names_es: ~
        population: 48372
        timezone: Asia/Jakarta
      - 
        alternate_names: 
          - Singkarah
          - Singkarak
        ascii_name: Singkarak
        geonamesid: 1626920
        latitude: -0.69089
        longitude: 100.60335
        name: Singkarak
        names_en: ~
        names_es: ~
        population: 0
        timezone: Asia/Jakarta
      - 
        alternate_names: 
          - Sidjoendioeng
          - Sidjoendjoeng
          - Sidjoengdjoeng
          - Sidjundjung
        ascii_name: Sijunjung
        geonamesid: 1627185
        latitude: -0.68762
        longitude: 100.95365
        name: Sijunjung
        names_en: ~
        names_es: ~
        population: 27786
        timezone: Asia/Jakarta
      - 
        alternate_names: 
          - Sawahloento
          - Sawahlunto
        ascii_name: Sawahlunto
        geonamesid: 1628472
        latitude: -0.67483
        longitude: 100.80715
        name: Sawahlunto
        names_en: ~
        names_es: ~
        population: 0
        timezone: Asia/Jakarta
      - 
        alternate_names: 
          - Saruaso
        ascii_name: Saruaso
        geonamesid: 1628568
        latitude: -0.4831
        longitude: 100.63766
        name: Saruaso
        names_en: ~
        names_es: ~
        population: 0
        timezone: Asia/Jakarta
      - 
        alternate_names: 
          - "Kota Payakumbuh"
          - "Paja Kombo"
          - PajaKumbuh
          - Pajakoemboeh
        ascii_name: Payakumbuh
        geonamesid: 1631905
        latitude: -0.22019
        longitude: 100.63078
        name: Payakumbuh
        names_en: 
          - Payakumbuh
        names_es: ~
        population: 121572
        timezone: Asia/Jakarta
      - 
        alternate_names: 
          - "Pasar Baharoe"
          - Pasarbaroe
          - Pasarbaru
        ascii_name: Pasarbaru
        geonamesid: 1632237
        latitude: -1.3051
        longitude: 100.50995
        name: Pasarbaru
        names_en: ~
        names_es: ~
        population: 0
        timezone: Asia/Jakarta
      - 
        alternate_names: 
          - "Kota Pariaman"
          - Pariaman
        ascii_name: Pariaman
        geonamesid: 1632334
        latitude: -0.61898
        longitude: 100.11997
        name: Pariaman
        names_en: 
          - Pariaman
        names_es: ~
        population: 92183
        timezone: Asia/Jakarta
      - 
        alternate_names: 
          - Palembaian
          - Palembajan
          - Palembayan
        ascii_name: Palembaian
        geonamesid: 1633068
        latitude: -0.18333
        longitude: 100.23333
        name: Palembaian
        names_en: ~
        names_es: ~
        population: 0
        timezone: Asia/Jakarta
      - 
        alternate_names: 
          - Padangpandjang
          - Padangpanjang
          - Pandangrandjang
        ascii_name: Padangpanjang
        geonamesid: 1633375
        latitude: -0.46721
        longitude: 100.40226
        name: Padangpanjang
        names_en: ~
        names_es: ~
        population: 0
        timezone: Asia/Jakarta
      - 
        alternate_names: 
          - "Kota Padang"
          - Padang
          - Паданг
        ascii_name: Padang
        geonamesid: 1633419
        latitude: -0.94924
        longitude: 100.35427
        name: Padang
        names_en: 
          - Padang
        names_es: ~
        population: 840352
        timezone: Asia/Jakarta
      - 
        alternate_names: 
          - Matoer
          - Matur
        ascii_name: Matur
        geonamesid: 1635830
        latitude: -0.27877
        longitude: 100.28802
        name: Matur
        names_en: ~
        names_es: ~
        population: 0
        timezone: Asia/Jakarta
      - 
        alternate_names: 
          - Manindjau
          - Maninjau
          - Maninyau
        ascii_name: Maninjau
        geonamesid: 1636333
        latitude: -0.30059
        longitude: 100.22671
        name: Maninjau
        names_en: ~
        names_es: ~
        population: 0
        timezone: Asia/Jakarta
      - 
        alternate_names: 
          - Lubukbargalung
          - Lubukbergalung
        ascii_name: Lubukbergalung
        geonamesid: 1637193
        latitude: -0.96076
        longitude: 100.40011
        name: Lubukbergalung
        names_en: ~
        names_es: ~
        population: 0
        timezone: Asia/Jakarta
      - 
        alternate_names: 
          - Loeboekaloeng
          - Lubukalung
        ascii_name: Lubukalung
        geonamesid: 1637197
        latitude: -0.68321
        longitude: 100.31856
        name: Lubukalung
        names_en: ~
        names_es: ~
        population: 0
        timezone: Asia/Jakarta
      - 
        alternate_names: 
          - Bukittinggi
          - "Fort de Kock"
          - "Fort de Rock"
          - "Kota Bukittinggi"
        ascii_name: Bukittinggi
        geonamesid: 1647866
        latitude: -0.30907
        longitude: 100.37055
        name: Bukittinggi
        names_en: 
          - Bukittinggi
        names_es: 
          - Bukittinggi
        population: 98746
        timezone: Asia/Jakarta
      - 
        alternate_names: 
          - Bondjol
          - Bonjol
        ascii_name: Bonjol
        geonamesid: 1648197
        latitude: -0.01785
        longitude: 100.22748
        name: Bonjol
        names_en: ~
        names_es: ~
        population: 0
        timezone: Asia/Jakarta
      - 
        alternate_names: 
          - Batusangkar
          - "Fort Van Der Capellen"
        ascii_name: Batusangkar
        geonamesid: 1649575
        latitude: -0.45624
        longitude: 100.6268
        name: Batusangkar
        names_en: ~
        names_es: ~
        population: 0
        timezone: Asia/Jakarta
      - 
        alternate_names: 
          - Baso
        ascii_name: Baso
        geonamesid: 1649904
        latitude: -0.28067
        longitude: 100.45362
        name: Baso
        names_en: ~
        names_es: ~
        population: 0
        timezone: Asia/Jakarta
      - 
        alternate_names: 
          - Alahanpandgan
          - Alahanpandjang
          - Alahanpanjang
        ascii_name: Alahanpanjang
        geonamesid: 1651678
        latitude: -1.07491
        longitude: 100.79354
        name: Alahanpanjang
        names_en: ~
        names_es: ~
        population: 0
        timezone: Asia/Jakarta
      - 
        alternate_names: 
          - Pauhambar
        ascii_name: Pauhambar
        geonamesid: 7102417
        latitude: -0.65536
        longitude: 100.21279
        name: Pauhambar
        names_en: ~
        names_es: ~
        population: 0
        timezone: Asia/Jakarta
      - 
        alternate_names: 
          - Lubukalung
        ascii_name: Lubukalung
        geonamesid: 7102427
        latitude: -0.68624
        longitude: 100.28613
        name: Lubukalung
        names_en: ~
        names_es: ~
        population: 0
        timezone: Asia/Jakarta
      - 
        alternate_names: 
          - Sungaisarik
        ascii_name: Sungaisarik
        geonamesid: 7102451
        latitude: -0.57358
        longitude: 100.22464
        name: Sungaisarik
        names_en: ~
        names_es: ~
        population: 0
        timezone: Asia/Jakarta
      - 
        alternate_names: 
          - Kampungladang
        ascii_name: Kampungladang
        geonamesid: 7102453
        latitude: -0.54192
        longitude: 100.17044
        name: Kampungladang
        names_en: ~
        names_es: ~
        population: 0
        timezone: Asia/Jakarta
      - 
        alternate_names: 
          - Kotatua
        ascii_name: Kotatua
        geonamesid: 7102625
        latitude: -0.34514
        longitude: 100.36241
        name: Kotatua
        names_en: ~
        names_es: ~
        population: 0
        timezone: Asia/Jakarta
      - 
        alternate_names: 
          - Guguk
        ascii_name: Guguk
        geonamesid: 7103970
        latitude: -0.14148
        longitude: 100.56508
        name: Guguk
        names_en: ~
        names_es: ~
        population: 0
        timezone: Asia/Jakarta
      - 
        alternate_names: 
          - Salimpaung
        ascii_name: Salimpaung
        geonamesid: 7104034
        latitude: -0.3523
        longitude: 100.54884
        name: Salimpaung
        names_en: ~
        names_es: ~
        population: 0
        timezone: Asia/Jakarta
      - 
        alternate_names: 
          - Sungayang
        ascii_name: Sungayang
        geonamesid: 7104044
        latitude: -0.40756
        longitude: 100.59718
        name: Sungayang
        names_en: ~
        names_es: ~
        population: 0
        timezone: Asia/Jakarta
      - 
        alternate_names: 
          - Simabur
        ascii_name: Simabur
        geonamesid: 7104050
        latitude: -0.46448
        longitude: 100.52817
        name: Simabur
        names_en: ~
        names_es: ~
        population: 0
        timezone: Asia/Jakarta
      - 
        alternate_names: 
          - Rambatan
        ascii_name: Rambatan
        geonamesid: 7104055
        latitude: -0.49214
        longitude: 100.54544
        name: Rambatan
        names_en: ~
        names_es: ~
        population: 0
        timezone: Asia/Jakarta
      - 
        alternate_names: 
          - "Gunung Talang"
        ascii_name: "Gunung Talang"
        geonamesid: 7104136
        latitude: -0.90566
        longitude: 100.62709
        name: "Gunung Talang"
        names_en: ~
        names_es: ~
        population: 0
        timezone: Asia/Jakarta
      - 
        alternate_names: 
          - Kumanis
        ascii_name: Kumanis
        geonamesid: 7104187
        latitude: -0.5371
        longitude: 100.80485
        name: Kumanis
        names_en: ~
        names_es: ~
        population: 0
        timezone: Asia/Jakarta
      - 
        alternate_names: 
          - Tanjungampalu
        ascii_name: Tanjungampalu
        geonamesid: 7104203
        latitude: -0.63864
        longitude: 100.8281
        name: Tanjungampalu
        names_en: ~
        names_es: ~
        population: 0
        timezone: Asia/Jakarta
      - 
        alternate_names: 
          - Kototujuh
        ascii_name: Kototujuh
        geonamesid: 7104206
        latitude: -0.64186
        longitude: 100.91763
        name: Kototujuh
        names_en: ~
        names_es: ~
        population: 0
        timezone: Asia/Jakarta
      - 
        alternate_names: 
          - Sirukam
        ascii_name: Sirukam
        geonamesid: 7104261
        latitude: -0.88711
        longitude: 100.7595
        name: Sirukam
        names_en: ~
        names_es: ~
        population: 0
        timezone: Asia/Jakarta
      - 
        alternate_names: 
          - Painan
        ascii_name: Painan
        geonamesid: 7104275
        latitude: -1.35172
        longitude: 100.57383
        name: Painan
        names_en: ~
        names_es: ~
        population: 0
        timezone: Asia/Jakarta
      - 
        alternate_names: 
          - "Tanjung Mas"
        ascii_name: "Tanjung Mas"
        geonamesid: 7104357
        latitude: -0.49128
        longitude: 100.75411
        name: "Tanjung Mas"
        names_en: ~
        names_es: ~
        population: 0
        timezone: Asia/Jakarta
    geonamesid: 1626197
    name: "West Sumatra"
    names_en: 
      - "West Sumatra"
    names_es: ~
  - 
    ascii_name: "North Sulawesi"
    cities: 
      - 
        alternate_names: 
          - Tondano
        ascii_name: Tondano
        geonamesid: 1623424
        latitude: 1.3038
        longitude: 124.9112
        name: Tondano
        names_en: ~
        names_es: ~
        population: 33317
        timezone: Asia/Makassar
      - 
        alternate_names: 
          - Tomohon
        ascii_name: Tomohon
        geonamesid: 1623446
        latitude: 1.3346
        longitude: 124.8392
        name: Tomohon
        names_en: ~
        names_es: ~
        population: 27624
        timezone: Asia/Makassar
      - 
        alternate_names: 
          - Pimpi
        ascii_name: Pimpi
        geonamesid: 1631152
        latitude: 0.8825
        longitude: 123.5502
        name: Pimpi
        names_en: ~
        names_es: ~
        population: 0
        timezone: Asia/Makassar
      - 
        alternate_names: 
          - Pasi
          - Passi
        ascii_name: Passi
        geonamesid: 1632189
        latitude: 0.7655
        longitude: 124.2982
        name: Passi
        names_en: ~
        names_es: ~
        population: 0
        timezone: Asia/Makassar
      - 
        alternate_names: 
          - Malibagu
          - Molibagoe
          - Molibagu
          - Molobagoe
        ascii_name: Molibagu
        geonamesid: 1635087
        latitude: 0.3862
        longitude: 123.9824
        name: Molibagu
        names_en: ~
        names_es: ~
        population: 0
        timezone: Asia/Makassar
      - 
        alternate_names: 
          - "Kota Manado"
          - Manado
          - Menado
          - meunado
        ascii_name: Manado
        geonamesid: 1636544
        latitude: 1.487
        longitude: 124.8455
        name: Manado
        names_en: 
          - Manado
        names_es: ~
        population: 451893
        timezone: Asia/Makassar
      - 
        alternate_names: 
          - Lolak
        ascii_name: Lolak
        geonamesid: 1637426
        latitude: 0.8755
        longitude: 124.0098
        name: Lolak
        names_en: ~
        names_es: ~
        population: 0
        timezone: Asia/Makassar
      - 
        alternate_names: 
          - Deikit
          - "Laikit 1"
          - "Laikit Dimembe"
          - "Laikit Matungkas"
        ascii_name: "Laikit, Laikit II (Dimembe)"
        geonamesid: 1638754
        latitude: 1.48833
        longitude: 124.97444
        name: "Laikit, Laikit II (Dimembe)"
        names_en: ~
        names_es: ~
        population: 8000
        timezone: Asia/Makassar
      - 
        alternate_names: 
          - Kotamobago
          - Kotamobagoe
          - Kotamobagu
          - Kotamobogoe
        ascii_name: Kotamobagu
        geonamesid: 1639500
        latitude: 0.7416
        longitude: 124.3124
        name: Kotamobagu
        names_en: ~
        names_es: ~
        population: 0
        timezone: Asia/Makassar
      - 
        alternate_names: 
          - Doemoega-besar
          - Doemoga
          - Dumoga
          - "Dumoga Besar"
        ascii_name: Dumoga
        geonamesid: 1645124
        latitude: 0.6096
        longitude: 124.0826
        name: Dumoga
        names_en: ~
        names_es: ~
        population: 0
        timezone: Asia/Makassar
      - 
        alternate_names: 
          - Boroko
        ascii_name: Boroko
        geonamesid: 1648140
        latitude: 0.9083
        longitude: 123.2679
        name: Boroko
        names_en: ~
        names_es: ~
        population: 0
        timezone: Asia/Makassar
      - 
        alternate_names: 
          - Bolaang
          - "Bolaang Mongondow"
          - Bolaangmongondou
          - Bolang
        ascii_name: Bolaang
        geonamesid: 1648340
        latitude: 0.9411
        longitude: 124.1556
        name: Bolaang
        names_en: ~
        names_es: ~
        population: 0
        timezone: Asia/Makassar
      - 
        alternate_names: 
          - Bolaangitam
          - Bolaangitang
          - Bolangitang
          - Bolaängitang
        ascii_name: Bolangitang
        geonamesid: 1648342
        latitude: 0.9068
        longitude: 123.3067
        name: Bolangitang
        names_en: ~
        names_es: ~
        population: 0
        timezone: Asia/Makassar
      - 
        alternate_names: 
          - Bitoeng
          - Bitung
          - "Kota Bitung"
        ascii_name: Bitung
        geonamesid: 1648636
        latitude: 1.4451
        longitude: 125.1824
        name: Bitung
        names_en: ~
        names_es: ~
        population: 137364
        timezone: Asia/Makassar
      - 
        alternate_names: 
          - Tompasobaru
          - Topmposo
        ascii_name: Tompasobaru
        geonamesid: 1967939
        latitude: 0.9202
        longitude: 124.4689
        name: Tompasobaru
        names_en: ~
        names_es: ~
        population: 0
        timezone: Asia/Makassar
      - 
        alternate_names: 
          - Modajag
          - Modayag
        ascii_name: Modayag
        geonamesid: 1980981
        latitude: 0.7105
        longitude: 124.3838
        name: Modayag
        names_en: ~
        names_es: ~
        population: 0
        timezone: Asia/Makassar
      - 
        alternate_names: 
          - Lolayan
        ascii_name: Lolayan
        geonamesid: 7030632
        latitude: 0.646
        longitude: 124.3074
        name: Lolayan
        names_en: ~
        names_es: ~
        population: 0
        timezone: Asia/Makassar
      - 
        alternate_names: 
          - Poigar
        ascii_name: Poigar
        geonamesid: 7031025
        latitude: 0.9957
        longitude: 124.2827
        name: Poigar
        names_en: ~
        names_es: ~
        population: 0
        timezone: Asia/Makassar
    geonamesid: 1626229
    name: "North Sulawesi"
    names_en: 
      - "North Sulawesi"
    names_es: ~
  - 
    ascii_name: "Provinsi Sulawesi Tenggara"
    cities: 
      - 
        alternate_names: 
          - Lasoeasoea
          - Lasusua
          - Soesoea
          - Susua
        ascii_name: Lasusua
        geonamesid: 1625776
        latitude: -3.5105
        longitude: 120.8844
        name: Lasusua
        names_en: ~
        names_es: ~
        population: 0
        timezone: Asia/Makassar
      - 
        alternate_names: 
          - Lasahaoe
          - Lasahau
          - Lasehao
          - Laseheo
        ascii_name: Lasehao
        geonamesid: 1638359
        latitude: -5.0068
        longitude: 122.4943
        name: Lasehao
        names_en: ~
        names_es: ~
        population: 0
        timezone: Asia/Makassar
      - 
        alternate_names: 
          - "Kabupaten Konawe"
          - Kendari
        ascii_name: Kendari
        geonamesid: 1640344
        latitude: -3.945
        longitude: 122.49889
        name: Kendari
        names_en: 
          - Kendari
        names_es: 
          - Kendari
        population: 195006
        timezone: Asia/Makassar
      - 
        alternate_names: 
          - Kahoboe
          - Kataboe
        ascii_name: Katabu
        geonamesid: 1640972
        latitude: -4.9333
        longitude: 122.5167
        name: Katabu
        names_en: ~
        names_es: ~
        population: 42750
        timezone: Asia/Makassar
      - 
        alternate_names: ~
        ascii_name: Unaaha
        geonamesid: 1974329
        latitude: -3.8539
        longitude: 122.042
        name: Unaaha
        names_en: ~
        names_es: ~
        population: 0
        timezone: Asia/Makassar
    geonamesid: 1626230
    name: "Sulawesi Tenggara"
    names_en: ~
    names_es: ~
  - 
    ascii_name: "Central Sulawesi"
    cities: 
      - 
        alternate_names: 
          - Baru
          - Kampoengbaroe
          - Kampungbaru
          - Tolitoli
        ascii_name: Tolitoli
        geonamesid: 1623502
        latitude: 1.0392
        longitude: 120.8169
        name: Tolitoli
        names_en: ~
        names_es: ~
        population: 0
        timezone: Asia/Makassar
      - 
        alternate_names: 
          - Tinabogan
          - Tinabogang
        ascii_name: Tinabogan
        geonamesid: 1623822
        latitude: 0.7823
        longitude: 120.5264
        name: Tinabogan
        names_en: ~
        names_es: ~
        population: 0
        timezone: Asia/Makassar
      - 
        alternate_names: 
          - Tagoloe
          - Tagolu
          - Togoloe
          - Togolu
        ascii_name: Tagolu
        geonamesid: 1625609
        latitude: -1.4393
        longitude: 120.7731
        name: Tagolu
        names_en: ~
        names_es: ~
        population: 0
        timezone: Asia/Makassar
      - 
        alternate_names: 
          - Poso
          - Posso
          - Посо
        ascii_name: Poso
        geonamesid: 1630723
        latitude: -1.3959
        longitude: 120.7524
        name: Poso
        names_en: ~
        names_es: ~
        population: 47110
        timezone: Asia/Makassar
      - 
        alternate_names: 
          - Pendolo
          - Pindblo
          - Pindolo
        ascii_name: Pendolo
        geonamesid: 1631552
        latitude: -2.0746
        longitude: 120.6851
        name: Pendolo
        names_en: ~
        names_es: ~
        population: 0
        timezone: Asia/Makassar
      - 
        alternate_names: 
          - "Kabupaten Poso"
          - "Kota Palu"
          - Pal
          - Paloe
        ascii_name: Palu
        geonamesid: 1633034
        latitude: -0.8917
        longitude: 119.8707
        name: Palu
        names_en: 
          - Palu
        names_es: ~
        population: 282431
        timezone: Asia/Makassar
      - 
        alternate_names: 
          - Loewoek
          - Luwuk
        ascii_name: Luwuk
        geonamesid: 1637001
        latitude: -0.9516
        longitude: 122.7875
        name: Luwuk
        names_en: ~
        names_es: ~
        population: 47778
        timezone: Asia/Makassar
      - 
        alternate_names: 
          - Kasigoentjoe
          - Kasiguncu
          - Kasiguntju
        ascii_name: Kasiguncu
        geonamesid: 1641017
        latitude: -1.42114
        longitude: 120.6554
        name: Kasiguncu
        names_en: ~
        names_es: ~
        population: 0
        timezone: Asia/Makassar
      - 
        alternate_names: 
          - Bonobogoe
          - Bonobogu
          - Bunobogu
        ascii_name: Bunobogu
        geonamesid: 1648194
        latitude: 1.0407
        longitude: 121.6126
        name: Bunobogu
        names_en: ~
        names_es: ~
        population: 0
        timezone: Asia/Makassar
      - 
        alternate_names: 
          - Bokat
        ascii_name: Bokat
        geonamesid: 1648362
        latitude: 1.0871
        longitude: 121.505
        name: Bokat
        names_en: ~
        names_es: ~
        population: 0
        timezone: Asia/Makassar
      - 
        alternate_names: 
          - Kali
        ascii_name: Kali
        geonamesid: 1966827
        latitude: 1.1627
        longitude: 121.4278
        name: Kali
        names_en: ~
        names_es: ~
        population: 0
        timezone: Asia/Makassar
      - 
        alternate_names: 
          - Lamadong
        ascii_name: Lamadong
        geonamesid: 1966830
        latitude: 1.1175
        longitude: 121.4142
        name: Lamadong
        names_en: ~
        names_es: ~
        population: 0
        timezone: Asia/Makassar
      - 
        alternate_names: 
          - Ogotua
        ascii_name: Ogotua
        geonamesid: 1967607
        latitude: 0.9596
        longitude: 120.2642
        name: Ogotua
        names_en: ~
        names_es: ~
        population: 0
        timezone: Asia/Makassar
    geonamesid: 1626231
    name: "Central Sulawesi"
    names_en: 
      - "Central Sulawesi"
    names_es: ~
  - 
    ascii_name: "South Sulawesi"
    cities: 
      - 
        alternate_names: 
          - Wotoe
          - Wotu
        ascii_name: Wotu
        geonamesid: 1621337
        latitude: -2.5906
        longitude: 120.804
        name: Wotu
        names_en: ~
        names_es: ~
        population: 0
        timezone: Asia/Makassar
      - 
        alternate_names: 
          - Wonoredjo
          - Wonorejo
        ascii_name: Wonorejo
        geonamesid: 1621415
        latitude: -2.4937
        longitude: 120.8126
        name: Wonorejo
        names_en: ~
        names_es: ~
        population: 0
        timezone: Asia/Makassar
      - 
        alternate_names: 
          - Bone
          - Boni
          - Watampone
        ascii_name: Watampone
        geonamesid: 1621884
        latitude: -4.5386
        longitude: 120.3279
        name: Watampone
        names_en: ~
        names_es: ~
        population: 81629
        timezone: Asia/Makassar
      - 
        alternate_names: 
          - Djumpandang
          - "Kota Makassar"
          - Macassar
          - Makasar
        ascii_name: Makassar
        geonamesid: 1622786
        latitude: -5.14
        longitude: 119.4221
        name: Makassar
        names_en: 
          - Makassar
        names_es: 
          - Makassar
        population: 1321717
        timezone: Asia/Makassar
      - 
        alternate_names: 
          - Taccipi
          - Tacipi
          - Taljipi
          - Tatjip
        ascii_name: Taccipi
        geonamesid: 1625659
        latitude: -4.5066
        longitude: 120.1842
        name: Taccipi
        names_en: ~
        names_es: ~
        population: 0
        timezone: Asia/Makassar
      - 
        alternate_names: 
          - Siwa
        ascii_name: Siwa
        geonamesid: 1626782
        latitude: -3.6999
        longitude: 120.4156
        name: Siwa
        names_en: ~
        names_es: ~
        population: 0
        timezone: Asia/Makassar
      - 
        alternate_names: 
          - Sindjai
          - Sinjai
          - Sinjay
        ascii_name: Sinjai
        geonamesid: 1626895
        latitude: -5.1241
        longitude: 120.253
        name: Sinjai
        names_en: ~
        names_es: ~
        population: 40797
        timezone: Asia/Makassar
      - 
        alternate_names: 
          - Sengkang
          - Singkang
        ascii_name: Sengkang
        geonamesid: 1626921
        latitude: -4.1279
        longitude: 120.0297
        name: Sengkang
        names_en: ~
        names_es: ~
        population: 59523
        timezone: Asia/Makassar
      - 
        alternate_names: 
          - Rapang
          - Rappang
        ascii_name: Rappang
        geonamesid: 1629965
        latitude: -3.8445
        longitude: 119.8173
        name: Rappang
        names_en: ~
        names_es: ~
        population: 0
        timezone: Asia/Makassar
      - 
        alternate_names: 
          - Rantepao
        ascii_name: Rantepao
        geonamesid: 1629974
        latitude: -2.9701
        longitude: 119.8978
        name: Rantepao
        names_en: ~
        names_es: ~
        population: 40438
        timezone: Asia/Makassar
      - 
        alternate_names: ~
        ascii_name: Pinrang
        geonamesid: 1631103
        latitude: -3.78611
        longitude: 119.65222
        name: Pinrang
        names_en: ~
        names_es: ~
        population: 0
        timezone: Asia/Makassar
      - 
        alternate_names: 
          - Pangkadjene
          - Pangkajene
        ascii_name: Pangkajene
        geonamesid: 1632724
        latitude: -4.8372
        longitude: 119.5472
        name: Pangkajene
        names_en: ~
        names_es: ~
        population: 0
        timezone: Asia/Makassar
      - 
        alternate_names: 
          - Pampamua
          - Pampanoea
          - Pampanua
          - Pompanoea
        ascii_name: Pompanua
        geonamesid: 1632948
        latitude: -4.2254
        longitude: 120.1484
        name: Pompanua
        names_en: ~
        names_es: ~
        population: 0
        timezone: Asia/Makassar
      - 
        alternate_names: 
          - Palatae
          - Palattae
        ascii_name: Palattae
        geonamesid: 1633094
        latitude: -4.9711
        longitude: 120.1127
        name: Palattae
        names_en: ~
        names_es: ~
        population: 0
        timezone: Asia/Makassar
      - 
        alternate_names: 
          - Palaka
          - Palakka
        ascii_name: Palakka
        geonamesid: 1633133
        latitude: -4.5313
        longitude: 120.2892
        name: Palakka
        names_en: ~
        names_es: ~
        population: 0
        timezone: Asia/Makassar
      - 
        alternate_names: 
          - Masamba
          - Masambe
        ascii_name: Masamba
        geonamesid: 1635984
        latitude: -2.5537
        longitude: 120.3279
        name: Masamba
        names_en: ~
        names_es: ~
        population: 0
        timezone: Asia/Makassar
      - 
        alternate_names: 
          - Boeakajoe
          - Buakayu
          - Maroang
          - Maroangin
        ascii_name: Buakayu
        geonamesid: 1636045
        latitude: -3.1995
        longitude: 119.7232
        name: Buakayu
        names_en: ~
        names_es: ~
        population: 0
        timezone: Asia/Makassar
      - 
        alternate_names: 
          - Mangkoetana
          - Mangkutana
          - Moengkotna
        ascii_name: Mangkutana
        geonamesid: 1636367
        latitude: -2.4894
        longitude: 120.812
        name: Mangkutana
        names_en: ~
        names_es: ~
        population: 0
        timezone: Asia/Makassar
      - 
        alternate_names: 
          - Malili
        ascii_name: Malili
        geonamesid: 1636663
        latitude: -2.6351
        longitude: 121.0948
        name: Malili
        names_en: ~
        names_es: ~
        population: 0
        timezone: Asia/Makassar
      - 
        alternate_names: 
          - Makaie
          - Makale
        ascii_name: Makale
        geonamesid: 1636798
        latitude: -3.1019
        longitude: 119.8539
        name: Makale
        names_en: ~
        names_es: ~
        population: 0
        timezone: Asia/Makassar
      - 
        alternate_names: 
          - Larompong
        ascii_name: Larompong
        geonamesid: 1638368
        latitude: -3.515
        longitude: 120.3704
        name: Larompong
        names_en: ~
        names_es: ~
        population: 0
        timezone: Asia/Makassar
      - 
        alternate_names: 
          - Langa
          - Langga
          - Langnga
        ascii_name: Langnga
        geonamesid: 1638490
        latitude: -3.8459
        longitude: 119.5222
        name: Langnga
        names_en: ~
        names_es: ~
        population: 0
        timezone: Asia/Makassar
      - 
        alternate_names: 
          - Djalang
          - Djaling
          - Jalang
          - Jaling
        ascii_name: Jalang
        geonamesid: 1642892
        latitude: -4.0383
        longitude: 120.3216
        name: Jalang
        names_en: ~
        names_es: ~
        population: 0
        timezone: Asia/Makassar
      - 
        alternate_names: 
          - Galesong
        ascii_name: Galesong
        geonamesid: 1644605
        latitude: -5.3166
        longitude: 119.3661
        name: Galesong
        names_en: ~
        names_es: ~
        population: 83050
        timezone: Asia/Makassar
      - 
        alternate_names: 
          - Caming
          - Camming
          - Tjaming
        ascii_name: Camming
        geonamesid: 1647394
        latitude: -4.8118
        longitude: 120.0771
        name: Camming
        names_en: ~
        names_es: ~
        population: 0
        timezone: Asia/Makassar
      - 
        alternate_names: 
          - Cakka
          - Cakke
        ascii_name: Cakke
        geonamesid: 1647419
        latitude: -3.4101
        longitude: 119.7985
        name: Cakke
        names_en: ~
        names_es: ~
        population: 0
        timezone: Asia/Makassar
      - 
        alternate_names: 
          - Bone
          - "Bone 2"
          - Bonebae
          - Bonebone
        ascii_name: Bonebone
        geonamesid: 1648248
        latitude: -2.6005
        longitude: 120.5195
        name: Bonebone
        names_en: ~
        names_es: ~
        population: 0
        timezone: Asia/Makassar
      - 
        alternate_names: 
          - Belopa
        ascii_name: Belopa
        geonamesid: 1649267
        latitude: -3.3849
        longitude: 120.3676
        name: Belopa
        names_en: ~
        names_es: ~
        population: 0
        timezone: Asia/Makassar
      - 
        alternate_names: 
          - Badjo
          - Bajo
        ascii_name: Bajo
        geonamesid: 1650716
        latitude: -3.3788
        longitude: 120.3102
        name: Bajo
        names_en: ~
        names_es: ~
        population: 0
        timezone: Asia/Makassar
      - 
        alternate_names: 
          - Rantepang
        ascii_name: Rantepang
        geonamesid: 1968971
        latitude: -2.9252
        longitude: 119.9413
        name: Rantepang
        names_en: ~
        names_es: ~
        population: 0
        timezone: Asia/Makassar
      - 
        alternate_names: 
          - Rindingallo
        ascii_name: Rindingallo
        geonamesid: 1969003
        latitude: -2.8979
        longitude: 119.8138
        name: Rindingallo
        names_en: ~
        names_es: ~
        population: 0
        timezone: Asia/Makassar
      - 
        alternate_names: 
          - Sukamaju
        ascii_name: Sukamaju
        geonamesid: 1969268
        latitude: -2.6098
        longitude: 120.4664
        name: Sukamaju
        names_en: ~
        names_es: ~
        population: 0
        timezone: Asia/Makassar
      - 
        alternate_names: 
          - Lamasi
        ascii_name: Lamasi
        geonamesid: 1969335
        latitude: -2.8166
        longitude: 120.1763
        name: Lamasi
        names_en: ~
        names_es: ~
        population: 0
        timezone: Asia/Makassar
      - 
        alternate_names: 
          - Walenrang
        ascii_name: Walenrang
        geonamesid: 1969339
        latitude: -2.8417
        longitude: 120.1222
        name: Walenrang
        names_en: ~
        names_es: ~
        population: 0
        timezone: Asia/Makassar
      - 
        alternate_names: 
          - Lampa
        ascii_name: Lampa
        geonamesid: 1969637
        latitude: -3.6634
        longitude: 119.5334
        name: Lampa
        names_en: ~
        names_es: ~
        population: 0
        timezone: Asia/Makassar
      - 
        alternate_names: 
          - Majennang
        ascii_name: Majennang
        geonamesid: 1969668
        latitude: -3.9728
        longitude: 119.6091
        name: Majennang
        names_en: ~
        names_es: ~
        population: 0
        timezone: Asia/Makassar
      - 
        alternate_names: 
          - Uluale
        ascii_name: Uluale
        geonamesid: 1969674
        latitude: -3.9072
        longitude: 119.7441
        name: Uluale
        names_en: ~
        names_es: ~
        population: 0
        timezone: Asia/Makassar
      - 
        alternate_names: 
          - Amparita
        ascii_name: Amparita
        geonamesid: 1969684
        latitude: -3.9937
        longitude: 119.8122
        name: Amparita
        names_en: ~
        names_es: ~
        population: 0
        timezone: Asia/Makassar
      - 
        alternate_names: 
          - Sidenreng
        ascii_name: Sidenreng
        geonamesid: 1969686
        latitude: -3.92753
        longitude: 119.7993
        name: Sidenreng
        names_en: ~
        names_es: ~
        population: 0
        timezone: Asia/Makassar
      - 
        alternate_names: 
          - Baranti
        ascii_name: Baranti
        geonamesid: 1969717
        latitude: -3.8398
        longitude: 119.7838
        name: Baranti
        names_en: ~
        names_es: ~
        population: 0
        timezone: Asia/Makassar
      - 
        alternate_names: 
          - Teppo
        ascii_name: Teppo
        geonamesid: 1969733
        latitude: -3.7065
        longitude: 119.67
        name: Teppo
        names_en: ~
        names_es: ~
        population: 0
        timezone: Asia/Makassar
      - 
        alternate_names: 
          - Baraka
        ascii_name: Baraka
        geonamesid: 1969795
        latitude: -3.4079
        longitude: 119.8559
        name: Baraka
        names_en: ~
        names_es: ~
        population: 0
        timezone: Asia/Makassar
      - 
        alternate_names: 
          - Getengan
        ascii_name: Getengan
        geonamesid: 1969826
        latitude: -3.1813
        longitude: 119.8839
        name: Getengan
        names_en: ~
        names_es: ~
        population: 0
        timezone: Asia/Makassar
      - 
        alternate_names: 
          - Beringinjaya
        ascii_name: Beringinjaya
        geonamesid: 1973692
        latitude: -3.0072
        longitude: 120.2057
        name: Beringinjaya
        names_en: ~
        names_es: ~
        population: 0
        timezone: Asia/Makassar
      - 
        alternate_names: 
          - Beuma
        ascii_name: Beuma
        geonamesid: 1973714
        latitude: -3.2115
        longitude: 120.0527
        name: Beuma
        names_en: ~
        names_es: ~
        population: 0
        timezone: Asia/Makassar
      - 
        alternate_names: 
          - Padangsappa
        ascii_name: Padangsappa
        geonamesid: 1973733
        latitude: -3.2347
        longitude: 120.3005
        name: Padangsappa
        names_en: ~
        names_es: ~
        population: 0
        timezone: Asia/Makassar
      - 
        alternate_names: 
          - Lempokasi
        ascii_name: Lempokasi
        geonamesid: 1973780
        latitude: -3.4557
        longitude: 120.3661
        name: Lempokasi
        names_en: ~
        names_es: ~
        population: 0
        timezone: Asia/Makassar
      - 
        alternate_names: 
          - Tancung
        ascii_name: Tancung
        geonamesid: 1975225
        latitude: -4.0525
        longitude: 120.0288
        name: Tancung
        names_en: ~
        names_es: ~
        population: 0
        timezone: Asia/Makassar
      - 
        alternate_names: 
          - Maroanging
        ascii_name: Maroanging
        geonamesid: 1975323
        latitude: -4.1961
        longitude: 120.0984
        name: Maroanging
        names_en: ~
        names_es: ~
        population: 0
        timezone: Asia/Makassar
      - 
        alternate_names: 
          - Kotabaru
        ascii_name: Kotabaru
        geonamesid: 1975344
        latitude: -4.2137
        longitude: 120.0096
        name: Kotabaru
        names_en: ~
        names_es: ~
        population: 0
        timezone: Asia/Makassar
      - 
        alternate_names: 
          - Matango
        ascii_name: Matango
        geonamesid: 1975600
        latitude: -4.6619
        longitude: 120.014
        name: Matango
        names_en: ~
        names_es: ~
        population: 0
        timezone: Asia/Makassar
      - 
        alternate_names: 
          - Apala
        ascii_name: Apala
        geonamesid: 1975643
        latitude: -4.6125
        longitude: 120.3136
        name: Apala
        names_en: ~
        names_es: ~
        population: 0
        timezone: Asia/Makassar
      - 
        alternate_names: 
          - Kadai
        ascii_name: Kadai
        geonamesid: 1975740
        latitude: -4.8083
        longitude: 120.3423
        name: Kadai
        names_en: ~
        names_es: ~
        population: 0
        timezone: Asia/Makassar
      - 
        alternate_names: 
          - Bulubulu
        ascii_name: Bulubulu
        geonamesid: 1975859
        latitude: -4.9127
        longitude: 120.2817
        name: Bulubulu
        names_en: ~
        names_es: ~
        population: 0
        timezone: Asia/Makassar
      - 
        alternate_names: 
          - Batuputih
        ascii_name: Batuputih
        geonamesid: 1982200
        latitude: -2.9582
        longitude: 120.181
        name: Batuputih
        names_en: ~
        names_es: ~
        population: 0
        timezone: Asia/Makassar
      - 
        alternate_names: 
          - Tangratte
        ascii_name: Tangratte
        geonamesid: 7385748
        latitude: -3.0497
        longitude: 119.7643
        name: Tangratte
        names_en: ~
        names_es: ~
        population: 0
        timezone: Asia/Makassar
      - 
        alternate_names: 
          - Totumbang
        ascii_name: Totumbang
        geonamesid: 7385892
        latitude: -3.0779
        longitude: 119.9211
        name: Totumbang
        names_en: ~
        names_es: ~
        population: 0
        timezone: Asia/Makassar
      - 
        alternate_names: 
          - "Cempa Pasar"
        ascii_name: "Cempa Pasar"
        geonamesid: 7530293
        latitude: -3.7486
        longitude: 119.5842
        name: "Cempa Pasar"
        names_en: ~
        names_es: ~
        population: 0
        timezone: Asia/Makassar
      - 
        alternate_names: 
          - Harapankarya
        ascii_name: Harapankarya
        geonamesid: 7589098
        latitude: -3.9893
        longitude: 119.6438
        name: Harapankarya
        names_en: ~
        names_es: ~
        population: 0
        timezone: Asia/Makassar
      - 
        alternate_names: 
          - Belajen
        ascii_name: Belajen
        geonamesid: 7609102
        latitude: -3.3235
        longitude: 119.8236
        name: Belajen
        names_en: ~
        names_es: ~
        population: 0
        timezone: Asia/Makassar
    geonamesid: 1626232
    name: "South Sulawesi"
    names_en: 
      - "South Sulawesi"
    names_es: ~
  - 
    ascii_name: "Provinsi Riau"
    cities: 
      - 
        alternate_names: 
          - "Kota Pekanbaru"
          - Pakanbahru
          - Pakanbaroe
          - Pakanbaru
        ascii_name: Pekanbaru
        geonamesid: 1631761
        latitude: 0.53333
        longitude: 101.45
        name: Pekanbaru
        names_en: 
          - Pekanbaru
        names_es: ~
        population: 703956
        timezone: Asia/Jakarta
      - 
        alternate_names: 
          - Doemai
          - Dumai
          - Dumaj
          - "Kota Dumai"
        ascii_name: Dumai
        geonamesid: 1645133
        latitude: 1.68333
        longitude: 101.45
        name: Dumai
        names_en: 
          - Dumai
        names_es: ~
        population: 143760
        timezone: Asia/Jakarta
    geonamesid: 1629652
    name: Riau
    names_en: ~
    names_es: ~
  - 
    ascii_name: "East Nusa Tenggara"
    cities: 
      - 
        alternate_names: 
          - Jawang
          - Praiyawang
          - Yawang
        ascii_name: Praiyawang
        geonamesid: 1621212
        latitude: -9.93547
        longitude: 120.66997
        name: Praiyawang
        names_en: ~
        names_es: ~
        population: 0
        timezone: Asia/Makassar
      - 
        alternate_names: 
          - Wolowaroe
          - Wolowaru
        ascii_name: Wolowaru
        geonamesid: 1621456
        latitude: -8.7835
        longitude: 121.886
        name: Wolowaru
        names_en: ~
        names_es: ~
        population: 0
        timezone: Asia/Makassar
      - 
        alternate_names: 
          - Wolosoko
          - Wolotopo
        ascii_name: Wolosoko
        geonamesid: 1621459
        latitude: -8.8531
        longitude: 121.7107
        name: Wolosoko
        names_en: ~
        names_es: ~
        population: 0
        timezone: Asia/Makassar
      - 
        alternate_names: 
          - Wera
        ascii_name: Wera
        geonamesid: 1621637
        latitude: -8.34
        longitude: 120.72
        name: Wera
        names_en: ~
        names_es: ~
        population: 0
        timezone: Asia/Makassar
      - 
        alternate_names: 
          - Watoeapi
          - Watuapi
        ascii_name: Watuapi
        geonamesid: 1621842
        latitude: -8.6122
        longitude: 121.4203
        name: Watuapi
        names_en: ~
        names_es: ~
        population: 0
        timezone: Asia/Makassar
      - 
        alternate_names: 
          - Waitaboela
          - "Waitaboela 1"
          - Waitabula
          - Waitjaboelo
        ascii_name: Weetobula
        geonamesid: 1622284
        latitude: -9.4413
        longitude: 119.2323
        name: Weetobula
        names_en: ~
        names_es: ~
        population: 0
        timezone: Asia/Makassar
      - 
        alternate_names: 
          - Waioteng
          - Waioti
          - Wairotang
        ascii_name: Waioti
        geonamesid: 1622310
        latitude: -8.6308
        longitude: 122.2413
        name: Waioti
        names_en: ~
        names_es: ~
        population: 0
        timezone: Asia/Makassar
      - 
        alternate_names: 
          - Waingapoe
          - Waingapu
        ascii_name: Waingapu
        geonamesid: 1622318
        latitude: -9.6567
        longitude: 120.2641
        name: Waingapu
        names_en: ~
        names_es: ~
        population: 48828
        timezone: Asia/Makassar
      - 
        alternate_names: 
          - Waimangoear
          - Waimangoera
          - Waimangura
        ascii_name: Waimangura
        geonamesid: 1622333
        latitude: -9.5098
        longitude: 119.2377
        name: Waimangura
        names_en: ~
        names_es: ~
        population: 0
        timezone: Asia/Makassar
      - 
        alternate_names: 
          - Waikaboebak
          - Waikabubak
          - Waikatoebak
        ascii_name: Waikabubak
        geonamesid: 1622351
        latitude: -9.6475
        longitude: 119.3889
        name: Waikabubak
        names_en: ~
        names_es: ~
        population: 0
        timezone: Asia/Makassar
      - 
        alternate_names: 
          - Waibakoel
          - Waibakul
        ascii_name: Waibakul
        geonamesid: 1622372
        latitude: -9.5958
        longitude: 119.5722
        name: Waibakul
        names_en: ~
        names_es: ~
        population: 0
        timezone: Asia/Makassar
      - 
        alternate_names: 
          - "Oeloe Wolo"
          - Uluwolo
        ascii_name: Uluwolo
        geonamesid: 1622718
        latitude: -8.5753
        longitude: 121.2908
        name: Uluwolo
        names_en: ~
        names_es: ~
        population: 0
        timezone: Asia/Makassar
      - 
        alternate_names: 
          - Soe
          - Su
          - Сое
        ascii_name: Soe
        geonamesid: 1626703
        latitude: -9.86071
        longitude: 124.28395
        name: Soe
        names_en: ~
        names_es: ~
        population: 27717
        timezone: Asia/Makassar
      - 
        alternate_names: 
          - Sika
          - "Sika Besar"
          - Sikka
        ascii_name: Sikka
        geonamesid: 1627184
        latitude: -8.7494
        longitude: 122.1961
        name: Sikka
        names_en: ~
        names_es: ~
        population: 0
        timezone: Asia/Makassar
      - 
        alternate_names: 
          - Roeteng
          - Roeting
          - Ruteng
        ascii_name: Ruteng
        geonamesid: 1629380
        latitude: -8.6136
        longitude: 120.4721
        name: Ruteng
        names_en: ~
        names_es: ~
        population: 34569
        timezone: Asia/Makassar
      - 
        alternate_names: 
          - Rioeng
          - Riung
        ascii_name: Riung
        geonamesid: 1629590
        latitude: -8.4213
        longitude: 121.0256
        name: Riung
        names_en: ~
        names_es: ~
        population: 0
        timezone: Asia/Makassar
      - 
        alternate_names: 
          - Reo
        ascii_name: Reo
        geonamesid: 1629700
        latitude: -8.3098
        longitude: 120.4893
        name: Reo
        names_en: ~
        names_es: ~
        population: 0
        timezone: Asia/Makassar
      - 
        alternate_names: 
          - Rego
        ascii_name: Rego
        geonamesid: 1629772
        latitude: -8.4266
        longitude: 120.2565
        name: Rego
        names_en: ~
        names_es: ~
        population: 0
        timezone: Asia/Makassar
      - 
        alternate_names: 
          - Parewatana
          - Pretana
        ascii_name: Pretana
        geonamesid: 1630651
        latitude: -9.6161
        longitude: 119.6441
        name: Pretana
        names_en: ~
        names_es: ~
        population: 0
        timezone: Asia/Makassar
      - 
        alternate_names: 
          - Pobnam
          - Popnam
        ascii_name: Popnam
        geonamesid: 1630766
        latitude: -9.6248
        longitude: 124.5315
        name: Popnam
        names_en: ~
        names_es: ~
        population: 0
        timezone: Asia/Makassar
      - 
        alternate_names: 
          - Palla
        ascii_name: Palla
        geonamesid: 1633050
        latitude: -9.5266
        longitude: 119.3552
        name: Palla
        names_en: ~
        names_es: ~
        population: 0
        timezone: Asia/Makassar
      - 
        alternate_names: 
          - Paca
          - Pacar
          - Patja
        ascii_name: Pacar
        geonamesid: 1633462
        latitude: -8.4824
        longitude: 120.2011
        name: Pacar
        names_en: ~
        names_es: ~
        population: 0
        timezone: Asia/Makassar
      - 
        alternate_names: 
          - Noemba
          - Numba
        ascii_name: Numba
        geonamesid: 1633828
        latitude: -8.8067
        longitude: 121.5265
        name: Numba
        names_en: ~
        names_es: ~
        population: 0
        timezone: Asia/Makassar
      - 
        alternate_names: 
          - Nita
        ascii_name: Nita
        geonamesid: 1633922
        latitude: -8.6782
        longitude: 122.1706
        name: Nita
        names_en: ~
        names_es: ~
        population: 0
        timezone: Asia/Makassar
      - 
        alternate_names: 
          - Nggalak
        ascii_name: Nggalak
        geonamesid: 1634069
        latitude: -8.3539
        longitude: 120.3173
        name: Nggalak
        names_en: ~
        names_es: ~
        population: 0
        timezone: Asia/Makassar
      - 
        alternate_names: 
          - Nela
          - Nele
        ascii_name: Nele
        geonamesid: 1634235
        latitude: -8.6767
        longitude: 122.2144
        name: Nele
        names_en: ~
        names_es: ~
        population: 0
        timezone: Asia/Makassar
      - 
        alternate_names: 
          - Nebe
        ascii_name: Nebe
        geonamesid: 1634273
        latitude: -8.4741
        longitude: 122.5615
        name: Nebe
        names_en: ~
        names_es: ~
        population: 0
        timezone: Asia/Makassar
      - 
        alternate_names: 
          - Detukeli
          - "Nd Keli"
          - Ndetokeli
        ascii_name: Detukeli
        geonamesid: 1634281
        latitude: -8.6318
        longitude: 121.8195
        name: Detukeli
        names_en: ~
        names_es: ~
        population: 0
        timezone: Asia/Makassar
      - 
        alternate_names: 
          - Napoe
          - Napu
        ascii_name: Napu
        geonamesid: 1634352
        latitude: -9.39627
        longitude: 119.92636
        name: Napu
        names_en: ~
        names_es: ~
        population: 0
        timezone: Asia/Makassar
      - 
        alternate_names: 
          - Nangaroro
        ascii_name: Nangaroro
        geonamesid: 1634432
        latitude: -8.7872
        longitude: 121.3923
        name: Nangaroro
        names_en: ~
        names_es: ~
        population: 0
        timezone: Asia/Makassar
      - 
        alternate_names: 
          - Nangalima
          - Nangalimang
        ascii_name: Nangalimang
        geonamesid: 1634458
        latitude: -8.6469
        longitude: 122.2058
        name: Nangalimang
        names_en: ~
        names_es: ~
        population: 0
        timezone: Asia/Makassar
      - 
        alternate_names: 
          - Nangalele
          - Nangalili
        ascii_name: Nangalili
        geonamesid: 1634460
        latitude: -8.7765
        longitude: 120.131
        name: Nangalili
        names_en: ~
        names_es: ~
        population: 0
        timezone: Asia/Makassar
      - 
        alternate_names: 
          - Nangahale
        ascii_name: Nangahale
        geonamesid: 1634484
        latitude: -8.559
        longitude: 122.5065
        name: Nangahale
        names_en: ~
        names_es: ~
        population: 0
        timezone: Asia/Makassar
      - 
        alternate_names: 
          - "Moekoe Saki"
          - Mukusaki
        ascii_name: Mukusaki
        geonamesid: 1634749
        latitude: -8.56534
        longitude: 121.61671
        name: Mukusaki
        names_en: ~
        names_es: ~
        population: 0
        timezone: Asia/Makassar
      - 
        alternate_names: 
          - Maoeponggo
          - Mauponggo
        ascii_name: Mauponggo
        geonamesid: 1635810
        latitude: -8.8892
        longitude: 121.2112
        name: Mauponggo
        names_en: ~
        names_es: ~
        population: 0
        timezone: Asia/Makassar
      - 
        alternate_names: 
          - Manoeran
          - Maoenoera
          - Maunura
        ascii_name: Maunura
        geonamesid: 1635811
        latitude: -8.8819
        longitude: 121.364
        name: Maunura
        names_en: ~
        names_es: ~
        population: 0
        timezone: Asia/Makassar
      - 
        alternate_names: 
          - "Maoe Ndai"
          - Maundai
        ascii_name: Maundai
        geonamesid: 1635813
        latitude: -8.8993
        longitude: 121.2901
        name: Maundai
        names_en: ~
        names_es: ~
        population: 0
        timezone: Asia/Makassar
      - 
        alternate_names: 
          - Maoemere
          - Maomere
          - Maumere
          - Mauniere
        ascii_name: Maumere
        geonamesid: 1635815
        latitude: -8.6199
        longitude: 122.2111
        name: Maumere
        names_en: ~
        names_es: ~
        population: 47598
        timezone: Asia/Makassar
      - 
        alternate_names: 
          - Manoeakalada
          - Manoekalada
          - Manuakalada
        ascii_name: Manuakalada
        geonamesid: 1636270
        latitude: -9.4013
        longitude: 119.545
        name: Manuakalada
        names_en: ~
        names_es: ~
        population: 0
        timezone: Asia/Makassar
      - 
        alternate_names: 
          - "Mage Pandan"
          - Magepanda
          - "Magé Pandan"
        ascii_name: Magepanda
        geonamesid: 1636879
        latitude: -8.5487
        longitude: 122.0486
        name: Magepanda
        names_en: ~
        names_es: ~
        population: 0
        timezone: Asia/Makassar
      - 
        alternate_names: 
          - Lela
        ascii_name: Lela
        geonamesid: 1638131
        latitude: -8.7289
        longitude: 122.1726
        name: Lela
        names_en: ~
        names_es: ~
        population: 0
        timezone: Asia/Makassar
      - 
        alternate_names: 
          - Lekebai
        ascii_name: Lekebai
        geonamesid: 1638142
        latitude: -8.712
        longitude: 122.0762
        name: Lekebai
        names_en: ~
        names_es: ~
        population: 0
        timezone: Asia/Makassar
      - 
        alternate_names: 
          - Lawonda
        ascii_name: Lawonda
        geonamesid: 1638265
        latitude: -9.5252
        longitude: 119.5923
        name: Lawonda
        names_en: ~
        names_es: ~
        population: 0
        timezone: Asia/Makassar
      - 
        alternate_names: 
          - Badjo
          - "Laboean Bajo"
          - Laboehanbadjo
          - Labuanbadzho
        ascii_name: Labuhanbajo
        geonamesid: 1638868
        latitude: -8.4964
        longitude: 119.8877
        name: Labuhanbajo
        names_en: ~
        names_es: ~
        population: 188724
        timezone: Asia/Makassar
      - 
        alternate_names: 
          - Kjomi
          - Komi
          - Kyomi
        ascii_name: Komi
        geonamesid: 1638939
        latitude: -9.4299
        longitude: 119.3029
        name: Komi
        names_en: ~
        names_es: ~
        population: 0
        timezone: Asia/Makassar
      - 
        alternate_names: 
          - Kefamenanu
          - Kefannanoe
          - Kefannanu
          - Kefannau
        ascii_name: Kefamenanu
        geonamesid: 1640576
        latitude: -9.44667
        longitude: 124.47806
        name: Kefamenanu
        names_en: ~
        names_es: ~
        population: 29490
        timezone: Asia/Makassar
      - 
        alternate_names: 
          - Kawangoe
          - Kawangu
        ascii_name: Kawangu
        geonamesid: 1640897
        latitude: -9.6728
        longitude: 120.3409
        name: Kawangu
        names_en: ~
        names_es: ~
        population: 0
        timezone: Asia/Makassar
      - 
        alternate_names: 
          - Kahale
        ascii_name: Kahale
        geonamesid: 1642168
        latitude: -9.6962
        longitude: 119.1047
        name: Kahale
        names_en: ~
        names_es: ~
        population: 0
        timezone: Asia/Makassar
      - 
        alternate_names: 
          - Ili
        ascii_name: Ili
        geonamesid: 1643160
        latitude: -8.6748
        longitude: 122.266
        name: Ili
        names_en: ~
        names_es: ~
        population: 0
        timezone: Asia/Makassar
      - 
        alternate_names: 
          - Gisi
          - Gisiliba
        ascii_name: Gisiliba
        geonamesid: 1644030
        latitude: -8.83126
        longitude: 121.05243
        name: Gisiliba
        names_en: ~
        names_es: ~
        population: 0
        timezone: Asia/Makassar
      - 
        alternate_names: 
          - Ende
          - Endeh
          - "Kota Ende"
        ascii_name: Ende
        geonamesid: 1644932
        latitude: -8.8432
        longitude: 121.6623
        name: Ende
        names_en: 
          - Ende
        names_es: 
          - Ende
        population: 77205
        timezone: Asia/Makassar
      - 
        alternate_names: 
          - Ellopada
          - Elopada
        ascii_name: Elopada
        geonamesid: 1644979
        latitude: -9.5686
        longitude: 119.3172
        name: Elopada
        names_en: ~
        names_es: ~
        population: 0
        timezone: Asia/Makassar
      - 
        alternate_names: 
          - Bola
        ascii_name: Bola
        geonamesid: 1648345
        latitude: -8.7419
        longitude: 122.2958
        name: Bola
        names_en: ~
        names_es: ~
        population: 0
        timezone: Asia/Makassar
      - 
        alternate_names: 
          - Boawae
          - Boawai
        ascii_name: Boawae
        geonamesid: 1648549
        latitude: -8.7639
        longitude: 121.1694
        name: Boawae
        names_en: ~
        names_es: ~
        population: 0
        timezone: Asia/Makassar
      - 
        alternate_names: 
          - Boafeo
        ascii_name: Boafeo
        geonamesid: 1648557
        latitude: -8.6903
        longitude: 121.626
        name: Boafeo
        names_en: ~
        names_es: ~
        population: 0
        timezone: Asia/Makassar
      - 
        alternate_names: 
          - Bari
          - Berit
        ascii_name: Bari
        geonamesid: 1650005
        latitude: -8.3518
        longitude: 120.1822
        name: Bari
        names_en: ~
        names_es: ~
        population: 0
        timezone: Asia/Makassar
      - 
        alternate_names: 
          - Baloek
          - Baluk
        ascii_name: Baluk
        geonamesid: 1650465
        latitude: -8.7426
        longitude: 122.3044
        name: Baluk
        names_en: ~
        names_es: ~
        population: 0
        timezone: Asia/Makassar
      - 
        alternate_names: 
          - Badjava
          - Badjawa
          - Bajawa
        ascii_name: Bajawa
        geonamesid: 1650720
        latitude: -8.7848
        longitude: 120.9744
        name: Bajawa
        names_en: ~
        names_es: ~
        population: 0
        timezone: Asia/Makassar
      - 
        alternate_names: 
          - Atamboea
          - Atamboewa
          - Atambua
          - Атамбуа
        ascii_name: Atambua
        geonamesid: 1651103
        latitude: -9.10611
        longitude: 124.8925
        name: Atambua
        names_en: ~
        names_es: ~
        population: 35793
        timezone: Asia/Makassar
      - 
        alternate_names: 
          - Aemere
          - Aimere
          - "Wai Sai"
        ascii_name: Aimere
        geonamesid: 1651813
        latitude: -8.8431
        longitude: 120.8579
        name: Aimere
        names_en: ~
        names_es: ~
        population: 0
        timezone: Asia/Makassar
      - 
        alternate_names: 
          - Totok
          - Totoka
        ascii_name: Totok
        geonamesid: 1900608
        latitude: -9.4828
        longitude: 119.306
        name: Totok
        names_en: ~
        names_es: ~
        population: 0
        timezone: Asia/Makassar
      - 
        alternate_names: 
          - "Naisano 2"
          - "Naisano Dua"
          - "Nusa Dua"
          - "Нуса Дуа"
        ascii_name: "Naisano Dua"
        geonamesid: 1947261
        latitude: -9.59806
        longitude: 123.77028
        name: "Naisano Dua"
        names_en: 
          - "Nusa Dua"
        names_es: ~
        population: 2345
        timezone: Asia/Makassar
      - 
        alternate_names: 
          - Wahang
          - "Wahang 2"
          - "Wahang Dua"
        ascii_name: "Wahang Dua"
        geonamesid: 2056910
        latitude: -10.095
        longitude: 120.028
        name: "Wahang Dua"
        names_en: ~
        names_es: ~
        population: 0
        timezone: Asia/Makassar
      - 
        alternate_names: 
          - Paraingkareha
          - Praingkareha
        ascii_name: Praingkareha
        geonamesid: 2056982
        latitude: -10.0129
        longitude: 120.0453
        name: Praingkareha
        names_en: ~
        names_es: ~
        population: 0
        timezone: Asia/Makassar
      - 
        alternate_names: 
          - Lailoenggi
          - Lailunggi
        ascii_name: Lailunggi
        geonamesid: 2057078
        latitude: -10.1716
        longitude: 120.1174
        name: Lailunggi
        names_en: ~
        names_es: ~
        population: 0
        timezone: Asia/Makassar
      - 
        alternate_names: 
          - Koepang
          - "Kota Kupang"
          - Kupang
          - Kupange
        ascii_name: Kupang
        geonamesid: 2057087
        latitude: -10.16667
        longitude: 123.58333
        name: Kupang
        names_en: 
          - Kupang
        names_es: 
          - Kupang
        population: 282396
        timezone: Asia/Makassar
      - 
        alternate_names: 
          - Bai
          - Baing
        ascii_name: Baing
        geonamesid: 2057161
        latitude: -10.2209
        longitude: 120.5592
        name: Baing
        names_en: ~
        names_es: ~
        population: 0
        timezone: Asia/Makassar
      - 
        alternate_names: 
          - Alanga
        ascii_name: Alanga
        geonamesid: 7087314
        latitude: -9.5386
        longitude: 119.753
        name: Alanga
        names_en: ~
        names_es: ~
        population: 0
        timezone: Asia/Makassar
      - 
        alternate_names: 
          - Lokuuy
        ascii_name: Lokuuy
        geonamesid: 7087338
        latitude: -9.5663
        longitude: 119.8145
        name: Lokuuy
        names_en: ~
        names_es: ~
        population: 0
        timezone: Asia/Makassar
      - 
        alternate_names: 
          - Pahomba
        ascii_name: Pahomba
        geonamesid: 7087342
        latitude: -9.6239
        longitude: 119.7998
        name: Pahomba
        names_en: ~
        names_es: ~
        population: 0
        timezone: Asia/Makassar
      - 
        alternate_names: 
          - Lengkoajang
        ascii_name: Lengkoajang
        geonamesid: 7089015
        latitude: -8.5074
        longitude: 120.679
        name: Lengkoajang
        names_en: ~
        names_es: ~
        population: 0
        timezone: Asia/Makassar
      - 
        alternate_names: 
          - Buti
        ascii_name: Buti
        geonamesid: 7089019
        latitude: -8.5015
        longitude: 120.7052
        name: Buti
        names_en: ~
        names_es: ~
        population: 0
        timezone: Asia/Makassar
      - 
        alternate_names: 
          - Ntaram
        ascii_name: Ntaram
        geonamesid: 7089048
        latitude: -8.5281
        longitude: 120.6937
        name: Ntaram
        names_en: ~
        names_es: ~
        population: 0
        timezone: Asia/Makassar
      - 
        alternate_names: 
          - Mombok
        ascii_name: Mombok
        geonamesid: 7089056
        latitude: -8.5271
        longitude: 120.7293
        name: Mombok
        names_en: ~
        names_es: ~
        population: 0
        timezone: Asia/Makassar
      - 
        alternate_names: 
          - Watunggong
        ascii_name: Watunggong
        geonamesid: 7089071
        latitude: -8.5418
        longitude: 120.6733
        name: Watunggong
        names_en: ~
        names_es: ~
        population: 0
        timezone: Asia/Makassar
      - 
        alternate_names: 
          - Rantang
        ascii_name: Rantang
        geonamesid: 7089083
        latitude: -8.5485
        longitude: 120.7419
        name: Rantang
        names_en: ~
        names_es: ~
        population: 0
        timezone: Asia/Makassar
      - 
        alternate_names: 
          - Ngkolong
        ascii_name: Ngkolong
        geonamesid: 7089087
        latitude: -8.5513
        longitude: 120.7163
        name: Ngkolong
        names_en: ~
        names_es: ~
        population: 0
        timezone: Asia/Makassar
      - 
        alternate_names: 
          - Ngkodal
        ascii_name: Ngkodal
        geonamesid: 7089109
        latitude: -8.5648
        longitude: 120.718
        name: Ngkodal
        names_en: ~
        names_es: ~
        population: 0
        timezone: Asia/Makassar
      - 
        alternate_names: 
          - Ngkiong
        ascii_name: Ngkiong
        geonamesid: 7089115
        latitude: -8.5675
        longitude: 120.6568
        name: Ngkiong
        names_en: ~
        names_es: ~
        population: 0
        timezone: Asia/Makassar
      - 
        alternate_names: 
          - Jawa
        ascii_name: Jawa
        geonamesid: 7089118
        latitude: -8.562
        longitude: 120.6371
        name: Jawa
        names_en: ~
        names_es: ~
        population: 0
        timezone: Asia/Makassar
      - 
        alternate_names: 
          - Biting
        ascii_name: Biting
        geonamesid: 7089140
        latitude: -8.5966
        longitude: 120.6341
        name: Biting
        names_en: ~
        names_es: ~
        population: 0
        timezone: Asia/Makassar
      - 
        alternate_names: 
          - Pamakoe
          - Pomakoe
        ascii_name: Pamakoe
        geonamesid: 7089168
        latitude: -8.7592
        longitude: 121.2501
        name: Pamakoe
        names_en: ~
        names_es: ~
        population: 0
        timezone: Asia/Makassar
      - 
        alternate_names: 
          - Lena
        ascii_name: Lena
        geonamesid: 7089185
        latitude: -8.7613
        longitude: 121.301
        name: Lena
        names_en: ~
        names_es: ~
        population: 0
        timezone: Asia/Makassar
      - 
        alternate_names: 
          - Bhokadoke
        ascii_name: Bhokadoke
        geonamesid: 7089224
        latitude: -8.802
        longitude: 121.3118
        name: Bhokadoke
        names_en: ~
        names_es: ~
        population: 0
        timezone: Asia/Makassar
      - 
        alternate_names: 
          - Lokatadho
        ascii_name: Lokatadho
        geonamesid: 7089248
        latitude: -8.8143
        longitude: 121.2744
        name: Lokatadho
        names_en: ~
        names_es: ~
        population: 0
        timezone: Asia/Makassar
      - 
        alternate_names: 
          - Wolowada
        ascii_name: Wolowada
        geonamesid: 7089328
        latitude: -8.8555
        longitude: 121.2755
        name: Wolowada
        names_en: ~
        names_es: ~
        population: 0
        timezone: Asia/Makassar
      - 
        alternate_names: 
          - Pau
        ascii_name: Pau
        geonamesid: 7089337
        latitude: -8.8555
        longitude: 121.2993
        name: Pau
        names_en: ~
        names_es: ~
        population: 0
        timezone: Asia/Makassar
      - 
        alternate_names: 
          - Mbeku
        ascii_name: Mbeku
        geonamesid: 7089361
        latitude: -8.8667
        longitude: 121.2864
        name: Mbeku
        names_en: ~
        names_es: ~
        population: 0
        timezone: Asia/Makassar
      - 
        alternate_names: 
          - Boanio
        ascii_name: Boanio
        geonamesid: 7089375
        latitude: -8.6373
        longitude: 121.3234
        name: Boanio
        names_en: ~
        names_es: ~
        population: 0
        timezone: Asia/Makassar
      - 
        alternate_names: 
          - Doma
        ascii_name: Doma
        geonamesid: 7089390
        latitude: -8.6846
        longitude: 121.3278
        name: Doma
        names_en: ~
        names_es: ~
        population: 0
        timezone: Asia/Makassar
      - 
        alternate_names: 
          - Jawatiwa
        ascii_name: Jawatiwa
        geonamesid: 7089402
        latitude: -8.7073
        longitude: 121.2809
        name: Jawatiwa
        names_en: ~
        names_es: ~
        population: 0
        timezone: Asia/Makassar
      - 
        alternate_names: 
          - Aegela
        ascii_name: Aegela
        geonamesid: 7089411
        latitude: -8.7323
        longitude: 121.3372
        name: Aegela
        names_en: ~
        names_es: ~
        population: 0
        timezone: Asia/Makassar
      - 
        alternate_names: 
          - Tibakisa
        ascii_name: Tibakisa
        geonamesid: 7089416
        latitude: -8.7393
        longitude: 121.3054
        name: Tibakisa
        names_en: ~
        names_es: ~
        population: 0
        timezone: Asia/Makassar
      - 
        alternate_names: 
          - Redakodi
        ascii_name: Redakodi
        geonamesid: 7336492
        latitude: -9.4542
        longitude: 119.2271
        name: Redakodi
        names_en: ~
        names_es: ~
        population: 0
        timezone: Asia/Makassar
      - 
        alternate_names: 
          - Maredakamau
        ascii_name: Maredakamau
        geonamesid: 7336533
        latitude: -9.435
        longitude: 119.1866
        name: Maredakamau
        names_en: ~
        names_es: ~
        population: 0
        timezone: Asia/Makassar
      - 
        alternate_names: 
          - Radamata
        ascii_name: Radamata
        geonamesid: 7336551
        latitude: -9.4258
        longitude: 119.2446
        name: Radamata
        names_en: ~
        names_es: ~
        population: 0
        timezone: Asia/Makassar
      - 
        alternate_names: 
          - Nangapanda
        ascii_name: Nangapanda
        geonamesid: 7336843
        latitude: -8.7928
        longitude: 121.4691
        name: Nangapanda
        names_en: ~
        names_es: ~
        population: 0
        timezone: Asia/Makassar
      - 
        alternate_names: 
          - Nangapanda
        ascii_name: Nangapanda
        geonamesid: 7336858
        latitude: -8.7928
        longitude: 121.4691
        name: Nangapanda
        names_en: ~
        names_es: ~
        population: 0
        timezone: Asia/Makassar
      - 
        alternate_names: 
          - Wakaseko
        ascii_name: Wakaseko
        geonamesid: 7336876
        latitude: -8.6376
        longitude: 121.4704
        name: Wakaseko
        names_en: ~
        names_es: ~
        population: 0
        timezone: Asia/Makassar
      - 
        alternate_names: 
          - Kamubheka
        ascii_name: Kamubheka
        geonamesid: 7336892
        latitude: -8.6632
        longitude: 121.4888
        name: Kamubheka
        names_en: ~
        names_es: ~
        population: 0
        timezone: Asia/Makassar
      - 
        alternate_names: 
          - Oja
        ascii_name: Oja
        geonamesid: 7336911
        latitude: -8.692
        longitude: 121.4325
        name: Oja
        names_en: ~
        names_es: ~
        population: 0
        timezone: Asia/Makassar
      - 
        alternate_names: 
          - Puukau
        ascii_name: Puukau
        geonamesid: 7336944
        latitude: -8.7249
        longitude: 121.4293
        name: Puukau
        names_en: ~
        names_es: ~
        population: 0
        timezone: Asia/Makassar
      - 
        alternate_names: 
          - Kuekobo
        ascii_name: Kuekobo
        geonamesid: 7336948
        latitude: -8.7158
        longitude: 121.3926
        name: Kuekobo
        names_en: ~
        names_es: ~
        population: 0
        timezone: Asia/Makassar
      - 
        alternate_names: 
          - Arwea
        ascii_name: Arwea
        geonamesid: 7336962
        latitude: -8.7378
        longitude: 121.4867
        name: Arwea
        names_en: ~
        names_es: ~
        population: 0
        timezone: Asia/Makassar
      - 
        alternate_names: 
          - Lando
        ascii_name: Lando
        geonamesid: 7337079
        latitude: -8.4967
        longitude: 120.079
        name: Lando
        names_en: ~
        names_es: ~
        population: 0
        timezone: Asia/Makassar
      - 
        alternate_names: 
          - Pau
        ascii_name: Pau
        geonamesid: 7337172
        latitude: -8.4402
        longitude: 120.1931
        name: Pau
        names_en: ~
        names_es: ~
        population: 0
        timezone: Asia/Makassar
      - 
        alternate_names: 
          - Sasa
        ascii_name: Sasa
        geonamesid: 7337173
        latitude: -8.4388
        longitude: 120.1809
        name: Sasa
        names_en: ~
        names_es: ~
        population: 0
        timezone: Asia/Makassar
      - 
        alternate_names: 
          - Kembo
        ascii_name: Kembo
        geonamesid: 7337281
        latitude: -8.3971
        longitude: 120.8808
        name: Kembo
        names_en: ~
        names_es: ~
        population: 0
        timezone: Asia/Makassar
      - 
        alternate_names: 
          - Mbarungkeli
        ascii_name: Mbarungkeli
        geonamesid: 7337287
        latitude: -8.4052
        longitude: 120.9965
        name: Mbarungkeli
        names_en: ~
        names_es: ~
        population: 0
        timezone: Asia/Makassar
      - 
        alternate_names: 
          - Wate
        ascii_name: Wate
        geonamesid: 7337319
        latitude: -8.4988
        longitude: 120.9599
        name: Wate
        names_en: ~
        names_es: ~
        population: 0
        timezone: Asia/Makassar
      - 
        alternate_names: 
          - Kombandaru
        ascii_name: Kombandaru
        geonamesid: 7337729
        latitude: -8.7869
        longitude: 121.6033
        name: Kombandaru
        names_en: ~
        names_es: ~
        population: 0
        timezone: Asia/Makassar
      - 
        alternate_names: 
          - Puubheto
        ascii_name: Puubheto
        geonamesid: 7337732
        latitude: -8.7918
        longitude: 121.5904
        name: Puubheto
        names_en: ~
        names_es: ~
        population: 0
        timezone: Asia/Makassar
      - 
        alternate_names: 
          - Maunggora
        ascii_name: Maunggora
        geonamesid: 7337745
        latitude: -8.8043
        longitude: 121.5146
        name: Maunggora
        names_en: ~
        names_es: ~
        population: 0
        timezone: Asia/Makassar
      - 
        alternate_names: 
          - Baraiwena
        ascii_name: Baraiwena
        geonamesid: 7337763
        latitude: -8.8204
        longitude: 121.6041
        name: Baraiwena
        names_en: ~
        names_es: ~
        population: 0
        timezone: Asia/Makassar
      - 
        alternate_names: 
          - Mbomba
        ascii_name: Mbomba
        geonamesid: 7337769
        latitude: -8.8283
        longitude: 121.6201
        name: Mbomba
        names_en: ~
        names_es: ~
        population: 0
        timezone: Asia/Makassar
      - 
        alternate_names: 
          - Puutura
        ascii_name: Puutura
        geonamesid: 7337780
        latitude: -8.8644
        longitude: 121.5214
        name: Puutura
        names_en: ~
        names_es: ~
        population: 0
        timezone: Asia/Makassar
      - 
        alternate_names: 
          - Roa
        ascii_name: Roa
        geonamesid: 7337833
        latitude: -8.7568
        longitude: 121.7183
        name: Roa
        names_en: ~
        names_es: ~
        population: 0
        timezone: Asia/Makassar
      - 
        alternate_names: 
          - Kengga
        ascii_name: Kengga
        geonamesid: 7337846
        latitude: -8.7596
        longitude: 121.7138
        name: Kengga
        names_en: ~
        names_es: ~
        population: 0
        timezone: Asia/Makassar
      - 
        alternate_names: 
          - Aefeo
        ascii_name: Aefeo
        geonamesid: 7337858
        latitude: -8.7633
        longitude: 121.6739
        name: Aefeo
        names_en: ~
        names_es: ~
        population: 0
        timezone: Asia/Makassar
      - 
        alternate_names: 
          - Saga
        ascii_name: Saga
        geonamesid: 7337882
        latitude: -8.7694
        longitude: 121.7349
        name: Saga
        names_en: ~
        names_es: ~
        population: 0
        timezone: Asia/Makassar
      - 
        alternate_names: 
          - Detumbawa
        ascii_name: Detumbawa
        geonamesid: 7337908
        latitude: -8.786
        longitude: 121.6722
        name: Detumbawa
        names_en: ~
        names_es: ~
        population: 0
        timezone: Asia/Makassar
      - 
        alternate_names: 
          - Puuperi
        ascii_name: Puuperi
        geonamesid: 7337939
        latitude: -8.7945
        longitude: 121.6482
        name: Puuperi
        names_en: ~
        names_es: ~
        population: 0
        timezone: Asia/Makassar
      - 
        alternate_names: 
          - Nuasepu
        ascii_name: Nuasepu
        geonamesid: 7337942
        latitude: -8.7955
        longitude: 121.6347
        name: Nuasepu
        names_en: ~
        names_es: ~
        population: 0
        timezone: Asia/Makassar
      - 
        alternate_names: 
          - Puutuga
        ascii_name: Puutuga
        geonamesid: 7337955
        latitude: -8.8026
        longitude: 121.723
        name: Puutuga
        names_en: ~
        names_es: ~
        population: 0
        timezone: Asia/Makassar
      - 
        alternate_names: 
          - Aemura
        ascii_name: Aemura
        geonamesid: 7337968
        latitude: -8.8087
        longitude: 121.6685
        name: Aemura
        names_en: ~
        names_es: ~
        population: 0
        timezone: Asia/Makassar
      - 
        alternate_names: 
          - Lokoboko
        ascii_name: Lokoboko
        geonamesid: 7337986
        latitude: -8.8195
        longitude: 121.6804
        name: Lokoboko
        names_en: ~
        names_es: ~
        population: 0
        timezone: Asia/Makassar
      - 
        alternate_names: 
          - Nuakota
        ascii_name: Nuakota
        geonamesid: 7337996
        latitude: -8.8294
        longitude: 121.6974
        name: Nuakota
        names_en: ~
        names_es: ~
        population: 0
        timezone: Asia/Makassar
      - 
        alternate_names: 
          - Ndona
        ascii_name: Ndona
        geonamesid: 7337999
        latitude: -8.8338
        longitude: 121.6862
        name: Ndona
        names_en: ~
        names_es: ~
        population: 0
        timezone: Asia/Makassar
      - 
        alternate_names: 
          - Wolowona
        ascii_name: Wolowona
        geonamesid: 7338003
        latitude: -8.8322
        longitude: 121.6765
        name: Wolowona
        names_en: ~
        names_es: ~
        population: 0
        timezone: Asia/Makassar
      - 
        alternate_names: 
          - Wolonio
        ascii_name: Wolonio
        geonamesid: 7338010
        latitude: -8.8265
        longitude: 121.6428
        name: Wolonio
        names_en: ~
        names_es: ~
        population: 0
        timezone: Asia/Makassar
      - 
        alternate_names: 
          - Onewitu
        ascii_name: Onewitu
        geonamesid: 7338035
        latitude: -8.8397
