--- 
geonamesid: 2963597
iso: IE
name: Ireland
names_en: 
  - "Republic of Ireland"
  - Ireland
names_es: 
  - Irlanda
  - "República de Irlanda"
regions: 
  - 
    ascii_name: Connaught
    cities: 
      - 
        alternate_names: 
          - Westport
        ascii_name: "Cathair na Mart"
        geonamesid: 2960970
        latitude: 53.8
        longitude: -9.51667
        name: "Cathair na Mart"
        names_en: 
          - Westport
        names_es: ~
        population: 6200
        timezone: Europe/Dublin
      - 
        alternate_names: 
          - Tuaim
          - Tuam
        ascii_name: Tuam
        geonamesid: 2961099
        latitude: 53.51667
        longitude: -8.85
        name: Tuam
        names_en: 
          - Tuam
        names_es: ~
        population: 6130
        timezone: Europe/Dublin
      - 
        alternate_names: 
          - "Beal Atha na Muice"
          - "Béal Átha na Muice"
          - Swineford
          - Swinford
        ascii_name: Swinford
        geonamesid: 2961299
        latitude: 53.95
        longitude: -8.95
        name: Swinford
        names_en: 
          - Swinford
        names_es: ~
        population: 1241
        timezone: Europe/Dublin
      - 
        alternate_names: 
          - Slajgou
          - Sligeach
          - Sligo
          - suraigo
        ascii_name: Sligeach
        geonamesid: 2961423
        latitude: 54.26969
        longitude: -8.46943
        name: Sligeach
        names_en: 
          - Sligo
        names_es: 
          - Sligo
        population: 20228
        timezone: Europe/Dublin
      - 
        alternate_names: 
          - "Ros Comain"
          - "Ros Comáin"
          - Roscommon
          - Rosecommon
        ascii_name: "Ros Comain"
        geonamesid: 2961732
        latitude: 53.63333
        longitude: -8.18333
        name: "Ros Comáin"
        names_en: 
          - Roscommon
        names_es: ~
        population: 4860
        timezone: Europe/Dublin
      - 
        alternate_names: 
          - "Oran Mor"
          - Oranmore
          - "Órán Mór"
        ascii_name: Oranmore
        geonamesid: 2962153
        latitude: 53.26833
        longitude: -8.92
        name: Oranmore
        names_en: 
          - Oranmore
        names_es: ~
        population: 1758
        timezone: Europe/Dublin
      - 
        alternate_names: 
          - "Maigh Cuilinn"
        ascii_name: Moycullen
        geonamesid: 2962440
        latitude: 53.33783
        longitude: -9.18002
        name: Moycullen
        names_en: ~
        names_es: ~
        population: 1402
        timezone: Europe/Dublin
      - 
        alternate_names: 
          - "Baile Locha Riach"
          - Loughrea
        ascii_name: Loughrea
        geonamesid: 2962800
        latitude: 53.19694
        longitude: -8.56694
        name: Loughrea
        names_en: 
          - Loughrea
        names_es: ~
        population: 4296
        timezone: Europe/Dublin
      - 
        alternate_names: 
          - "An Gort"
          - Gort
        ascii_name: Gort
        geonamesid: 2963958
        latitude: 53.06639
        longitude: -8.81667
        name: Gort
        names_en: 
          - Gort
        names_es: ~
        population: 2098
        timezone: Europe/Dublin
      - 
        alternate_names: 
          - Gaillimh
          - Galway
          - "Galway - Gaillimh"
          - "Galway city"
        ascii_name: Galway
        geonamesid: 2964180
        latitude: 53.27194
        longitude: -9.04889
        name: Galway
        names_en: 
          - Galway
          - "Galway city"
        names_es: 
          - Galway
        population: 70686
        timezone: Europe/Dublin
      - 
        alternate_names: 
          - "An Clochan"
          - "An Clochán"
          - Clifden
          - Klifden
        ascii_name: Clifden
        geonamesid: 2965449
        latitude: 53.48333
        longitude: -10.01667
        name: Clifden
        names_en: 
          - Clifden
        names_es: ~
        population: 1929
        timezone: Europe/Dublin
      - 
        alternate_names: 
          - "Clar Chlainne Mhuiris"
          - Claremorris
          - "Clár Chlainne Mhuiris"
        ascii_name: Claremorris
        geonamesid: 2965471
        latitude: 53.71667
        longitude: -9.0
        name: Claremorris
        names_en: 
          - Claremorris
        names_es: ~
        population: 2168
        timezone: Europe/Dublin
      - 
        alternate_names: 
          - "An Caislean Riabhach"
          - "An Caisleán Riabhach"
          - Castlerea
          - Castlereagh
        ascii_name: Castlerea
        geonamesid: 2965570
        latitude: 53.76667
        longitude: -8.5
        name: Castlerea
        names_en: 
          - Castlerea
        names_es: ~
        population: 1770
        timezone: Europe/Dublin
      - 
        alternate_names: 
          - "Caislean an Bharraigh"
          - "Caisleán an Bharraigh"
        ascii_name: Castlebar
        geonamesid: 2965654
        latitude: 53.85
        longitude: -9.3
        name: Castlebar
        names_en: ~
        names_es: ~
        population: 12874
        timezone: Europe/Dublin
      - 
        alternate_names: 
          - "Carrick on Shannon"
          - Carrick-on-Shannon
          - "Cora Droma Ruisc"
          - "Cora Droma Rúisc"
        ascii_name: "Cora Droma Ruisc"
        geonamesid: 2965727
        latitude: 53.94694
        longitude: -8.09
        name: "Cora Droma Rúisc"
        names_en: 
          - "Carrick on Shannon"
        names_es: ~
        population: 2389
        timezone: Europe/Dublin
      - 
        alternate_names: 
          - Boyle
          - "Mainistir na Buille"
          - "Mainistir na Búille"
        ascii_name: Boyle
        geonamesid: 2966044
        latitude: 53.96667
        longitude: -8.3
        name: Boyle
        names_en: 
          - Boyle
        names_es: ~
        population: 2199
        timezone: Europe/Dublin
      - 
        alternate_names: 
          - Ballyhaunis
          - "Beal Atha hAmhnais"
          - "Béal Átha hAmhnais"
        ascii_name: Ballyhaunis
        geonamesid: 2966566
        latitude: 53.76667
        longitude: -8.76667
        name: Ballyhaunis
        names_en: 
          - Ballyhaunis
        names_es: ~
        population: 1344
        timezone: Europe/Dublin
      - 
        alternate_names: 
          - "Baile an Roba"
          - "Baile an Róba"
          - Ballinrobe
        ascii_name: Ballinrobe
        geonamesid: 2966715
        latitude: 53.63333
        longitude: -9.23333
        name: Ballinrobe
        names_en: 
          - Ballinrobe
        names_es: ~
        population: 1707
        timezone: Europe/Dublin
      - 
        alternate_names: 
          - Ballinasloe
        ascii_name: "Beal Atha na Sluaighe"
        geonamesid: 2966753
        latitude: 53.3275
        longitude: -8.21944
        name: "Béal Átha na Sluaighe"
        names_en: 
          - Ballinasloe
        names_es: ~
        population: 6388
        timezone: Europe/Dublin
      - 
        alternate_names: 
          - Ballina
        ascii_name: "Beal An Atha"
        geonamesid: 2966778
        latitude: 54.11667
        longitude: -9.16667
        name: "Béal An Átha"
        names_en: 
          - Ballina
        names_es: ~
        population: 10087
        timezone: Europe/Dublin
      - 
        alternate_names: 
          - Ballaghaderreen
          - "Bealach an Doirin"
          - "Bealach an Doirín"
        ascii_name: Ballaghaderreen
        geonamesid: 2966784
        latitude: 53.9
        longitude: -8.58333
        name: Ballaghaderreen
        names_en: 
          - Ballaghaderreen
        names_es: ~
        population: 1389
        timezone: Europe/Dublin
      - 
        alternate_names: 
          - Athenry
          - "Baile Atha an Ri"
          - "Baile Átha an Rí"
        ascii_name: Athenry
        geonamesid: 2966843
        latitude: 53.29639
        longitude: -8.74306
        name: Athenry
        names_en: 
          - Athenry
        names_es: ~
        population: 2419
        timezone: Europe/Dublin
    geonamesid: 7521313
    name: Connaught
    names_en: ~
    names_es: ~
  - 
    ascii_name: Leinster
    cities: 
      - 
        alternate_names: 
          - "Cill Maintain"
          - "Cill Maintainn"
          - "Cill Maintáinn"
          - "Cill Manntein"
        ascii_name: "Cill Mhantain"
        geonamesid: 2960936
        latitude: 52.975
        longitude: -6.04944
        name: "Cill Mhantáin"
        names_en: 
          - Wicklow
        names_es: ~
        population: 10461
        timezone: Europe/Dublin
      - 
        alternate_names: 
          - "Loch Garman"
          - Wexford
        ascii_name: "Loch Garman"
        geonamesid: 2960964
        latitude: 52.33417
        longitude: -6.4575
        name: "Loch Garman"
        names_en: 
          - Wexford
        names_es: 
          - Wexford
        population: 17708
        timezone: Europe/Dublin
      - 
        alternate_names: 
          - "An Tulach"
          - Tullow
        ascii_name: Tullow
        geonamesid: 2961079
        latitude: 52.80028
        longitude: -6.73694
        name: Tullow
        names_en: 
          - Tullow
        names_es: ~
        population: 2424
        timezone: Europe/Dublin
      - 
        alternate_names: 
          - "Tulach Mhor"
          - "Tulach Mhór"
        ascii_name: Tullamore
        geonamesid: 2961086
        latitude: 53.27389
        longitude: -7.48889
        name: Tullamore
        names_en: ~
        names_es: ~
        population: 11575
        timezone: Europe/Dublin
      - 
        alternate_names: 
          - "Baile Atha Troim"
          - "Baile Átha Troim"
          - Trim
        ascii_name: "Baile Atha Troim"
        geonamesid: 2961107
        latitude: 53.555
        longitude: -6.79167
        name: "Baile Átha Troim"
        names_en: 
          - Trim
        names_es: ~
        population: 1800
        timezone: Europe/Dublin
      - 
        alternate_names: 
          - "Baile Mhic Andain"
          - "Baile Mhic Andáin"
          - Thomastown
        ascii_name: Thomastown
        geonamesid: 2961224
        latitude: 52.52667
        longitude: -7.13722
        name: Thomastown
        names_en: 
          - Thomastown
        names_es: ~
        population: 1603
        timezone: Europe/Dublin
      - 
        alternate_names: 
          - Tallaght
        ascii_name: Tallaght
        geonamesid: 2961284
        latitude: 53.2859
        longitude: -6.37344
        name: Tallaght
        names_en: 
          - Tallaght
        names_es: ~
        population: 64282
        timezone: Europe/Dublin
      - 
        alternate_names: 
          - Sord
          - Swords
        ascii_name: Swords
        geonamesid: 2961297
        latitude: 53.45972
        longitude: -6.21806
        name: Swords
        names_en: 
          - Swords
        names_es: ~
        population: 29816
        timezone: Europe/Dublin
      - 
        alternate_names: 
          - "Na Sceiri"
          - "Na Sceirí"
          - Skerries
        ascii_name: Skerries
        geonamesid: 2961461
        latitude: 53.58278
        longitude: -6.10833
        name: Skerries
        names_en: 
          - Skerries
        names_es: ~
        population: 10014
        timezone: Europe/Dublin
      - 
        alternate_names: 
          - "Na Sollain"
          - "Na Solláin"
          - Sallins
        ascii_name: Sallins
        geonamesid: 2961607
        latitude: 53.24889
        longitude: -6.66611
        name: Sallins
        names_en: 
          - Sallins
        names_es: ~
        population: 3164
        timezone: Europe/Dublin
      - 
        alternate_names: 
          - Rush
        ascii_name: "An Ros"
        geonamesid: 2961651
        latitude: 53.5223
        longitude: -6.09308
        name: "An Ros"
        names_en: 
          - Rush
        names_es: ~
        population: 7294
        timezone: Europe/Dublin
      - 
        alternate_names: 
          - "Ros Lair"
          - "Ros Láir"
          - Rosslare
        ascii_name: Rosslare
        geonamesid: 2961690
        latitude: 52.27583
        longitude: -6.38444
        name: Rosslare
        names_en: 
          - Rosslare
        names_es: ~
        population: 1145
        timezone: Europe/Dublin
      - 
        alternate_names: 
          - "Rath To"
          - Ratoath
          - "Ráth Tó"
        ascii_name: Ratoath
        geonamesid: 2961872
        latitude: 53.50806
        longitude: -6.4625
        name: Ratoath
        names_en: 
          - Ratoath
        names_es: ~
        population: 4084
        timezone: Europe/Dublin
      - 
        alternate_names: 
          - "Rath Droma"
          - Rathdrum
          - "Ráth Droma"
        ascii_name: Rathdrum
        geonamesid: 2961918
        latitude: 52.92639
        longitude: -6.23556
        name: Rathdrum
        names_en: 
          - Rathdrum
        names_es: ~
        population: 1649
        timezone: Europe/Dublin
      - 
        alternate_names: 
          - "Rath Cuil"
          - Rathcoole
          - "Ráth Cúil"
        ascii_name: Rathcoole
        geonamesid: 2961929
        latitude: 53.28278
        longitude: -6.47278
        name: Rathcoole
        names_en: 
          - Rathcoole
        names_es: ~
        population: 2443
        timezone: Europe/Dublin
      - 
        alternate_names: 
          - "Rath Iomghain"
          - Rathangan
          - "Ráth Iomgháin"
        ascii_name: Rathangan
        geonamesid: 2961938
        latitude: 53.22139
        longitude: -6.995
        name: Rathangan
        names_en: 
          - Rathangan
        names_es: ~
        population: 1961
        timezone: Europe/Dublin
      - 
        alternate_names: 
          - "An Chorrchoill"
          - Prosperous
        ascii_name: Prosperous
        geonamesid: 2961994
        latitude: 53.29028
        longitude: -6.75389
        name: Prosperous
        names_en: 
          - Prosperous
        names_es: ~
        population: 1649
        timezone: Europe/Dublin
      - 
        alternate_names: 
          - "Port Mearnog"
          - "Port Mearnóg"
          - Portmarnock
        ascii_name: Portmarnock
        geonamesid: 2962019
        latitude: 53.42306
        longitude: -6.1375
        name: Portmarnock
        names_en: 
          - Portmarnock
        names_es: ~
        population: 8037
        timezone: Europe/Dublin
      - 
        alternate_names: 
          - Maryboro'
          - Maryborough
          - "Port Laoighise"
          - "Port Laoise"
        ascii_name: "Port Laoise"
        geonamesid: 2962026
        latitude: 53.03441
        longitude: -7.29979
        name: "Port Laoise"
        names_en: 
          - Maryboro'
          - Maryborough
          - "Port Leix"
          - Portlaoise
        names_es: ~
        population: 13622
        timezone: Europe/Dublin
      - 
        alternate_names: 
          - "Cuil an tSudaire"
          - "Cúil an tSúdaire"
          - Portarlington
        ascii_name: Portarlington
        geonamesid: 2962029
        latitude: 53.16222
        longitude: -7.19111
        name: Portarlington
        names_en: 
          - Portarlington
        names_es: ~
        population: 4293
        timezone: Europe/Dublin
      - 
        alternate_names: ~
        ascii_name: "Old Kilcullen"
        geonamesid: 2962170
        latitude: 53.10639
        longitude: -6.76528
        name: "Old Kilcullen"
        names_en: ~
        names_es: ~
        population: 2110
        timezone: Europe/Dublin
      - 
        alternate_names: ~
        ascii_name: "Newtown Trim"
        geonamesid: 2962222
        latitude: 53.55611
        longitude: -6.77
        name: "Newtown Trim"
        names_en: ~
        names_es: ~
        population: 6781
        timezone: Europe/Dublin
      - 
        alternate_names: 
          - "New Ross"
          - Ross
        ascii_name: "Ros Mhic Thriuin"
        geonamesid: 2962252
        latitude: 52.39667
        longitude: -6.93667
        name: "Ros Mhic Thriúin"
        names_en: 
          - "New Ross"
        names_es: ~
        population: 6695
        timezone: Europe/Dublin
      - 
        alternate_names: 
          - "Droichead Nua"
          - "Droichead Nuadh"
          - Newbridge
        ascii_name: "Droichead Nua"
        geonamesid: 2962290
        latitude: 53.18194
        longitude: -6.79667
        name: "Droichead Nua"
        names_en: ~
        names_es: ~
        population: 18860
        timezone: Europe/Dublin
      - 
        alternate_names: 
          - Navan
        ascii_name: "An Uaimh"
        geonamesid: 2962308
        latitude: 53.65278
        longitude: -6.68139
        name: "An Uaimh"
        names_en: 
          - Navan
        names_es: ~
        population: 24545
        timezone: Europe/Dublin
      - 
        alternate_names: 
          - Naas
        ascii_name: "An Nas"
        geonamesid: 2962334
        latitude: 53.21583
        longitude: -6.66694
        name: "An Nás"
        names_en: 
          - Naas
        names_es: ~
        population: 20554
        timezone: Europe/Dublin
      - 
        alternate_names: 
          - "An Muileann gCearr"
          - Mullingar
        ascii_name: "An Muileann gCearr"
        geonamesid: 2962361
        latitude: 53.53333
        longitude: -7.35
        name: "An Muileann gCearr"
        names_en: 
          - Mullingar
        names_es: ~
        population: 17262
        timezone: Europe/Dublin
      - 
        alternate_names: 
          - "Maighean Ratha"
          - "Maighean Rátha"
          - Mountrath
        ascii_name: Mountrath
        geonamesid: 2962465
        latitude: 52.99889
        longitude: -7.47278
        name: Mountrath
        names_en: 
          - Mountrath
        names_es: ~
        population: 1597
        timezone: Europe/Dublin
      - 
        alternate_names: 
          - "Mointeach Milic"
          - Mountmellick
          - "Móinteach Mílic"
        ascii_name: Mountmellick
        geonamesid: 2962476
        latitude: 53.11361
        longitude: -7.32
        name: Mountmellick
        names_en: 
          - Mountmellick
        names_es: ~
        population: 3547
        timezone: Europe/Dublin
      - 
        alternate_names: 
          - "Mainistir Eimhin"
          - "Mainistir Eimhín"
          - Monasterevan
          - Monasterevin
        ascii_name: Monasterevin
        geonamesid: 2962556
        latitude: 53.14056
        longitude: -7.06639
        name: Monasterevin
        names_en: 
          - Monasterevin
        names_es: ~
        population: 2704
        timezone: Europe/Dublin
      - 
        alternate_names: ~
        ascii_name: Moate
        geonamesid: 2962580
        latitude: 53.55
        longitude: -7.71667
        name: Moate
        names_en: ~
        names_es: ~
        population: 1504
        timezone: Europe/Dublin
      - 
        alternate_names: 
          - "Maigh Nuad"
          - Maynooth
        ascii_name: Maynooth
        geonamesid: 2962668
        latitude: 53.385
        longitude: -6.59361
        name: Maynooth
        names_en: 
          - Maynooth
        names_es: ~
        population: 11318
        timezone: Europe/Dublin
      - 
        alternate_names: 
          - Malahide
          - "Mullach Ide"
          - "Mullach Íde"
        ascii_name: Malahide
        geonamesid: 2962725
        latitude: 53.45083
        longitude: -6.15444
        name: Malahide
        names_en: 
          - Malahide
        names_es: ~
        population: 14057
        timezone: Europe/Dublin
      - 
        alternate_names: 
          - Lusk
        ascii_name: Lusca
        geonamesid: 2962769
        latitude: 53.52743
        longitude: -6.16423
        name: Lusca
        names_en: 
          - Lusk
        names_es: ~
        population: 2508
        timezone: Europe/Dublin
      - 
        alternate_names: 
          - Longford
        ascii_name: "An Longfort"
        geonamesid: 2962840
        latitude: 53.73333
        longitude: -7.8
        name: "An Longfort"
        names_en: 
          - Longford
        names_es: ~
        population: 7787
        timezone: Europe/Dublin
      - 
        alternate_names: 
          - "Leim an Bhradain"
          - Leixlip
          - "Léim an Bhradáin"
        ascii_name: Leixlip
        geonamesid: 2962974
        latitude: 53.36583
        longitude: -6.49556
        name: Leixlip
        names_en: 
          - Leixlip
        names_es: ~
        population: 15729
        timezone: Europe/Dublin
      - 
        alternate_names: 
          - "An Inse"
          - Laytown
        ascii_name: Laytown
        geonamesid: 2963007
        latitude: 53.68194
        longitude: -6.23917
        name: Laytown
        names_en: 
          - Laytown
        names_es: ~
        population: 6342
        timezone: Europe/Dublin
      - 
        alternate_names: 
          - Knockbridge
          - "Nok Bride"
          - "Нок Бриде"
        ascii_name: Knockbridge
        geonamesid: 2963105
        latitude: 53.9732
        longitude: -6.48597
        name: Knockbridge
        names_en: 
          - Knockbridge
        names_es: ~
        population: 1700
        timezone: Europe/Dublin
      - 
        alternate_names: 
          - "Cill Chainnigh"
          - Kilkenni
          - Kilkenny
          - "Kilkenny city"
        ascii_name: "Cill Chainnigh"
        geonamesid: 2963398
        latitude: 52.65417
        longitude: -7.25222
        name: "Cill Chainnigh"
        names_en: 
          - Kilkenny
          - "Kilkenny city"
        names_es: 
          - Kilkenny
        population: 21589
        timezone: Europe/Dublin
      - 
        alternate_names: 
          - "Cill Chomhghaill"
          - Kilcoole
        ascii_name: Kilcoole
        geonamesid: 2963460
        latitude: 53.10278
        longitude: -6.065
        name: Kilcoole
        names_en: 
          - Kilcoole
        names_es: ~
        population: 2869
        timezone: Europe/Dublin
      - 
        alternate_names: 
          - "Cill Choca"
          - Kilcock
        ascii_name: Kilcock
        geonamesid: 2963472
        latitude: 53.40222
        longitude: -6.67083
        name: Kilcock
        names_en: 
          - Kilcock
        names_es: ~
        population: 3293
        timezone: Europe/Dublin
      - 
        alternate_names: 
          - "Ceanannus Mor"
          - "Ceanannus Mór"
          - Kells
        ascii_name: Ceanannas
        geonamesid: 2963528
        latitude: 53.72639
        longitude: -6.87917
        name: Ceanannas
        names_en: 
          - Kells
        names_es: ~
        population: 4820
        timezone: Europe/Dublin
      - 
        alternate_names: 
          - Greystones
          - "Na Clocha Liatha"
        ascii_name: Greystones
        geonamesid: 2963848
        latitude: 53.14083
        longitude: -6.06306
        name: Greystones
        names_en: 
          - Greystones
        names_es: ~
        population: 12260
        timezone: Europe/Dublin
      - 
        alternate_names: 
          - Granard
          - Gránard
          - Гранард
        ascii_name: Granard
        geonamesid: 2963902
        latitude: 53.76667
        longitude: -7.5
        name: Granard
        names_en: 
          - Granard
        names_es: ~
        population: 1292
        timezone: Europe/Dublin
      - 
        alternate_names: 
          - Gorey
          - Guaire
        ascii_name: Gorey
        geonamesid: 2963962
        latitude: 52.67472
        longitude: -6.2925
        name: Gorey
        names_en: 
          - Gorey
        names_es: ~
        population: 6040
        timezone: Europe/Dublin
      - 
        alternate_names: 
          - "Ath na Sceire"
          - Enniskerry
          - "Áth na Sceire"
        ascii_name: Enniskerry
        geonamesid: 2964401
        latitude: 53.1925
        longitude: -6.16917
        name: Enniskerry
        names_en: 
          - Enniskerry
        names_es: ~
        population: 1990
        timezone: Europe/Dublin
      - 
        alternate_names: 
          - Enniscorthy
        ascii_name: "Inis Corthaidh"
        geonamesid: 2964403
        latitude: 52.50083
        longitude: -6.55778
        name: "Inis Córthaidh"
        names_en: 
          - Enniscorthy
        names_es: ~
        population: 9709
        timezone: Europe/Dublin
      - 
        alternate_names: 
          - "Eaden Doire"
          - Edenderry
          - "Éaden Doire"
        ascii_name: Edenderry
        geonamesid: 2964436
        latitude: 53.34528
        longitude: -7.04972
        name: Edenderry
        names_en: 
          - Edenderry
        names_es: ~
        population: 4890
        timezone: Europe/Dublin
      - 
        alternate_names: 
          - "Dun Seachlainn"
          - Dunshaughlin
          - "Dún Seachlainn"
        ascii_name: Dunshaughlin
        geonamesid: 2964472
        latitude: 53.5125
        longitude: -6.54
        name: Dunshaughlin
        names_en: 
          - Dunshaughlin
        names_es: ~
        population: 3567
        timezone: Europe/Dublin
      - 
        alternate_names: 
          - D"ndok
          - "Dun Dealgan"
          - Dundalk
          - "Dún Dealgan"
        ascii_name: "Dun Dealgan"
        geonamesid: 2964540
        latitude: 54.0
        longitude: -6.41667
        name: "Dún Dealgan"
        names_en: 
          - Dundalk
        names_es: 
          - Dundalk
        population: 33428
        timezone: Europe/Dublin
      - 
        alternate_names: ~
        ascii_name: Dunboyne
        geonamesid: 2964547
        latitude: 53.4
        longitude: -6.46667
        name: Dunboyne
        names_en: ~
        names_es: ~
        population: 6718
        timezone: Europe/Dublin
      - 
        alternate_names: 
          - Damhliag
          - Duleek
        ascii_name: Duleek
        geonamesid: 2964558
        latitude: 53.65667
        longitude: -6.41917
        name: Duleek
        names_en: 
          - Duleek
        names_es: ~
        population: 2376
        timezone: Europe/Dublin
      - 
        alternate_names: 
          - "Baile Atha Cliath"
          - "Baile Átha Cliath"
          - "Ciuda de Dublin"
          - "Ciudá de Dublín"
        ascii_name: Dublin
        geonamesid: 2964574
        latitude: 53.34399
        longitude: -6.26719
        name: Dublin
        names_en: 
          - Dublin
          - "Dublin city"
        names_es: 
          - Dublín
        population: 1024027
        timezone: Europe/Dublin
      - 
        alternate_names: 
          - Drogheda
          - "Drogheda - Droichead Atha"
          - "Drogheda - Droichead Átha"
          - "Droichead Atha"
        ascii_name: Drogheda
        geonamesid: 2964661
        latitude: 53.71889
        longitude: -6.34778
        name: Drogheda
        names_en: 
          - Drogheda
        names_es: 
          - Drogheda
        population: 33441
        timezone: Europe/Dublin
      - 
        alternate_names: ~
        ascii_name: Donnybrook
        geonamesid: 2964745
        latitude: 53.31375
        longitude: -6.22274
        name: Donnybrook
        names_en: ~
        names_es: ~
        population: 2000
        timezone: Europe/Dublin
      - 
        alternate_names: 
          - "Domhnach Bat"
          - Donabate
        ascii_name: Donabate
        geonamesid: 2964765
        latitude: 53.48722
        longitude: -6.15194
        name: Donabate
        names_en: 
          - Donabate
        names_es: ~
        population: 3936
        timezone: Europe/Dublin
      - 
        alternate_names: 
          - Clara
          - Cloirtheach
          - Clóirtheach
        ascii_name: Clara
        geonamesid: 2965482
        latitude: 53.3425
        longitude: -7.61389
        name: Clara
        names_en: 
          - Clara
        names_es: ~
        population: 2783
        timezone: Europe/Dublin
      - 
        alternate_names: 
          - Clane
          - Claonadh
        ascii_name: Clane
        geonamesid: 2965484
        latitude: 53.29139
        longitude: -6.68917
        name: Clane
        names_en: 
          - Clane
        names_es: ~
        population: 5155
        timezone: Europe/Dublin
      - 
        alternate_names: ~
        ascii_name: Cherryville
        geonamesid: 2965509
        latitude: 53.15694
        longitude: -6.96667
        name: Cherryville
        names_en: ~
        names_es: ~
        population: 6380
        timezone: Europe/Dublin
      - 
        alternate_names: 
          - Celbridge
          - "Cill Droichid"
        ascii_name: Celbridge
        geonamesid: 2965529
        latitude: 53.33861
        longitude: -6.54361
        name: Celbridge
        names_en: 
          - Celbridge
        names_es: ~
        population: 18167
        timezone: Europe/Dublin
      - 
        alternate_names: 
          - "Caislean an Chomair"
          - "Caisleán an Chomair"
          - Castlecomer
        ascii_name: Castlecomer
        geonamesid: 2965643
        latitude: 52.80611
        longitude: -7.21056
        name: Castlecomer
        names_en: 
          - Castlecomer
        names_es: ~
        population: 1686
        timezone: Europe/Dublin
      - 
        alternate_names: 
          - Carlow
        ascii_name: Ceatharlach
        geonamesid: 2965768
        latitude: 52.84083
        longitude: -6.92611
        name: Ceatharlach
        names_en: 
          - Carlow
        names_es: ~
        population: 20055
        timezone: Europe/Dublin
      - 
        alternate_names: 
          - Bre
          - Brej
          - "Bri Chualann"
          - Bré
        ascii_name: Bray
        geonamesid: 2966022
        latitude: 53.20278
        longitude: -6.09833
        name: Bray
        names_en: ~
        names_es: ~
        population: 32317
        timezone: Europe/Dublin
      - 
        alternate_names: 
          - "Baile Coimin"
          - "Baile Coimín"
          - Blessington
        ascii_name: Blessington
        geonamesid: 2966101
        latitude: 53.17
        longitude: -6.5325
        name: Blessington
        names_en: 
          - Blessington
        names_es: ~
        population: 2874
        timezone: Europe/Dublin
      - 
        alternate_names: ~
        ascii_name: Blackrock
        geonamesid: 2966130
        latitude: 53.96405
        longitude: -6.36514
        name: Blackrock
        names_en: ~
        names_es: ~
        population: 3000
        timezone: Europe/Dublin
      - 
        alternate_names: 
          - Blackrock
          - "Carraig Dubh"
        ascii_name: Blackrock
        geonamesid: 2966131
        latitude: 53.3015
        longitude: -6.1778
        name: Blackrock
        names_en: 
          - Blackrock
        names_es: ~
        population: 20701
        timezone: Europe/Dublin
      - 
        alternate_names: 
          - Biorra
          - Birr
          - Parsonstown
          - Бирр
        ascii_name: Birr
        geonamesid: 2966154
        latitude: 53.09139
        longitude: -7.91333
        name: Birr
        names_en: ~
        names_es: ~
        population: 4549
        timezone: Europe/Dublin
      - 
        alternate_names: 
          - Banagher
          - Beannchar
        ascii_name: Banagher
        geonamesid: 2966371
        latitude: 53.18861
        longitude: -7.98667
        name: Banagher
        names_en: 
          - Banagher
        names_es: ~
        population: 1586
        timezone: Europe/Dublin
      - 
        alternate_names: 
          - "Baile Brigin"
          - "Baile Brigín"
          - Balbriggan
        ascii_name: Balbriggan
        geonamesid: 2966794
        latitude: 53.61278
        longitude: -6.18194
        name: Balbriggan
        names_en: 
          - Balbriggan
        names_es: ~
        population: 11293
        timezone: Europe/Dublin
      - 
        alternate_names: 
          - Bagenalstown
          - "Muine Bheag"
        ascii_name: "Muine Bheag"
        geonamesid: 2966800
        latitude: 52.70614
        longitude: -6.95984
        name: "Muine Bheag"
        names_en: 
          - Bagenalstown
        names_es: ~
        population: 3033
        timezone: Europe/Dublin
      - 
        alternate_names: 
          - Athy
        ascii_name: "Baile Atha I"
        geonamesid: 2966837
        latitude: 52.99139
        longitude: -6.98028
        name: "Baile Átha Í"
        names_en: 
          - Athy
        names_es: ~
        population: 6382
        timezone: Europe/Dublin
      - 
        alternate_names: 
          - Athlone
        ascii_name: "Baile Atha Luain"
        geonamesid: 2966839
        latitude: 53.43333
        longitude: -7.95
        name: "Baile Átha Luain"
        names_en: 
          - Athlone
        names_es: ~
        population: 15951
        timezone: Europe/Dublin
      - 
        alternate_names: 
          - Athboy
          - "Baile Atha Bui"
          - "Baile Átha Buí"
        ascii_name: Athboy
        geonamesid: 2966848
        latitude: 53.61861
        longitude: -6.92056
        name: Athboy
        names_en: 
          - Athboy
        names_es: ~
        population: 1656
        timezone: Europe/Dublin
      - 
        alternate_names: 
          - Ashbourne
          - "Cill Dheaglain"
          - "Cill Dhéagláin"
        ascii_name: Ashbourne
        geonamesid: 2966870
        latitude: 53.51083
        longitude: -6.42722
        name: Ashbourne
        names_en: 
          - Ashbourne
        names_es: ~
        population: 7001
        timezone: Europe/Dublin
      - 
        alternate_names: 
          - "An tInbhear Mor"
          - "An tInbhear Mór"
        ascii_name: Arklow
        geonamesid: 2966883
        latitude: 52.79306
        longitude: -6.14139
        name: Arklow
        names_en: ~
        names_es: ~
        population: 10622
        timezone: Europe/Dublin
      - 
        alternate_names: 
          - Ardee
          - "Baile Atha Fhirdhia"
          - "Baile Átha Fhirdhia"
        ascii_name: Ardee
        geonamesid: 2966925
        latitude: 53.85972
        longitude: -6.54056
        name: Ardee
        names_en: 
          - Ardee
        names_es: ~
        population: 4008
        timezone: Europe/Dublin
      - 
        alternate_names: 
          - Abbeyleix
          - "Mainistir Laoise"
        ascii_name: Abbeyleix
        geonamesid: 2967092
        latitude: 52.89917
        longitude: -7.3575
        name: Abbeyleix
        names_en: 
          - Abbeyleix
        names_es: ~
        population: 1711
        timezone: Europe/Dublin
      - 
        alternate_names: ~
        ascii_name: Portraine
        geonamesid: 3230840
        latitude: 53.49667
        longitude: -6.11111
        name: Portraine
        names_en: ~
        names_es: ~
        population: 1763
        timezone: Europe/Dublin
      - 
        alternate_names: 
          - "Cill Chormaic"
          - Kilcormac
        ascii_name: Kilcormac
        geonamesid: 3313832
        latitude: 53.17417
        longitude: -7.72556
        name: Kilcormac
        names_en: 
          - Kilcormac
        names_es: ~
        population: 1200
        timezone: Europe/Dublin
      - 
        alternate_names: ~
        ascii_name: Sandyford
        geonamesid: 3315278
        latitude: 53.2747
        longitude: -6.2253
        name: Sandyford
        names_en: ~
        names_es: ~
        population: 5844
        timezone: Europe/Dublin
    geonamesid: 7521314
    name: Leinster
    names_en: ~
    names_es: ~
  - 
    ascii_name: Munster
    cities: 
      - 
        alternate_names: 
          - Youghal
        ascii_name: Eochaill
        geonamesid: 2960869
        latitude: 51.95
        longitude: -7.85056
        name: Eochaill
        names_en: 
          - Youghal
        names_es: ~
        population: 6868
        timezone: Europe/Dublin
      - 
        alternate_names: 
          - "Port Lairge"
          - "Port Láirge"
          - Uoterford
          - Waterford
        ascii_name: "Port Lairge"
        geonamesid: 2960992
        latitude: 52.25833
        longitude: -7.11194
        name: "Port Láirge"
        names_en: 
          - Waterford
          - "Waterford city"
        names_es: 
          - Waterford
        population: 47904
        timezone: Europe/Dublin
      - 
        alternate_names: 
          - Tramore
        ascii_name: "Tra Mhor"
        geonamesid: 2961120
        latitude: 52.16235
        longitude: -7.15244
        name: "Trá Mhór"
        names_en: 
          - Tramore
        names_es: ~
        population: 9164
        timezone: Europe/Dublin
      - 
        alternate_names: 
          - "Tra Li"
          - Tralee
          - "Trá Lí"
        ascii_name: "Tra Li"
        geonamesid: 2961123
        latitude: 52.27042
        longitude: -9.70264
        name: "Trá Lí"
        names_en: 
          - Tralee
        names_es: 
          - Tralee
        population: 22941
        timezone: Europe/Dublin
      - 
        alternate_names: 
          - Tower
          - "Tower Village"
        ascii_name: Tower
        geonamesid: 2961129
        latitude: 51.91667
        longitude: -8.6
        name: Tower
        names_en: ~
        names_es: ~
        population: 3099
        timezone: Europe/Dublin
      - 
        alternate_names: 
          - Tipperary
        ascii_name: "Tiobraid Arann"
        geonamesid: 2961192
        latitude: 52.47333
        longitude: -8.15583
        name: "Tiobraid Árann"
        names_en: 
          - Tipperary
        names_es: ~
        population: 4976
        timezone: Europe/Dublin
      - 
        alternate_names: 
          - Thurles
        ascii_name: Durlas
        geonamesid: 2961214
        latitude: 52.68194
        longitude: -7.80222
        name: Durlas
        names_en: 
          - Thurles
        names_es: ~
        population: 7588
        timezone: Europe/Dublin
      - 
        alternate_names: 
          - Templemore
        ascii_name: "An Teampall Mor"
        geonamesid: 2961237
        latitude: 52.79472
        longitude: -7.83389
        name: "An Teampall Mór"
        names_en: 
          - Templemore
        names_es: ~
        population: 2264
        timezone: Europe/Dublin
      - 
        alternate_names: 
          - Skibbereen
        ascii_name: "An Sciobairin"
        geonamesid: 2961459
        latitude: 51.55
        longitude: -9.26667
        name: "An Sciobairin"
        names_en: 
          - Skibbereen
        names_es: ~
        population: 2098
        timezone: Europe/Dublin
      - 
        alternate_names: 
          - "Ros Cre"
          - "Ros Cré"
          - Roscrea
        ascii_name: Roscrea
        geonamesid: 2961730
        latitude: 52.95111
        longitude: -7.80167
        name: Roscrea
        names_en: 
          - Roscrea
        names_es: ~
        population: 4721
        timezone: Europe/Dublin
      - 
        alternate_names: 
          - "Rath Caola"
          - Rathkeale
          - "Ráth Caola"
        ascii_name: Rathkeale
        geonamesid: 2961905
        latitude: 52.52444
        longitude: -8.93806
        name: Rathkeale
        names_en: 
          - Rathkeale
        names_es: ~
        population: 1470
        timezone: Europe/Dublin
      - 
        alternate_names: 
          - "An Pasaiste"
          - "An Pasáiste"
          - Passage
          - "Passage West"
        ascii_name: "Passage West"
        geonamesid: 2962066
        latitude: 51.87389
        longitude: -8.34444
        name: "Passage West"
        names_en: 
          - "Passage West"
        names_es: ~
        population: 4907
        timezone: Europe/Dublin
      - 
        alternate_names: 
          - "Cora Chaitlin"
          - "Cora Chaitlín"
          - "Newmarket on Fergus"
        ascii_name: "Newmarket on Fergus"
        geonamesid: 2962262
        latitude: 52.76
        longitude: -8.89556
        name: "Newmarket on Fergus"
        names_en: 
          - "Newmarket on Fergus"
        names_es: ~
        population: 1754
        timezone: Europe/Dublin
      - 
        alternate_names: 
          - "An Caislean Nua"
          - "An Caisleán Nua"
          - Newcastle
          - "Newcastle West"
        ascii_name: "Newcastle West"
        geonamesid: 2962283
        latitude: 52.44917
        longitude: -9.06111
        name: "Newcastle West"
        names_en: 
          - "Newcastle West"
        names_es: ~
        population: 4184
        timezone: Europe/Dublin
      - 
        alternate_names: 
          - "An tAonach"
          - Nenagh
          - "The Meeting"
        ascii_name: Nenagh
        geonamesid: 2962304
        latitude: 52.86194
        longitude: -8.19667
        name: Nenagh
        names_en: 
          - Nenagh
        names_es: ~
        population: 5500
        timezone: Europe/Dublin
      - 
        alternate_names: 
          - "Baile Mhisteala"
          - "Baile Mhistéala"
          - Mitchelstown
        ascii_name: Mitchelstown
        geonamesid: 2962587
        latitude: 52.26583
        longitude: -8.26806
        name: Mitchelstown
        names_en: 
          - Mitchelstown
        names_es: ~
        population: 3357
        timezone: Europe/Dublin
      - 
        alternate_names: 
          - Middleton
          - Midleton
        ascii_name: "Mainister na Corann"
        geonamesid: 2962630
        latitude: 51.90944
        longitude: -8.17361
        name: "Mainister na Corann"
        names_en: 
          - Midleton
        names_es: ~
        population: 8891
        timezone: Europe/Dublin
      - 
        alternate_names: 
          - Mala
        ascii_name: Mallow
        geonamesid: 2962714
        latitude: 52.13333
        longitude: -8.63333
        name: Mallow
        names_en: ~
        names_es: ~
        population: 9495
        timezone: Europe/Dublin
      - 
        alternate_names: 
          - "Maigh Chromtha"
        ascii_name: Macroom
        geonamesid: 2962745
        latitude: 51.9
        longitude: -8.95
        name: Macroom
        names_en: ~
        names_es: ~
        population: 3169
        timezone: Europe/Dublin
      - 
        alternate_names: 
          - Listowel
        ascii_name: "Lios Tuathail"
        geonamesid: 2962864
        latitude: 52.44639
        longitude: -9.485
        name: "Lios Tuathail"
        names_en: 
          - Listowel
        names_es: ~
        population: 4143
        timezone: Europe/Dublin
      - 
        alternate_names: 
          - Limereick
          - Limerick
          - "Limerick - Luimneach"
          - "Limerick city"
        ascii_name: Limerick
        geonamesid: 2962943
        latitude: 52.66472
        longitude: -8.62306
        name: Limerick
        names_en: 
          - Limerick
          - "Limerick city"
        names_es: 
          - Limerick
        population: 90054
        timezone: Europe/Dublin
      - 
        alternate_names: 
          - "Cionn tSaile"
          - "Cionn tSáile"
          - Kinsale
        ascii_name: "Cionn tSaile"
        geonamesid: 2963155
        latitude: 51.7075
        longitude: -8.53056
        name: "Cionn tSáile"
        names_en: 
          - Kinsale
        names_es: 
          - Kinsale
        population: 3843
        timezone: Europe/Dublin
      - 
        alternate_names: 
          - Kilrush
        ascii_name: "Cill Rois"
        geonamesid: 2963218
        latitude: 52.63972
        longitude: -9.48333
        name: "Cill Rois"
        names_en: 
          - Kilrush
        names_es: ~
        population: 2712
        timezone: Europe/Dublin
      - 
        alternate_names: 
          - "Cill Mocheallog"
          - "Cill Mocheallóg"
          - Kilmailock
          - Kilmallock
        ascii_name: Kilmallock
        geonamesid: 2963275
        latitude: 52.4
        longitude: -8.57722
        name: Kilmallock
        names_en: 
          - Kilmallock
        names_es: ~
        population: 1523
        timezone: Europe/Dublin
      - 
        alternate_names: 
          - "Cill Orglan"
          - Killorglin
        ascii_name: Killorglin
        geonamesid: 2963311
        latitude: 52.1
        longitude: -9.78333
        name: Killorglin
        names_en: 
          - Killorglin
        names_es: ~
        population: 1409
        timezone: Europe/Dublin
      - 
        alternate_names: 
          - "Cill Airne"
          - Killarney
        ascii_name: "Cill Airne"
        geonamesid: 2963370
        latitude: 52.05
        longitude: -9.51667
        name: "Cill Airne"
        names_en: 
          - Killarney
        names_es: 
          - Killarney
        population: 7300
        timezone: Europe/Dublin
      - 
        alternate_names: ~
        ascii_name: Kill
        geonamesid: 2963388
        latitude: 52.17611
        longitude: -7.335
        name: Kill
        names_en: ~
        names_es: ~
        population: 2304
        timezone: Europe/Dublin
      - 
        alternate_names: 
          - Kenmare
          - Kevmare
          - Neidin
        ascii_name: Kenmare
        geonamesid: 2963522
        latitude: 51.88333
        longitude: -9.58333
        name: Kenmare
        names_en: 
          - Kenmare
        names_es: ~
        population: 2023
        timezone: Europe/Dublin
      - 
        alternate_names: 
          - "Ceann Toirc"
          - Kanturk
        ascii_name: Kanturk
        geonamesid: 2963555
        latitude: 52.16667
        longitude: -8.9
        name: Kanturk
        names_en: 
          - Kanturk
        names_es: ~
        population: 1628
        timezone: Europe/Dublin
      - 
        alternate_names: 
          - Fermoy
        ascii_name: "Mainistir Fhear Mai"
        geonamesid: 2964320
        latitude: 52.13583
        longitude: -8.27583
        name: "Mainistir Fhear Maí"
        names_en: 
          - Fermoy
        names_es: ~
        population: 4933
        timezone: Europe/Dublin
      - 
        alternate_names: 
          - Enis
          - Ennis
          - Inis
          - Енис
        ascii_name: Inis
        geonamesid: 2964405
        latitude: 52.84361
        longitude: -8.98639
        name: Inis
        names_en: 
          - Ennis
        names_es: ~
        population: 24427
        timezone: Europe/Dublin
      - 
        alternate_names: 
          - "Dun Mor"
          - Dunmore
          - "Dunmore East"
          - "Dún Mór"
        ascii_name: "Dunmore East"
        geonamesid: 2964492
        latitude: 52.15139
        longitude: -6.98611
        name: "Dunmore East"
        names_en: 
          - "Dunmore East"
        names_es: ~
        population: 1795
        timezone: Europe/Dublin
      - 
        alternate_names: 
          - "Dun Manmhai"
          - Dunmanway
          - "Dún Mánmhaí"
        ascii_name: Dunmanway
        geonamesid: 2964496
        latitude: 51.71667
        longitude: -9.11667
        name: Dunmanway
        names_en: 
          - Dunmanway
        names_es: ~
        population: 1566
        timezone: Europe/Dublin
      - 
        alternate_names: 
          - "Dun Garbhan"
          - "Dún Garbhán"
        ascii_name: Dungarvan
        geonamesid: 2964528
        latitude: 52.08806
        longitude: -7.62528
        name: Dungarvan
        names_en: ~
        names_es: ~
        population: 7551
        timezone: Europe/Dublin
      - 
        alternate_names: 
          - "An Daingean"
          - Dingle
        ascii_name: Dingle
        geonamesid: 2964782
        latitude: 52.14083
        longitude: -10.26889
        name: Dingle
        names_en: 
          - Dingle
        names_es: ~
        population: 1971
        timezone: Europe/Dublin
      - 
        alternate_names: ~
        ascii_name: Derry
        geonamesid: 2964820
        latitude: 51.58666
        longitude: -9.05026
        name: Derry
        names_en: ~
        names_es: ~
        population: 10000
        timezone: Europe/Dublin
      - 
        alternate_names: 
          - Corcaigh
          - Cork
          - "Cork - Corcaigh"
          - "Cork city"
        ascii_name: Cork
        geonamesid: 2965140
        latitude: 51.89797
        longitude: -8.47061
        name: Cork
        names_en: 
          - Cork
          - "Cork city"
        names_es: 
          - Cork
        population: 190384
        timezone: Europe/Dublin
      - 
        alternate_names: 
          - "An Cobh"
          - "An Cóbh"
          - Cobh
          - Queenstown
        ascii_name: Cobh
        geonamesid: 2965260
        latitude: 51.85722
        longitude: -8.29917
        name: Cobh
        names_en: 
          - Cobh
        names_es: ~
        population: 10501
        timezone: Europe/Dublin
      - 
        alternate_names: 
          - "Cluain Meala"
        ascii_name: Clonmel
        geonamesid: 2965353
        latitude: 52.355
        longitude: -7.70389
        name: Clonmel
        names_en: ~
        names_es: ~
        population: 17394
        timezone: Europe/Dublin
      - 
        alternate_names: 
          - "Cloich na Coillte"
        ascii_name: Clonakilty
        geonamesid: 2965402
        latitude: 51.62306
        longitude: -8.87056
        name: Clonakilty
        names_en: ~
        names_es: ~
        population: 4065
        timezone: Europe/Dublin
      - 
        alternate_names: 
          - Charleville
          - "Rath Luirc"
          - "Ráth Luirc"
        ascii_name: "Rath Luirc"
        geonamesid: 2965516
        latitude: 52.35
        longitude: -8.68333
        name: "Ráth Luirc"
        names_en: ~
        names_es: ~
        population: 2674
        timezone: Europe/Dublin
      - 
        alternate_names: 
          - Castleisland
          - "Oilean Ciarrai"
          - "Oileán Ciarraí"
        ascii_name: Castleisland
        geonamesid: 2965604
        latitude: 52.23333
        longitude: -9.46667
        name: Castleisland
        names_en: 
          - Castleisland
        names_es: ~
        population: 2122
        timezone: Europe/Dublin
      - 
        alternate_names: 
          - Caiseal
        ascii_name: Cashel
        geonamesid: 2965664
        latitude: 52.51583
        longitude: -7.88556
        name: Cashel
        names_en: ~
        names_es: ~
        population: 2798
        timezone: Europe/Dublin
      - 
        alternate_names: 
          - "Carraig Ui Leighin"
          - "Carraig Uí Leighin"
          - Carrigaline
        ascii_name: Carrigaline
        geonamesid: 2965715
        latitude: 51.81167
        longitude: -8.39861
        name: Carrigaline
        names_en: 
          - Carrigaline
        names_es: ~
        population: 12902
        timezone: Europe/Dublin
      - 
        alternate_names: 
          - "Carraig na Siuire"
          - "Carraig na Siúire"
        ascii_name: Carrick-on-Suir
        geonamesid: 2965726
        latitude: 52.34917
        longitude: -7.41306
        name: Carrick-on-Suir
        names_en: ~
        names_es: ~
        population: 5710
        timezone: Europe/Dublin
      - 
        alternate_names: 
          - Cahersiveen
          - Cahersween
          - "Cathair Saidhbhin"
          - "Cathair Saidhbhín"
        ascii_name: Cahersiveen
        geonamesid: 2965852
        latitude: 51.94861
        longitude: -10.22222
        name: Cahersiveen
        names_en: 
          - Cahersiveen
        names_es: ~
        population: 1409
        timezone: Europe/Dublin
      - 
        alternate_names: 
          - "An Chathair"
          - Caher
          - Cahir
          - "Án Chathair"
        ascii_name: Caher
        geonamesid: 2965873
        latitude: 52.37694
        longitude: -7.92167
        name: Caher
        names_en: 
          - Caher
        names_es: ~
        population: 3057
        timezone: Europe/Dublin
      - 
        alternate_names: 
          - "An Bhlarna"
          - Blarney
        ascii_name: Blarney
        geonamesid: 2966107
        latitude: 51.93333
        longitude: -8.56667
        name: Blarney
        names_en: 
          - Blarney
        names_es: ~
        population: 2215
        timezone: Europe/Dublin
      - 
        alternate_names: 
          - Bantry
          - Beanntrai
          - Beanntraí
        ascii_name: Bantry
        geonamesid: 2966356
        latitude: 51.68333
        longitude: -9.45
        name: Bantry
        names_en: 
          - Bantry
        names_es: ~
        population: 3234
        timezone: Europe/Dublin
      - 
        alternate_names: 
          - Bandon
          - "Droichead na Bandon"
        ascii_name: Bandon
        geonamesid: 2966370
        latitude: 51.74694
        longitude: -8.7425
        name: Bandon
        names_en: 
          - Bandon
        names_es: ~
        population: 5492
        timezone: Europe/Dublin
      - 
        alternate_names: 
          - "Baile an Bhuinneanaigh"
          - "Baile an Bhuinneánaigh"
          - Ballybunnion
        ascii_name: Ballybunnion
        geonamesid: 2966658
        latitude: 52.50972
        longitude: -9.67167
        name: Ballybunnion
        names_en: 
          - Ballybunnion
        names_es: ~
        population: 1626
        timezone: Europe/Dublin
      - 
        alternate_names: 
          - Abbeyfeale
          - "Mainistir na Feile"
          - "Mainistir na Féile"
        ascii_name: Abbeyfeale
        geonamesid: 2967095
        latitude: 52.38139
        longitude: -9.3025
        name: Abbeyfeale
        names_en: 
          - Abbeyfeale
        names_es: ~
        population: 1734
        timezone: Europe/Dublin
      - 
        alternate_names: ~
        ascii_name: "Nenagh Bridge"
        geonamesid: 3306439
        latitude: 52.88167
        longitude: -8.19583
        name: "Nenagh Bridge"
        names_en: ~
        names_es: ~
        population: 6672
        timezone: Europe/Dublin
      - 
        alternate_names: 
          - "An tSionna"
          - Shannon
          - "Shannon Town"
          - Shennon
        ascii_name: Shannon
        geonamesid: 3310247
        latitude: 52.70389
        longitude: -8.86417
        name: Shannon
        names_en: 
          - Shannon
        names_es: ~
        population: 8781
        timezone: Europe/Dublin
    geonamesid: 7521315
    name: Munster
    names_en: ~
    names_es: ~
  - 
    ascii_name: Ulster
    cities: 
      - 
        alternate_names: 
          - Buncrana
        ascii_name: "Bun Cranncha"
        geonamesid: 2654332
        latitude: 55.13333
        longitude: -7.45
        name: "Bun Cranncha"
        names_en: 
          - Buncrana
        names_es: ~
        population: 5546
        timezone: Europe/Dublin
      - 
        alternate_names: 
          - "Bun an Phobail"
          - Moville
        ascii_name: Moville
        geonamesid: 2962450
        latitude: 55.18333
        longitude: -7.05
        name: Moville
        names_en: 
          - Moville
        names_es: ~
        population: 1402
        timezone: Europe/Dublin
      - 
        alternate_names: 
          - Monaghan
        ascii_name: Muineachan
        geonamesid: 2962568
        latitude: 54.25
        longitude: -6.96667
        name: Muineachán
        names_en: 
          - Monaghan
        names_es: ~
        population: 5937
        timezone: Europe/Dublin
      - 
        alternate_names: 
          - Leifear
          - Lifford
        ascii_name: Leifear
        geonamesid: 2962945
        latitude: 54.83194
        longitude: -7.48361
        name: Leifear
        names_en: 
          - Lifford
        names_es: ~
        population: 1617
        timezone: Europe/Dublin
      - 
        alternate_names: 
          - "Leitir Ceanainn"
          - Letterkenny
        ascii_name: Letterkenny
        geonamesid: 2962961
        latitude: 54.95
        longitude: -7.73333
        name: Letterkenny
        names_en: 
          - Letterkenny
        names_es: 
          - Letterkenny
        population: 16901
        timezone: Europe/Dublin
      - 
        alternate_names: 
          - Killybegs
          - "Na Ceala Beaga"
          - "Na Cealla Beaga"
        ascii_name: Killybegs
        geonamesid: 2963295
        latitude: 54.63333
        longitude: -8.45
        name: Killybegs
        names_en: 
          - Killybegs
        names_es: ~
        population: 1725
        timezone: Europe/Dublin
      - 
        alternate_names: 
          - "Gaoth Dobhair"
          - Gweedore
          - Krokh'li
          - Крохьли
        ascii_name: Gweedore
        geonamesid: 2963827
        latitude: 55.05028
        longitude: -8.23194
        name: Gweedore
        names_en: 
          - Gweedore
        names_es: ~
        population: 4200
        timezone: Europe/Dublin
      - 
        alternate_names: 
          - Glenties
          - "Na Gleannta"
        ascii_name: Glenties
        geonamesid: 2964006
        latitude: 54.7975
        longitude: -8.2825
        name: Glenties
        names_en: 
          - Glenties
        names_es: ~
        population: 1500
        timezone: Europe/Dublin
      - 
        alternate_names: 
          - "Dun Luiche"
          - "Dun Lukhe"
          - Dunlewy
          - "Dún Lúiche"
        ascii_name: Dunlewy
        geonamesid: 2964503
        latitude: 55.01667
        longitude: -8.1
        name: Dunlewy
        names_en: 
          - "Dún Lúiche"
          - Dunlewy
        names_es: ~
        population: 3400
        timezone: Europe/Dublin
      - 
        alternate_names: 
          - Donegal
          - "Dun na nGall"
          - "Dún na nGall"
        ascii_name: Donegal
        geonamesid: 2964752
        latitude: 54.65
        longitude: -8.11667
        name: Donegal
        names_en: 
          - Donegal
        names_es: ~
        population: 2513
        timezone: Europe/Dublin
      - 
        alternate_names: 
          - Cootehill
          - Muinchille
        ascii_name: Cootehill
        geonamesid: 2965158
        latitude: 54.0725
        longitude: -7.08194
        name: Cootehill
        names_en: 
          - Cootehill
        names_es: ~
        population: 1713
        timezone: Europe/Dublin
      - 
        alternate_names: 
          - Clones
        ascii_name: "Cluain Eois"
        geonamesid: 2965367
        latitude: 54.18333
        longitude: -7.23333
        name: "Cluain Eois"
        names_en: 
          - Clones
        names_es: ~
        population: 1834
        timezone: Europe/Dublin
      - 
        alternate_names: 
          - Cavan
        ascii_name: "An Cabhan"
        geonamesid: 2965535
        latitude: 53.99083
        longitude: -7.36056
        name: "An Cabhán"
        names_en: 
          - Cavan
        names_es: ~
        population: 6388
        timezone: Europe/Dublin
      - 
        alternate_names: 
          - Castleblayney
        ascii_name: "Baile na Lorgan"
        geonamesid: 2965649
        latitude: 54.11667
        longitude: -6.73333
        name: "Baile na Lorgan"
        names_en: 
          - Castleblayney
        names_es: ~
        population: 3006
        timezone: Europe/Dublin
      - 
        alternate_names: 
          - Carrickmacross
          - Magheross
        ascii_name: "Carraig Mhachaire Rois"
        geonamesid: 2965733
        latitude: 53.97278
        longitude: -6.71889
        name: "Carraig Mhachaire Rois"
        names_en: 
          - Carrickmacross
        names_es: ~
        population: 3995
        timezone: Europe/Dublin
      - 
        alternate_names: 
          - Cardonagh
          - "Carn Domhnach"
          - Carndonagh
        ascii_name: Carndonagh
        geonamesid: 2965761
        latitude: 55.25
        longitude: -7.26667
        name: Carndonagh
        names_en: 
          - Carndonagh
        names_es: ~
        population: 1581
        timezone: Europe/Dublin
      - 
        alternate_names: 
          - Bundoran
        ascii_name: "Bun Dobhrain"
        geonamesid: 2965929
        latitude: 54.46667
        longitude: -8.28333
        name: "Bun Dobhráin"
        names_en: 
          - Bundoran
        names_es: ~
        population: 1865
        timezone: Europe/Dublin
      - 
        alternate_names: 
          - "Beal Tairbirt"
          - Belturbet
          - "Béal Tairbirt"
          - Белтурбет
        ascii_name: Belturbet
        geonamesid: 2966201
        latitude: 54.1
        longitude: -7.45
        name: Belturbet
        names_en: 
          - Belturbet
        names_es: ~
        population: 1277
        timezone: Europe/Dublin
      - 
        alternate_names: 
          - Ballyshannon
          - "Beal Atha Seanaidh"
          - "Béal Átha Seanaidh"
        ascii_name: Ballyshannon
        geonamesid: 2966406
        latitude: 54.5
        longitude: -8.18333
        name: Ballyshannon
        names_en: 
          - Ballyshannon
        names_es: ~
        population: 2683
        timezone: Europe/Dublin
      - 
        alternate_names: 
          - Ballybofey
          - "Bealach Feich"
          - "Bealach Féich"
        ascii_name: Ballybofey
        geonamesid: 2966668
        latitude: 54.8
        longitude: -7.78333
        name: Ballybofey
        names_en: 
          - Ballybofey
        names_es: ~
        population: 3848
        timezone: Europe/Dublin
      - 
        alternate_names: 
          - Baileborough
          - Bailieborough
          - "Coill an Chollaigh"
        ascii_name: Bailieborough
        geonamesid: 2966796
        latitude: 53.91667
        longitude: -6.96667
        name: Bailieborough
        names_en: 
          - Bailieborough
        names_es: ~
        population: 1703
        timezone: Europe/Dublin
      - 
        alternate_names: 
          - "Ard an Ratha"
          - "Ard an Rátha"
          - Ardara
          - Ardarn
        ascii_name: Ardara
        geonamesid: 2966935
        latitude: 54.76444
        longitude: -8.4075
        name: Ardara
        names_en: 
          - Ardara
        names_es: ~
        population: 2000
        timezone: Europe/Dublin
    geonamesid: 7521316
    name: Ulster
    names_en: ~
    names_es: ~
