--- 
geonamesid: 3175395
iso: IT
name: Italy
names_en: 
  - "Republic of Italy"
  - Italy
  - "Italian Republic"
names_es: 
  - "República Italiana"
  - Italia
regions: 
  - 
    ascii_name: Sicily
    cities: 
      - 
        alternate_names: 
          - "Zafarana Etnea"
          - "Zaffarana Etnea"
          - Zafferana
          - "Zafferana Etnea"
        ascii_name: "Zafferana Etnea"
        geonamesid: 2522696
        latitude: 37.68216
        longitude: 15.10799
        name: "Zafferana Etnea"
        names_en: 
          - "Zafferana Etnea"
        names_es: ~
        population: 8139
        timezone: Europe/Rome
      - 
        alternate_names: 
          - Vizzini
        ascii_name: Vizzini
        geonamesid: 2522709
        latitude: 37.16094
        longitude: 14.74968
        name: Vizzini
        names_en: 
          - Vizzini
        names_es: ~
        population: 7105
        timezone: Europe/Rome
      - 
        alternate_names: 
          - Vittoira
          - Vittoria
          - vu~ittoria
          - ヴィットーリア
        ascii_name: Vittoria
        geonamesid: 2522713
        latitude: 36.95374
        longitude: 14.53318
        name: Vittoria
        names_en: 
          - Vittoria
        names_es: ~
        population: 55317
        timezone: Europe/Rome
      - 
        alternate_names: 
          - Vita
          - vu~ita
          - ヴィータ
        ascii_name: Vita
        geonamesid: 2522718
        latitude: 37.87054
        longitude: 12.82504
        name: Vita
        names_en: 
          - Vita
        names_es: ~
        population: 2435
        timezone: Europe/Rome
      - 
        alternate_names: 
          - Villarosa
          - "Villarosa Sicilia"
        ascii_name: Villarosa
        geonamesid: 2522732
        latitude: 37.58875
        longitude: 14.16597
        name: Villarosa
        names_en: 
          - Villarosa
        names_es: 
          - Villarosa
        population: 5696
        timezone: Europe/Rome
      - 
        alternate_names: 
          - Vilalba
          - Villalba
          - Villarba
        ascii_name: Villalba
        geonamesid: 2522750
        latitude: 37.65505
        longitude: 13.84286
        name: Villalba
        names_en: 
          - Villalba
        names_es: 
          - Villalba
        population: 1916
        timezone: Europe/Rome
      - 
        alternate_names: 
          - Villafrati
        ascii_name: Villafrati
        geonamesid: 2522760
        latitude: 37.90695
        longitude: 13.48475
        name: Villafrati
        names_en: 
          - Villafrati
        names_es: ~
        population: 3365
        timezone: Europe/Rome
      - 
        alternate_names: 
          - "Villafranca Tirrena"
        ascii_name: "Villafranca Tirrena"
        geonamesid: 2522761
        latitude: 38.24007
        longitude: 15.43739
        name: "Villafranca Tirrena"
        names_en: 
          - "Villafranca Tirrena"
        names_es: ~
        population: 8517
        timezone: Europe/Rome
      - 
        alternate_names: 
          - Villafranca
          - "Villafranca Sicula"
        ascii_name: "Villafranca Sicula"
        geonamesid: 2522762
        latitude: 37.58814
        longitude: 13.28925
        name: "Villafranca Sicula"
        names_en: 
          - "Villafranca Sicula"
        names_es: ~
        population: 1509
        timezone: Europe/Rome
      - 
        alternate_names: 
          - Villabate
          - Villabbati
        ascii_name: Villabate
        geonamesid: 2522767
        latitude: 38.07625
        longitude: 13.44485
        name: Villabate
        names_en: 
          - Villabate
        names_es: ~
        population: 18371
        timezone: Europe/Rome
      - 
        alternate_names: 
          - Vicari
        ascii_name: Vicari
        geonamesid: 2522774
        latitude: 37.82375
        longitude: 13.56615
        name: Vicari
        names_en: 
          - Vicari
        names_es: ~
        population: 3077
        timezone: Europe/Rome
      - 
        alternate_names: 
          - Viagrande
          - Viagranni
        ascii_name: Viagrande
        geonamesid: 2522777
        latitude: 37.60775
        longitude: 15.09659
        name: Viagrande
        names_en: 
          - Viagrande
        names_es: ~
        population: 6591
        timezone: Europe/Rome
      - 
        alternate_names: 
          - Calamigna
          - "Ventimiglia di Sicilia"
        ascii_name: "Ventimiglia di Sicilia"
        geonamesid: 2522787
        latitude: 37.92445
        longitude: 13.56905
        name: "Ventimiglia di Sicilia"
        names_en: 
          - "Ventimiglia di Sicilia"
        names_es: ~
        population: 2192
        timezone: Europe/Rome
      - 
        alternate_names: 
          - Venetico
        ascii_name: Venetico
        geonamesid: 2522788
        latitude: 38.19307
        longitude: 15.38119
        name: Venetico
        names_en: 
          - Venetico
        names_es: ~
        population: 3691
        timezone: Europe/Rome
      - 
        alternate_names: 
          - Vaddilonga
          - "Vallelunga Pratameno"
        ascii_name: "Vallelunga Pratameno"
        geonamesid: 2522801
        latitude: 37.68205
        longitude: 13.83156
        name: "Vallelunga Pratameno"
        names_en: 
          - "Vallelunga Pratameno"
        names_es: 
          - "Vallelunga Pratameno"
        population: 3845
        timezone: Europe/Rome
      - 
        alternate_names: 
          - Vaddilurmu
          - Valledolmo
        ascii_name: Valledolmo
        geonamesid: 2522804
        latitude: 37.74745
        longitude: 13.82786
        name: Valledolmo
        names_en: 
          - Valledolmo
        names_es: ~
        population: 4147
        timezone: Europe/Rome
      - 
        alternate_names: 
          - Carrapipi
          - Valguarnera
          - "Valguarnera Caropepe"
        ascii_name: "Valguarnera Caropepe"
        geonamesid: 2522805
        latitude: 37.49555
        longitude: 14.38877
        name: "Valguarnera Caropepe"
        names_en: ~
        names_es: ~
        population: 8649
        timezone: Europe/Rome
      - 
        alternate_names: 
          - Valdina
        ascii_name: Valdina
        geonamesid: 2522807
        latitude: 38.19457
        longitude: 15.36899
        name: Valdina
        names_en: 
          - Valdina
        names_es: ~
        population: 1209
        timezone: Europe/Rome
      - 
        alternate_names: 
          - Ustica
          - "usutika dao"
          - ウスティカ島
        ascii_name: Ustica
        geonamesid: 2522818
        latitude: 38.71076
        longitude: 13.19164
        name: Ustica
        names_en: 
          - Ustica
        names_es: 
          - Ustica
        population: 1335
        timezone: Europe/Rome
      - 
        alternate_names: 
          - Ucria
        ascii_name: Ucria
        geonamesid: 2522835
        latitude: 38.04576
        longitude: 14.88028
        name: Ucria
        names_en: 
          - Ucria
        names_es: ~
        population: 1370
        timezone: Europe/Rome
      - 
        alternate_names: 
          - Tusa
        ascii_name: Tusa
        geonamesid: 2522839
        latitude: 37.98386
        longitude: 14.23606
        name: Tusa
        names_en: 
          - Tusa
        names_es: ~
        population: 3358
        timezone: Europe/Rome
      - 
        alternate_names: 
          - Troina
          - Truina
        ascii_name: Troina
        geonamesid: 2522849
        latitude: 37.78535
        longitude: 14.59848
        name: Troina
        names_en: 
          - Troina
        names_es: ~
        population: 10061
        timezone: Europe/Rome
      - 
        alternate_names: 
          - Tripi
        ascii_name: Tripi
        geonamesid: 2522853
        latitude: 38.04726
        longitude: 15.09738
        name: Tripi
        names_en: 
          - Tripi
        names_es: ~
        population: 1044
        timezone: Europe/Rome
      - 
        alternate_names: 
          - Trecastagni
          - Tricastagni
        ascii_name: Trecastagni
        geonamesid: 2522865
        latitude: 37.61856
        longitude: 15.07799
        name: Trecastagni
        names_en: 
          - Trecastagni
        names_es: ~
        population: 8212
        timezone: Europe/Rome
      - 
        alternate_names: 
          - Drepanum
          - Trapani
          - Trapena
          - Tràpani
        ascii_name: Trapani
        geonamesid: 2522876
        latitude: 38.01584
        longitude: 12.51077
        name: Trapani
        names_en: 
          - Trapani
        names_es: 
          - Trapani
        population: 68346
        timezone: Europe/Rome
      - 
        alternate_names: 
          - Trabbia
          - Trabbìa
          - Trabia
        ascii_name: Trabia
        geonamesid: 2522883
        latitude: 38.00645
        longitude: 13.63355
        name: Trabia
        names_en: 
          - Trabia
        names_es: ~
        population: 8252
        timezone: Europe/Rome
      - 
        alternate_names: 
          - Tortorici
          - Turturici
        ascii_name: Tortorici
        geonamesid: 2522885
        latitude: 38.02996
        longitude: 14.82348
        name: Tortorici
        names_en: 
          - Tortorici
        names_es: ~
        population: 7535
        timezone: Europe/Rome
      - 
        alternate_names: 
          - Torretta
        ascii_name: Torretta
        geonamesid: 2522893
        latitude: 38.13035
        longitude: 13.23174
        name: Torretta
        names_en: 
          - Torretta
        names_es: ~
        population: 3468
        timezone: Europe/Rome
      - 
        alternate_names: 
          - Torrenova
        ascii_name: Torrenova
        geonamesid: 2522900
        latitude: 38.09376
        longitude: 14.67997
        name: Torrenova
        names_en: 
          - Torrenova
        names_es: ~
        population: 3691
        timezone: Europe/Rome
      - 
        alternate_names: 
          - Torregrotta
        ascii_name: Torregrotta
        geonamesid: 2522908
        latitude: 38.20317
        longitude: 15.34949
        name: Torregrotta
        names_en: 
          - Torregrotta
        names_es: ~
        population: 6542
        timezone: Europe/Rome
      - 
        alternate_names: 
          - Terrasini
        ascii_name: "Terrasini Favarotta"
        geonamesid: 2522952
        latitude: 38.14595
        longitude: 13.08444
        name: Terrasini
        names_en: 
          - Terrasini
        names_es: ~
        population: 10686
        timezone: Europe/Rome
      - 
        alternate_names: 
          - Termini
          - "Termini Imerese"
          - "Thermae Himerarae"
          - Tèrmini
        ascii_name: "Termini Imerese"
        geonamesid: 2522960
        latitude: 37.98365
        longitude: 13.69555
        name: "Termini Imerese"
        names_en: 
          - "Termini Imerese"
        names_es: ~
        population: 26958
        timezone: Europe/Rome
      - 
        alternate_names: 
          - Taorima
          - Taormina
          - Tauromenium
          - "ta ao min na"
        ascii_name: Taormina
        geonamesid: 2522975
        latitude: 37.85358
        longitude: 15.28851
        name: Taormina
        names_en: 
          - Taormina
        names_es: 
          - Taormina
        population: 10780
        timezone: Europe/Rome
      - 
        alternate_names: 
          - Sutera
        ascii_name: Sutera
        geonamesid: 2522980
        latitude: 37.52334
        longitude: 13.73446
        name: Sutera
        names_en: 
          - Sutera
        names_es: 
          - Sutera
        population: 1641
        timezone: Europe/Rome
      - 
        alternate_names: 
          - Spadafora
        ascii_name: Spadafora
        geonamesid: 2523041
        latitude: 38.22377
        longitude: 15.37929
        name: Spadafora
        names_en: 
          - Spadafora
        names_es: ~
        population: 5234
        timezone: Europe/Rome
      - 
        alternate_names: 
          - Sciurtinu
          - Sortino
        ascii_name: Sortino
        geonamesid: 2523049
        latitude: 37.15655
        longitude: 15.02599
        name: Sortino
        names_en: 
          - Sortino
        names_es: ~
        population: 9092
        timezone: Europe/Rome
      - 
        alternate_names: 
          - Sommatino
          - Summatinu
        ascii_name: Sommatino
        geonamesid: 2523056
        latitude: 37.33594
        longitude: 13.99667
        name: Sommatino
        names_en: 
          - Sommatino
        names_es: 
          - Sommatino
        population: 7875
        timezone: Europe/Rome
      - 
        alternate_names: 
          - "San Paulu"
          - Solarino
        ascii_name: Solarino
        geonamesid: 2523066
        latitude: 37.10205
        longitude: 15.11889
        name: Solarino
        names_en: 
          - Solarino
        names_es: ~
        population: 7199
        timezone: Europe/Rome
      - 
        alternate_names: 
          - Sarausa
          - Siracusa
          - Sirakuza
          - Sirakuze
        ascii_name: Siracusa
        geonamesid: 2523083
        latitude: 37.08515
        longitude: 15.273
        name: Siracusa
        names_en: 
          - Syracuse
        names_es: 
          - Siracusa
        population: 123657
        timezone: Europe/Rome
      - 
        alternate_names: 
          - Sinagra
        ascii_name: Sinagra
        geonamesid: 2523090
        latitude: 38.07966
        longitude: 14.85228
        name: Sinagra
        names_en: 
          - Sinagra
        names_es: ~
        population: 3041
        timezone: Europe/Rome
      - 
        alternate_names: 
          - Siculiana
        ascii_name: Siculiana
        geonamesid: 2523116
        latitude: 37.33444
        longitude: 13.42156
        name: Siculiana
        names_en: 
          - Siculiana
        names_es: ~
        population: 4786
        timezone: Europe/Rome
      - 
        alternate_names: 
          - Serradifalco
          - Serradifarcu
        ascii_name: Serradifalco
        geonamesid: 2523151
        latitude: 37.45384
        longitude: 13.88046
        name: Serradifalco
        names_en: 
          - Serradifalco
        names_es: ~
        population: 6423
        timezone: Europe/Rome
      - 
        alternate_names: 
          - Scordia
          - Scurdia
        ascii_name: Scordia
        geonamesid: 2523180
        latitude: 37.29805
        longitude: 14.84078
        name: Scordia
        names_en: 
          - Scordia
        names_es: ~
        population: 17022
        timezone: Europe/Rome
      - 
        alternate_names: 
          - Scicli
          - Shikli
          - shikuri
          - Шикли
        ascii_name: Scicli
        geonamesid: 2523192
        latitude: 36.79024
        longitude: 14.70139
        name: Scicli
        names_en: 
          - Scicli
        names_es: ~
        population: 25614
        timezone: Europe/Rome
      - 
        alternate_names: 
          - Sciara
        ascii_name: Sciara
        geonamesid: 2523193
        latitude: 37.91535
        longitude: 13.76286
        name: Sciara
        names_en: 
          - Sciara
        names_es: ~
        population: 2718
        timezone: Europe/Rome
      - 
        alternate_names: 
          - Sciacca
          - Sciacea
          - Shaka
          - Xaca
        ascii_name: Sciacca
        geonamesid: 2523194
        latitude: 37.50693
        longitude: 13.08399
        name: Sciacca
        names_en: 
          - Sciacca
        names_es: ~
        population: 40240
        timezone: Europe/Rome
      - 
        alternate_names: 
          - Scaletta
          - "Scaletta Zanclea"
        ascii_name: "Scaletta Zanclea"
        geonamesid: 2523204
        latitude: 38.04796
        longitude: 15.46769
        name: "Scaletta Zanclea"
        names_en: 
          - "Scaletta Zanclea"
        names_es: ~
        population: 2578
        timezone: Europe/Rome
      - 
        alternate_names: 
          - Saponara
          - Sapunara
        ascii_name: "Saponara Villafranca"
        geonamesid: 2523234
        latitude: 38.19437
        longitude: 15.43279
        name: Saponara
        names_en: 
          - Saponara
        names_es: ~
        population: 4131
        timezone: Europe/Rome
      - 
        alternate_names: 
          - "San Vito"
          - "San Vito Lo Capo"
          - "San Vito lo Cape"
          - "San Vito lo Capo"
        ascii_name: "San Vito lo Capo"
        geonamesid: 2523238
        latitude: 38.17235
        longitude: 12.73493
        name: "San Vito Lo Capo"
        names_en: 
          - "San Vito Lo Capo"
        names_es: ~
        population: 3798
        timezone: Europe/Rome
      - 
        alternate_names: 
          - "Santo Stefano Quisquina"
          - "Santu Stefanu Quisquina"
          - "Santu Stèfanu Quisquina"
        ascii_name: "Santo Stefano Quisquina"
        geonamesid: 2523247
        latitude: 37.62554
        longitude: 13.49125
        name: "Santo Stefano Quisquina"
        names_en: 
          - "Santo Stefano Quisquina"
        names_es: ~
        population: 5405
        timezone: Europe/Rome
      - 
        alternate_names: 
          - "Santo Stefano di Camastra"
        ascii_name: "Santo Stefano di Camastra"
        geonamesid: 2523250
        latitude: 38.01456
        longitude: 14.34857
        name: "Santo Stefano di Camastra"
        names_en: 
          - "Santo Stefano di Camastra"
        names_es: ~
        population: 4653
        timezone: Europe/Rome
      - 
        alternate_names: ~
        ascii_name: "San Teodoro"
        geonamesid: 2523271
        latitude: 37.84866
        longitude: 14.69828
        name: "San Teodoro"
        names_en: ~
        names_es: ~
        population: 1578
        timezone: Europe/Rome
      - 
        alternate_names: 
          - "Santa Venerina"
          - "Santa Vinirina"
        ascii_name: "Santa Venerina"
        geonamesid: 2523280
        latitude: 37.68736
        longitude: 15.13829
        name: "Santa Venerina"
        names_en: 
          - "Santa Venerina"
        names_es: ~
        population: 7901
        timezone: Europe/Rome
      - 
        alternate_names: 
          - "Santa Teresa di Riva"
        ascii_name: "Santa Teresa di Riva"
        geonamesid: 2523282
        latitude: 37.94696
        longitude: 15.36769
        name: "Santa Teresa di Riva"
        names_en: 
          - "Santa Teresa di Riva"
        names_es: ~
        population: 8925
        timezone: Europe/Rome
      - 
        alternate_names: 
          - "Santa Ninfa"
        ascii_name: "Santa Ninfa"
        geonamesid: 2523304
        latitude: 37.77134
        longitude: 12.87764
        name: "Santa Ninfa"
        names_en: 
          - "Santa Ninfa"
        names_es: ~
        population: 5087
        timezone: Europe/Rome
      - 
        alternate_names: 
          - "Sant'Angelo Muxaro"
          - "Sant'Angilu Muxaru"
          - "Sant'Àngilu Muxaru"
        ascii_name: "Sant'Angelo Muxaro"
        geonamesid: 2523306
        latitude: 37.47964
        longitude: 13.54556
        name: "Sant'Angelo Muxaro"
        names_en: 
          - "Sant'Angelo Muxaro"
        names_es: ~
        population: 1730
        timezone: Europe/Rome
      - 
        alternate_names: 
          - Sant'Angelo
          - "Sant'Angelo di Brolo"
        ascii_name: "Sant'Angelo di Brolo"
        geonamesid: 2523307
        latitude: 38.11346
        longitude: 14.88348
        name: "Sant'Angelo di Brolo"
        names_en: 
          - "Sant'Angelo di Brolo"
        names_es: ~
        population: 3856
        timezone: Europe/Rome
      - 
        alternate_names: 
          - "Santa Maria di Licodia"
          - "Santa Maria di Licuddia"
        ascii_name: "Santa Maria di Licodia"
        geonamesid: 2523320
        latitude: 37.61475
        longitude: 14.89058
        name: "Santa Maria di Licodia"
        names_en: 
          - "Santa Maria di Licodia"
        names_es: ~
        population: 6760
        timezone: Europe/Rome
      - 
        alternate_names: 
          - "San Margherita"
          - "Santa Margarita"
          - "Santa Margherita Belice"
          - "Santa Margherita di Belice"
        ascii_name: "Santa Margherita di Belice"
        geonamesid: 2523330
        latitude: 37.69184
        longitude: 13.02014
        name: "Santa Margherita di Belice"
        names_en: 
          - "Santa Margherita di Belice"
        names_es: ~
        population: 6564
        timezone: Europe/Rome
      - 
        alternate_names: 
          - "Santa Lucia del Mela"
        ascii_name: "Santa Lucia del Mela"
        geonamesid: 2523333
        latitude: 38.14276
        longitude: 15.28228
        name: "Santa Lucia del Mela"
        names_en: 
          - "Santa Lucia del Mela"
        names_es: ~
        population: 4701
        timezone: Europe/Rome
      - 
        alternate_names: 
          - Sant'Alfio
          - Sant'Arfiu
        ascii_name: Sant'Alfio
        geonamesid: 2523338
        latitude: 37.74236
        longitude: 15.14179
        name: Sant'Alfio
        names_en: 
          - Sant'Alfio
        names_es: ~
        population: 1647
        timezone: Europe/Rome
      - 
        alternate_names: 
          - "Sant'Alessio Siculo"
          - "Sant'Alessiu Siculu"
          - "Sant'Alessiu Sìculu"
        ascii_name: "Sant'Alessio Siculo"
        geonamesid: 2523340
        latitude: 37.92456
        longitude: 15.34909
        name: "Sant'Alessio Siculo"
        names_en: 
          - "Sant'Alessio Siculo"
        names_es: ~
        population: 1346
        timezone: Europe/Rome
      - 
        alternate_names: 
          - "San Agata"
          - Sant'Agata
          - "Sant'Agata Militello"
          - "Sant'Agata di Militello"
        ascii_name: "Sant'Agata di Militello"
        geonamesid: 2523347
        latitude: 38.06786
        longitude: 14.63267
        name: "Sant'Agata di Militello"
        names_en: 
          - "Sant'Agata di Militello"
          - "Sant'Agata Militello"
        names_es: ~
        population: 12876
        timezone: Europe/Rome
      - 
        alternate_names: 
          - "Santa Flavia"
        ascii_name: "Santa Flavia"
        geonamesid: 2523352
        latitude: 38.08505
        longitude: 13.53505
        name: "Santa Flavia"
        names_en: 
          - "Santa Flavia"
        names_es: ~
        population: 9535
        timezone: Europe/Rome
      - 
        alternate_names: 
          - "Santa Elisabbetta"
          - "Santa Elisabetta"
          - "Santa Elizabetta"
        ascii_name: "Santa Elisabetta"
        geonamesid: 2523353
        latitude: 37.43464
        longitude: 13.55686
        name: "Santa Elisabetta"
        names_en: 
          - "Santa Elisabetta"
        names_es: ~
        population: 3073
        timezone: Europe/Rome
      - 
        alternate_names: 
          - "Santa Domenica"
          - "Santa Domenica Vittoria"
        ascii_name: "Santa Domenica Vittoria"
        geonamesid: 2523354
        latitude: 37.91726
        longitude: 14.96198
        name: "Santa Domenica Vittoria"
        names_en: 
          - "Santa Domenica Vittoria"
        names_es: ~
        population: 1173
        timezone: Europe/Rome
      - 
        alternate_names: 
          - "Santa Croce Camerina"
          - "Santa Cruci Camarina"
          - サンタ・クローチェ・カメリーナ
        ascii_name: "Santa Croce Camerina"
        geonamesid: 2523362
        latitude: 36.82894
        longitude: 14.52678
        name: "Santa Croce Camerina"
        names_en: 
          - "Santa Croce Camerina"
        names_es: ~
        population: 8481
        timezone: Europe/Rome
      - 
        alternate_names: 
          - "Santa Catarina"
          - "Santa Caterina Villarmosa"
        ascii_name: "Santa Caterina Villarmosa"
        geonamesid: 2523366
        latitude: 37.59115
        longitude: 14.03626
        name: "Santa Caterina Villarmosa"
        names_en: 
          - "Santa Caterina Villarmosa"
        names_es: 
          - "Santa Caterina Villarmosa"
        population: 6087
        timezone: Europe/Rome
      - 
        alternate_names: 
          - "San Salvatore"
          - "San Salvatore di Fitalia"
        ascii_name: "San Salvatore di Fitalia"
        geonamesid: 2523375
        latitude: 38.05826
        longitude: 14.77848
        name: "San Salvatore di Fitalia"
        names_en: 
          - "San Salvatore di Fitalia"
        names_es: ~
        population: 1679
        timezone: Europe/Rome
      - 
        alternate_names: 
          - "Clarenza di San Pietro"
          - "San Pietro"
          - "San Pietro Clarenza"
          - "Santo Pietro"
        ascii_name: "San Pietro"
        geonamesid: 2523396
        latitude: 37.1
        longitude: 14.5
        name: "San Pietro"
        names_en: ~
        names_es: ~
        population: 6455
        timezone: Europe/Rome
      - 
        alternate_names: 
          - "San Piero Patti"
          - "San Pietro Patti"
        ascii_name: "San Piero Patti"
        geonamesid: 2523397
        latitude: 38.05286
        longitude: 14.97018
        name: "San Piero Patti"
        names_en: 
          - "San Piero Patti"
        names_es: ~
        population: 3511
        timezone: Europe/Rome
      - 
        alternate_names: 
          - "San Pier Niceto"
        ascii_name: "San Pier Niceto"
        geonamesid: 2523398
        latitude: 38.16127
        longitude: 15.34819
        name: "San Pier Niceto"
        names_en: 
          - "San Pier Niceto"
        names_es: ~
        population: 3085
        timezone: Europe/Rome
      - 
        alternate_names: 
          - "San Michele"
          - "San Michele di Ganzaria"
          - "San Micheli di Ganzaria"
        ascii_name: "San Michele di Ganzaria"
        geonamesid: 2523416
        latitude: 37.28144
        longitude: 14.42548
        name: "San Michele di Ganzaria"
        names_en: 
          - "San Michele di Ganzaria"
        names_es: ~
        population: 4749
        timezone: Europe/Rome
      - 
        alternate_names: 
          - "San Mauro"
          - "San Mauro Castelverde"
          - "Santu Mauru"
        ascii_name: "San Mauro Castelverde"
        geonamesid: 2523419
        latitude: 37.91545
        longitude: 14.18956
        name: "San Mauro Castelverde"
        names_en: 
          - "San Mauro Castelverde"
        names_es: ~
        population: 2166
        timezone: Europe/Rome
      - 
        alternate_names: 
          - "San Marco d'Alunzio"
        ascii_name: "San Marco d'Alunzio"
        geonamesid: 2523425
        latitude: 38.07186
        longitude: 14.70067
        name: "San Marco d'Alunzio"
        names_en: 
          - "San Marco d'Alunzio"
        names_es: ~
        population: 2202
        timezone: Europe/Rome
      - 
        alternate_names: 
          - "San Gregorio"
          - "San Gregorio di Catania"
          - "San Grigoriu"
        ascii_name: "San Gregorio di Catania"
        geonamesid: 2523448
        latitude: 37.56525
        longitude: 15.11179
        name: "San Gregorio di Catania"
        names_en: 
          - "San Gregorio di Catania"
        names_es: ~
        population: 10366
        timezone: Europe/Rome
      - 
        alternate_names: 
          - "San Giuseppe Jato"
        ascii_name: "San Giuseppe Iato"
        geonamesid: 2523451
        latitude: 37.97335
        longitude: 13.18814
        name: "San Giuseppe Jato"
        names_en: ~
        names_es: ~
        population: 8349
        timezone: Europe/Rome
      - 
        alternate_names: 
          - "San Giovanni"
          - "San Giovanni la Punta"
          - "San Giuvanni la Punta"
        ascii_name: "San Giovanni la Punta"
        geonamesid: 2523460
        latitude: 37.57605
        longitude: 15.09809
        name: "San Giovanni la Punta"
        names_en: 
          - "San Giovanni la Punta"
        names_es: ~
        population: 20850
        timezone: Europe/Rome
      - 
        alternate_names: 
          - "San Giovanni Gemini"
          - "San Giuvanni"
        ascii_name: "San Giovanni Gemini"
        geonamesid: 2523462
        latitude: 37.62814
        longitude: 13.64076
        name: "San Giovanni Gemini"
        names_en: 
          - "San Giovanni Gemini"
        names_es: ~
        population: 8169
        timezone: Europe/Rome
      - 
        alternate_names: 
          - Fratello
          - "San Fratello"
        ascii_name: "San Fratello"
        geonamesid: 2523487
        latitude: 38.01706
        longitude: 14.59817
        name: "San Fratello"
        names_en: 
          - "San Fratello"
        names_es: ~
        population: 4561
        timezone: Europe/Rome
      - 
        alternate_names: ~
        ascii_name: "San Filippo della Mela"
        geonamesid: 2523494
        latitude: 38.17007
        longitude: 15.27338
        name: "San Filippo del Mela"
        names_en: ~
        names_es: ~
        population: 6952
        timezone: Europe/Rome
      - 
        alternate_names: 
          - "San Cono"
          - "Santu Conu"
        ascii_name: "San Cono"
        geonamesid: 2523509
        latitude: 37.29144
        longitude: 14.36608
        name: "San Cono"
        names_en: 
          - "San Cono"
        names_es: ~
        population: 2961
        timezone: Europe/Rome
      - 
        alternate_names: 
          - "San Cipirello"
          - "San Ciupirreddu"
        ascii_name: "San Cipirello"
        geonamesid: 2523511
        latitude: 37.96215
        longitude: 13.17614
        name: "San Cipirello"
        names_en: 
          - "San Cipirello"
        names_es: ~
        population: 5016
        timezone: Europe/Rome
      - 
        alternate_names: 
          - "San Cataldo"
          - "San Cataldu"
        ascii_name: "San Cataldo"
        geonamesid: 2523513
        latitude: 37.48412
        longitude: 13.98542
        name: "San Cataldo"
        names_en: 
          - "San Cataldo"
        names_es: 
          - "San Cataldo"
        population: 23154
        timezone: Europe/Rome
      - 
        alternate_names: 
          - "San Biaggio"
          - "San Biaggiu Platini"
          - "San Biaggiu Plàtini"
          - "San Biagio"
        ascii_name: "San Biagio Platani"
        geonamesid: 2523519
        latitude: 37.50904
        longitude: 13.52556
        name: "San Biagio Platani"
        names_en: 
          - "San Biagio Platani"
        names_es: ~
        population: 3785
        timezone: Europe/Rome
      - 
        alternate_names: 
          - Sambuca
          - "Sambuca Sicilia"
          - "Sambuca di Sicilia"
          - Sammuca
        ascii_name: "Sambuca di Sicilia"
        geonamesid: 2523533
        latitude: 37.64944
        longitude: 13.11094
        name: "Sambuca di Sicilia"
        names_en: 
          - "Sambuca di Sicilia"
        names_es: ~
        population: 6158
        timezone: Europe/Rome
      - 
        alternate_names: 
          - Salemi
        ascii_name: Salemi
        geonamesid: 2523557
        latitude: 37.82314
        longitude: 12.80564
        name: Salemi
        names_en: 
          - Salemi
        names_es: ~
        population: 11578
        timezone: Europe/Rome
      - 
        alternate_names: 
          - Salaparuta
        ascii_name: Salaparuta
        geonamesid: 2523558
        latitude: 37.75794
        longitude: 13.00974
        name: Salaparuta
        names_en: 
          - Salaparuta
        names_es: ~
        population: 1835
        timezone: Europe/Rome
      - 
        alternate_names: 
          - Rosolini
          - Rusalini
        ascii_name: Rosolini
        geonamesid: 2523581
        latitude: 36.82424
        longitude: 14.94779
        name: Rosolini
        names_en: 
          - Rosolini
        names_es: ~
        population: 20152
        timezone: Europe/Rome
      - 
        alternate_names: ~
        ascii_name: Rodi
        geonamesid: 2523592
        latitude: 38.10886
        longitude: 15.16928
        name: "Rodì Milici"
        names_en: ~
        names_es: ~
        population: 2335
        timezone: Europe/Rome
      - 
        alternate_names: 
          - Roccavaldina
        ascii_name: Roccavaldina
        geonamesid: 2523597
        latitude: 38.18327
        longitude: 15.37269
        name: Roccavaldina
        names_en: 
          - Roccavaldina
        names_es: ~
        population: 1172
        timezone: Europe/Rome
      - 
        alternate_names: 
          - Roccapalumba
        ascii_name: Roccapalumba
        geonamesid: 2523599
        latitude: 37.80595
        longitude: 13.63846
        name: Roccapalumba
        names_en: 
          - Roccapalumba
        names_es: ~
        population: 2842
        timezone: Europe/Rome
      - 
        alternate_names: 
          - Roccamena
        ascii_name: Roccamena
        geonamesid: 2523600
        latitude: 37.83724
        longitude: 13.15474
        name: Roccamena
        names_en: 
          - Roccamena
        names_es: ~
        population: 1793
        timezone: Europe/Rome
      - 
        alternate_names: 
          - Roccalumera
        ascii_name: Roccalumera
        geonamesid: 2523601
        latitude: 37.97626
        longitude: 15.39519
        name: Roccalumera
        names_en: 
          - Roccalumera
        names_es: ~
        population: 4029
        timezone: Europe/Rome
      - 
        alternate_names: 
          - Riposto
          - Ripostu
        ascii_name: Riposto
        geonamesid: 2523612
        latitude: 37.73056
        longitude: 15.20089
        name: Riposto
        names_en: 
          - Riposto
        names_es: ~
        population: 13951
        timezone: Europe/Rome
      - 
        alternate_names: 
          - Riesi
        ascii_name: Riesi
        geonamesid: 2523616
        latitude: 37.28194
        longitude: 14.08227
        name: Riesi
        names_en: 
          - Riesi
        names_es: 
          - Riesi
        population: 11746
        timezone: Europe/Rome
      - 
        alternate_names: 
          - Ribera
          - Рибера
        ascii_name: Ribera
        geonamesid: 2523619
        latitude: 37.49844
        longitude: 13.26415
        name: Ribera
        names_en: 
          - Ribera
        names_es: ~
        population: 20186
        timezone: Europe/Rome
      - 
        alternate_names: 
          - Resuttana
          - Resuttano
        ascii_name: Resuttano
        geonamesid: 2523622
        latitude: 37.67865
        longitude: 14.02946
        name: Resuttano
        names_en: 
          - Resuttano
        names_es: 
          - Resuttano
        population: 2467
        timezone: Europe/Rome
      - 
        alternate_names: 
          - Recalbutu
          - Regalbulo
          - Regalbuto
        ascii_name: Regalbuto
        geonamesid: 2523632
        latitude: 37.65265
        longitude: 14.64088
        name: Regalbuto
        names_en: 
          - Regalbuto
        names_es: ~
        population: 7744
        timezone: Europe/Rome
      - 
        alternate_names: 
          - Realmonte
          - Rialmunti
        ascii_name: Realmonte
        geonamesid: 2523636
        latitude: 37.30914
        longitude: 13.46186
        name: Realmonte
        names_en: 
          - Realmonte
        names_es: ~
        population: 4435
        timezone: Europe/Rome
      - 
        alternate_names: 
          - Ravanusa
          - Rivinusa
        ascii_name: Ravanusa
        geonamesid: 2523638
        latitude: 37.26674
        longitude: 13.96897
        name: Ravanusa
        names_en: 
          - Ravanusa
        names_es: ~
        population: 14115
        timezone: Europe/Rome
      - 
        alternate_names: 
          - Randazzo
          - Rannazzu
        ascii_name: Randazzo
        geonamesid: 2523641
        latitude: 37.87736
        longitude: 14.95012
        name: Randazzo
        names_en: 
          - Randazzo
        names_es: ~
        population: 11300
        timezone: Europe/Rome
      - 
        alternate_names: 
          - Ramacca
          - Rammacca
        ascii_name: Ramacca
        geonamesid: 2523644
        latitude: 37.38805
        longitude: 14.69268
        name: Ramacca
        names_en: 
          - Ramacca
        names_es: ~
        population: 10459
        timezone: Europe/Rome
      - 
        alternate_names: 
          - Ragusa
          - Raguse
          - Raguza
          - Rausa
        ascii_name: Ragusa
        geonamesid: 2523650
        latitude: 36.92824
        longitude: 14.71719
        name: Ragusa
        names_en: 
          - Ragusa
        names_es: ~
        population: 68956
        timezone: Europe/Rome
      - 
        alternate_names: 
          - Rafadali
          - Raffadali
        ascii_name: Raffadali
        geonamesid: 2523654
        latitude: 37.40364
        longitude: 13.53306
        name: Raffadali
        names_en: 
          - Raffadali
        names_es: ~
        population: 13336
        timezone: Europe/Rome
      - 
        alternate_names: 
          - Buddusa
          - Raddusa
        ascii_name: Raddusa
        geonamesid: 2523656
        latitude: 37.47565
        longitude: 14.53388
        name: Raddusa
        names_en: 
          - Raddusa
        names_es: ~
        population: 3535
        timezone: Europe/Rome
      - 
        alternate_names: 
          - Raccuja
        ascii_name: Raccuia
        geonamesid: 2523658
        latitude: 38.05526
        longitude: 14.90958
        name: Raccuja
        names_en: 
          - Raccuja
        names_es: ~
        population: 1389
        timezone: Europe/Rome
      - 
        alternate_names: 
          - Racalmuto
          - Ragalmutu
          - Recalmutu
        ascii_name: Racalmuto
        geonamesid: 2523659
        latitude: 37.40714
        longitude: 13.73376
        name: Racalmuto
        names_en: 
          - Racalmuto
        names_es: ~
        population: 10051
        timezone: Europe/Rome
      - 
        alternate_names: 
          - Prizzi
        ascii_name: Prizzi
        geonamesid: 2523678
        latitude: 37.72144
        longitude: 13.43275
        name: Prizzi
        names_en: 
          - Prizzi
        names_es: 
          - Prizzi
        population: 5711
        timezone: Europe/Rome
      - 
        alternate_names: 
          - Priolo
          - "Priolo Gargallo"
          - Priolu
        ascii_name: "Priolo Gargallo"
        geonamesid: 2523679
        latitude: 37.15725
        longitude: 15.18019
        name: "Priolo Gargallo"
        names_en: 
          - "Priolo Gargallo"
        names_es: ~
        population: 11785
        timezone: Europe/Rome
      - 
        alternate_names: 
          - Pozzallo
          - Puzzaddu
          - pottsu~arro
          - ポッツァッロ
        ascii_name: Pozzallo
        geonamesid: 2523693
        latitude: 36.73054
        longitude: 14.84989
        name: Pozzallo
        names_en: 
          - Pozzallo
        names_es: ~
        population: 17936
        timezone: Europe/Rome
      - 
        alternate_names: 
          - "Terra Nobile"
        ascii_name: Portopalo
        geonamesid: 2523703
        latitude: 36.68234
        longitude: 15.1346
        name: "Portopalo di Capo Passero"
        names_en: ~
        names_es: ~
        population: 3500
        timezone: Europe/Rome
      - 
        alternate_names: 
          - "Porto Empedocle"
          - "Portu Empedocli"
        ascii_name: "Porto Empedocle"
        geonamesid: 2523705
        latitude: 37.29344
        longitude: 13.52636
        name: "Porto Empedocle"
        names_en: 
          - "Porto Empedocle"
        names_es: 
          - "Porto Empedocle"
        population: 15957
        timezone: Europe/Rome
      - 
        alternate_names: 
          - Poilina
          - Pollina
          - Puoddina
          - Puòddina
        ascii_name: Pollina
        geonamesid: 2523734
        latitude: 37.99366
        longitude: 14.14526
        name: Pollina
        names_en: 
          - Pollina
        names_es: ~
        population: 3120
        timezone: Europe/Rome
      - 
        alternate_names: ~
        ascii_name: "Polizzi Generosa"
        geonamesid: 2523736
        latitude: 37.81185
        longitude: 14.00336
        name: "Polizzi Generosa"
        names_en: ~
        names_es: ~
        population: 4169
        timezone: Europe/Rome
      - 
        alternate_names: 
          - Poggioreale
        ascii_name: Poggioreale
        geonamesid: 2523747
        latitude: 37.76404
        longitude: 13.03594
        name: Poggioreale
        names_en: 
          - Poggioreale
        names_es: ~
        population: 1715
        timezone: Europe/Rome
      - 
        alternate_names: 
          - Piraino
          - Pirainu
        ascii_name: Piraino
        geonamesid: 2523773
        latitude: 38.16066
        longitude: 14.86258
        name: Piraino
        names_en: 
          - Piraino
        names_es: ~
        population: 3803
        timezone: Europe/Rome
      - 
        alternate_names: 
          - Petrapirzia
          - Pietraperzia
        ascii_name: Pietraperzia
        geonamesid: 2523784
        latitude: 37.41994
        longitude: 14.13707
        name: Pietraperzia
        names_en: 
          - Pietraperzia
        names_es: ~
        population: 7340
        timezone: Europe/Rome
      - 
        alternate_names: 
          - Piedimonte
          - "Piedimonte Etnea"
          - "Piedimonte Etneo"
          - Piemunti
        ascii_name: "Piedimonte Etneo"
        geonamesid: 2523793
        latitude: 37.80686
        longitude: 15.17659
        name: "Piedimonte Etneo"
        names_en: 
          - "Piedimonte Etneo"
        names_es: ~
        population: 3664
        timezone: Europe/Rome
      - 
        alternate_names: 
          - Ciazza
          - Cjassa
          - "Piazza Armerina"
        ascii_name: "Piazza Armerina"
        geonamesid: 2523796
        latitude: 37.38595
        longitude: 14.36717
        name: "Piazza Armerina"
        names_en: 
          - "Piazza Armerina"
        names_es: ~
        population: 21038
        timezone: Europe/Rome
      - 
        alternate_names: 
          - Chiana
          - "Hora e Arbereshevet"
          - "Piana de' Greci"
          - "Piana degli Albanesi"
        ascii_name: "Piana degli Albanesi"
        geonamesid: 2523808
        latitude: 37.99795
        longitude: 13.27974
        name: "Piana degli Albanesi"
        names_en: 
          - "Piana degli Albanesi"
        names_es: ~
        population: 6227
        timezone: Europe/Rome
      - 
        alternate_names: 
          - Pettineo
        ascii_name: Pettineo
        geonamesid: 2523813
        latitude: 37.96726
        longitude: 14.29187
        name: Pettineo
        names_en: 
          - Pettineo
        names_es: ~
        population: 1547
        timezone: Europe/Rome
      - 
        alternate_names: 
          - Petrosino
          - Pitrusinu
        ascii_name: Petrosino
        geonamesid: 2523816
        latitude: 37.70774
        longitude: 12.49993
        name: Petrosino
        names_en: 
          - Petrosino
        names_es: 
          - Petrosino
        population: 7330
        timezone: Europe/Rome
      - 
        alternate_names: 
          - "Petralia Sottana"
          - "Pitralia Suttana"
          - "Pitralìa Suttana"
          - "Sottana Petralia"
        ascii_name: "Petralia Sottana"
        geonamesid: 2523821
        latitude: 37.80945
        longitude: 14.09246
        name: "Petralia Sottana"
        names_en: 
          - "Petralia Sottana"
        names_es: ~
        population: 3311
        timezone: Europe/Rome
      - 
        alternate_names: 
          - "Petralia Soprana"
          - "Pitralia Suprana"
          - "Pitralìa Suprana"
        ascii_name: "Petralia Soprana"
        geonamesid: 2523822
        latitude: 37.80055
        longitude: 14.10756
        name: "Petralia Soprana"
        names_en: 
          - "Petralia Soprana"
        names_es: ~
        population: 3688
        timezone: Europe/Rome
      - 
        alternate_names: 
          - Pedara
          - Pidara
        ascii_name: Pedara
        geonamesid: 2523850
        latitude: 37.61685
        longitude: 15.05669
        name: Pedara
        names_en: 
          - Pedara
        names_es: ~
        population: 10062
        timezone: Europe/Rome
      - 
        alternate_names: 
          - Patti
        ascii_name: Patti
        geonamesid: 2523864
        latitude: 38.14676
        longitude: 14.96958
        name: Patti
        names_en: 
          - Patti
        names_es: ~
        population: 13108
        timezone: Europe/Rome
      - 
        alternate_names: 
          - Paterno
          - Paternò
          - Patirno
          - Patirnò
        ascii_name: Paterno
        geonamesid: 2523866
        latitude: 37.57095
        longitude: 14.90268
        name: Paternò
        names_en: 
          - Paternò
        names_es: ~
        population: 45725
        timezone: Europe/Rome
      - 
        alternate_names: ~
        ascii_name: Partinico
        geonamesid: 2523871
        latitude: 38.04395
        longitude: 13.12004
        name: Partinico
        names_en: ~
        names_es: ~
        population: 31003
        timezone: Europe/Rome
      - 
        alternate_names: 
          - Partanna
        ascii_name: Partanna
        geonamesid: 2523872
        latitude: 37.72784
        longitude: 12.88854
        name: Partanna
        names_en: 
          - Partanna
        names_es: ~
        population: 11379
        timezone: Europe/Rome
      - 
        alternate_names: 
          - Pantelaria
          - Pantelleria
          - Pantel·leria
          - Pantelária
        ascii_name: Pantelleria
        geonamesid: 2523890
        latitude: 36.83333
        longitude: 11.95
        name: Pantelleria
        names_en: 
          - Pantelleria
        names_es: 
          - Pantelaria
        population: 7679
        timezone: Europe/Rome
      - 
        alternate_names: 
          - "Palma di Montechiaro"
          - "Parma di Muntichiaru"
        ascii_name: "Palma di Montechiaro"
        geonamesid: 2523908
        latitude: 37.19264
        longitude: 13.76496
        name: "Palma di Montechiaro"
        names_en: 
          - "Palma di Montechiaro"
        names_es: ~
        population: 21563
        timezone: Europe/Rome
      - 
        alternate_names: 
          - Palerm
          - Palerma
          - Palermas
          - Palerme
        ascii_name: Palermo
        geonamesid: 2523920
        latitude: 38.11582
        longitude: 13.35976
        name: Palermo
        names_en: 
          - Palermo
        names_es: 
          - Palermo
        population: 672175
        timezone: Europe/Rome
      - 
        alternate_names: 
          - "Palazzolo Acreide"
          - "Palazzolo Acréide"
          - "Palazzolu Acreidi"
          - パラッツォーロ・アクレイデ
        ascii_name: "Palazzolo Acreide"
        geonamesid: 2523922
        latitude: 37.06234
        longitude: 14.90349
        name: "Palazzolo Acreide"
        names_en: 
          - "Palazzolo Acreide"
        names_es: 
          - "Palazzolo Acreide"
        population: 9109
        timezone: Europe/Rome
      - 
        alternate_names: 
          - "Chiusa Palazzo"
          - "Palazzo Adriano"
          - "Palazzu Adrianu"
          - Pallaci
        ascii_name: "Palazzo Adriano"
        geonamesid: 2523925
        latitude: 37.68104
        longitude: 13.37905
        name: "Palazzo Adriano"
        names_en: 
          - "Palazzo Adriano"
        names_es: ~
        population: 2530
        timezone: Europe/Rome
      - 
        alternate_names: 
          - Palagonia
          - Palagunia
        ascii_name: Palagonia
        geonamesid: 2523927
        latitude: 37.32825
        longitude: 14.74478
        name: Palagonia
        names_en: 
          - Palagonia
        names_es: ~
        population: 16568
        timezone: Europe/Rome
      - 
        alternate_names: 
          - Pagliara
        ascii_name: Pagliara
        geonamesid: 2523932
        latitude: 37.98546
        longitude: 15.35969
        name: Pagliara
        names_en: 
          - Pagliara
        names_es: ~
        population: 1237
        timezone: Europe/Rome
      - 
        alternate_names: 
          - Pachino
          - Pachinu
          - Pakino
          - Пакино
        ascii_name: Pachino
        geonamesid: 2523938
        latitude: 36.71864
        longitude: 15.0907
        name: Pachino
        names_en: 
          - Pachino
        names_es: ~
        population: 21324
        timezone: Europe/Rome
      - 
        alternate_names: 
          - Paceco
        ascii_name: Paceco
        geonamesid: 2523942
        latitude: 37.97874
        longitude: 12.55663
        name: Paceco
        names_en: 
          - Paceco
        names_es: ~
        population: 10949
        timezone: Europe/Rome
      - 
        alternate_names: 
          - Oliveri
        ascii_name: Oliveri
        geonamesid: 2523972
        latitude: 38.12576
        longitude: 15.06278
        name: Oliveri
        names_en: 
          - Oliveri
        names_es: 
          - Oliveri
        population: 2099
        timezone: Europe/Rome
      - 
        alternate_names: 
          - "Novara Sicilia"
          - "Novara di Sicilia"
          - Nuvara
        ascii_name: "Novara di Sicilia"
        geonamesid: 2523994
        latitude: 38.01596
        longitude: 15.13188
        name: "Novara di Sicilia"
        names_en: 
          - "Novara di Sicilia"
        names_es: ~
        population: 1731
        timezone: Europe/Rome
      - 
        alternate_names: 
          - Netum
          - Noto
          - Nuotu
          - noto
        ascii_name: Noto
        geonamesid: 2523998
        latitude: 36.89014
        longitude: 15.06929
        name: Noto
        names_en: 
          - Noto
        names_es: 
          - Noto
        population: 23065
        timezone: Europe/Rome
      - 
        alternate_names: 
          - "Nizza di Sicilia"
        ascii_name: "Nizza di Sicilia"
        geonamesid: 2524003
        latitude: 37.99496
        longitude: 15.41189
        name: "Nizza di Sicilia"
        names_en: 
          - "Nizza di Sicilia"
        names_es: ~
        population: 3586
        timezone: Europe/Rome
      - 
        alternate_names: 
          - Nissoria
          - "Nissoria Sicilia"
          - Nissuria
        ascii_name: Nissoria
        geonamesid: 2524004
        latitude: 37.65515
        longitude: 14.44737
        name: Nissoria
        names_en: ~
        names_es: ~
        population: 3014
        timezone: Europe/Rome
      - 
        alternate_names: 
          - Niscemi
          - Nishemi
          - Нишеми
        ascii_name: Niscemi
        geonamesid: 2524006
        latitude: 37.14864
        longitude: 14.39128
        name: Niscemi
        names_en: 
          - Niscemi
        names_es: 
          - Niscemi
        population: 27641
        timezone: Europe/Rome
      - 
        alternate_names: 
          - Nicosia
          - "Nicosia Sicilia"
          - Nicusia
        ascii_name: Nicosia
        geonamesid: 2524009
        latitude: 37.74745
        longitude: 14.39727
        name: Nicosia
        names_en: 
          - Nicosia
        names_es: ~
        population: 14812
        timezone: Europe/Rome
      - 
        alternate_names: 
          - Nicolosi
          - Niculosi
        ascii_name: Nicolosi
        geonamesid: 2524010
        latitude: 37.61595
        longitude: 15.02549
        name: Nicolosi
        names_en: 
          - Nicolosi
        names_es: ~
        population: 6197
        timezone: Europe/Rome
      - 
        alternate_names: 
          - Naso
        ascii_name: Naso
        geonamesid: 2524020
        latitude: 38.12306
        longitude: 14.78688
        name: Naso
        names_en: 
          - Naso
        names_es: ~
        population: 4512
        timezone: Europe/Rome
      - 
        alternate_names: 
          - Naro
          - Naru
        ascii_name: Naro
        geonamesid: 2524022
        latitude: 37.29354
        longitude: 13.79356
        name: Naro
        names_en: 
          - Naro
        names_es: ~
        population: 8770
        timezone: Europe/Rome
      - 
        alternate_names: 
          - Mussomeli
          - Mussumeli
        ascii_name: Mussomeli
        geonamesid: 2524028
        latitude: 37.57784
        longitude: 13.75126
        name: Mussomeli
        names_en: 
          - Mussomeli
        names_es: 
          - Mussomeli
        population: 11547
        timezone: Europe/Rome
      - 
        alternate_names: 
          - "Motta Sant'Anastasia"
        ascii_name: "Motta Sant'Anastasia"
        geonamesid: 2524041
        latitude: 37.51315
        longitude: 14.96588
        name: "Motta Sant'Anastasia"
        names_en: 
          - "Motta Sant'Anastasia"
        names_es: ~
        population: 10244
        timezone: Europe/Rome
      - 
        alternate_names: 
          - Montevago
          - Muntivagu
        ascii_name: Montevago
        geonamesid: 2524061
        latitude: 37.70224
        longitude: 12.98584
        name: Montevago
        names_en: 
          - Montevago
        names_es: ~
        population: 3108
        timezone: Europe/Rome
      - 
        alternate_names: 
          - "Monterosso Almo"
          - Muntirrussu
          - Muntirussu
          - モンテロッソ・アルモ
        ascii_name: "Monterosso Almo"
        geonamesid: 2524064
        latitude: 37.08964
        longitude: 14.76459
        name: "Monterosso Almo"
        names_en: 
          - "Monterosso Almo"
        names_es: ~
        population: 3346
        timezone: Europe/Rome
      - 
        alternate_names: ~
        ascii_name: "Montemaggiore Belsito"
        geonamesid: 2524069
        latitude: 37.84645
        longitude: 13.76126
        name: "Montemaggiore Belsito"
        names_en: ~
        names_es: ~
        population: 3866
        timezone: Europe/Rome
      - 
        alternate_names: 
          - Montelepre
          - Muncilebbri
          - Muntilepri
        ascii_name: Montelepre
        geonamesid: 2524070
        latitude: 38.09045
        longitude: 13.17434
        name: Montelepre
        names_en: 
          - Montelepre
        names_es: ~
        population: 6168
        timezone: Europe/Rome
      - 
        alternate_names: 
          - Montedoro
          - Muntidoru
        ascii_name: Montedoro
        geonamesid: 2524071
        latitude: 37.45324
        longitude: 13.81676
        name: Montedoro
        names_en: 
          - Montedoro
        names_es: 
          - Montedoro
        population: 1780
        timezone: Europe/Rome
      - 
        alternate_names: 
          - Montallegro
          - Muntallegru
        ascii_name: Montallegro
        geonamesid: 2524078
        latitude: 37.39294
        longitude: 13.35075
        name: Montallegro
        names_en: 
          - Montallegro
        names_es: ~
        population: 2732
        timezone: Europe/Rome
      - 
        alternate_names: 
          - "Montalbano Elicona"
          - "Montalbano d'Elicona"
          - Muntarbanu
        ascii_name: "Montalbano di Elicona"
        geonamesid: 2524079
        latitude: 38.02466
        longitude: 15.01268
        name: "Montalbano Elicona"
        names_en: 
          - "Montalbano Elicona"
        names_es: ~
        population: 2838
        timezone: Europe/Rome
      - 
        alternate_names: 
          - Montagnareale
          - Muntagnariali
        ascii_name: Montagnareale
        geonamesid: 2524080
        latitude: 38.13216
        longitude: 14.94658
        name: Montagnareale
        names_en: 
          - Montagnareale
        names_es: ~
        population: 1787
        timezone: Europe/Rome
      - 
        alternate_names: 
          - Monreal'
          - Monreale
          - Murriali
          - monreare
        ascii_name: Monreale
        geonamesid: 2524085
        latitude: 38.08005
        longitude: 13.28854
        name: Monreale
        names_en: 
          - Monreale
        names_es: 
          - Monreale
        population: 31964
        timezone: Europe/Rome
      - 
        alternate_names: 
          - Monforte
          - "Monforte San Giorgio"
        ascii_name: "Monforte San Giorgio"
        geonamesid: 2524093
        latitude: 38.15647
        longitude: 15.38129
        name: "Monforte San Giorgio"
        names_en: 
          - "Monforte San Giorgio"
        names_es: ~
        population: 3088
        timezone: Europe/Rome
      - 
        alternate_names: 
          - Modica
          - Modika
          - Muorica
          - Muòrica
        ascii_name: Modica
        geonamesid: 2524119
        latitude: 36.84594
        longitude: 14.77399
        name: Modica
        names_en: 
          - Modica
        names_es: 
          - Modica
        population: 52639
        timezone: Europe/Rome
      - 
        alternate_names: 
          - Mistretta
          - Mistritta
        ascii_name: Mistretta
        geonamesid: 2524122
        latitude: 37.92706
        longitude: 14.35747
        name: Mistretta
        names_en: 
          - Mistretta
        names_es: ~
        population: 5541
        timezone: Europe/Rome
      - 
        alternate_names: 
          - Misterbianco
          - Mistirjancu
        ascii_name: Misterbianco
        geonamesid: 2524123
        latitude: 37.51815
        longitude: 15.03089
        name: Misterbianco
        names_en: 
          - Misterbianco
        names_es: ~
        population: 43995
        timezone: Europe/Rome
      - 
        alternate_names: 
          - Misilmeri
        ascii_name: Misilmeri
        geonamesid: 2524126
        latitude: 38.03385
        longitude: 13.45175
        name: Misilmeri
        names_en: 
          - Misilmeri
        names_es: ~
        population: 23109
        timezone: Europe/Rome
      - 
        alternate_names: 
          - Mirto
          - Mirtu
        ascii_name: Mirto
        geonamesid: 2524131
        latitude: 38.08466
        longitude: 14.75148
        name: Mirto
        names_en: 
          - Mirto
        names_es: ~
        population: 1104
        timezone: Europe/Rome
      - 
        alternate_names: 
          - "Mirabedda Mbaccari"
          - "Mirabella Imbaccari"
        ascii_name: "Mirabella Imbaccari"
        geonamesid: 2524135
        latitude: 37.32754
        longitude: 14.44628
        name: "Mirabella Imbaccari"
        names_en: 
          - "Mirabella Imbaccari"
        names_es: ~
        population: 6331
        timezone: Europe/Rome
      - 
        alternate_names: 
          - Mineo
          - Miniu
        ascii_name: Mineo
        geonamesid: 2524142
        latitude: 37.26535
        longitude: 14.69008
        name: Mineo
        names_en: 
          - Mineo
        names_es: ~
        population: 5586
        timezone: Europe/Rome
      - 
        alternate_names: 
          - Milo
          - Milu
        ascii_name: Milo
        geonamesid: 2524143
        latitude: 37.72326
        longitude: 15.11589
        name: Milo
        names_en: 
          - Milo
        names_es: ~
        population: 1104
        timezone: Europe/Rome
      - 
        alternate_names: 
          - Militello
          - "Militello Rosmarino"
          - "Militello di Rosmarino"
          - Militieddu
        ascii_name: "Militello Rosmatino"
        geonamesid: 2524144
        latitude: 38.04616
        longitude: 14.67647
        name: "Militello Rosmarino"
        names_en: 
          - "Militello Rosmarino"
        names_es: ~
        population: 1445
        timezone: Europe/Rome
      - 
        alternate_names: 
          - "Militeddu in Val di Catania"
          - "Militello in Val di Catania"
          - ミリテッロ・イン・ヴァル・ディ・カターニア
        ascii_name: "Militello in Val di Catania"
        geonamesid: 2524145
        latitude: 37.27485
        longitude: 14.79338
        name: "Militello in Val di Catania"
        names_en: 
          - "Militello in Val di Catania"
        names_es: ~
        population: 8204
        timezone: Europe/Rome
      - 
        alternate_names: 
          - Milena
          - Milocca
        ascii_name: Milena
        geonamesid: 2524152
        latitude: 37.46964
        longitude: 13.73516
        name: Milena
        names_en: 
          - Milena
        names_es: 
          - Milena
        population: 3446
        timezone: Europe/Rome
      - 
        alternate_names: 
          - Milacco
          - Milazzo
          - Milazzu
          - Mylae
        ascii_name: Milazzo
        geonamesid: 2524155
        latitude: 38.22117
        longitude: 15.23828
        name: Milazzo
        names_en: 
          - Milazzo
        names_es: ~
        population: 32108
        timezone: Europe/Rome
      - 
        alternate_names: 
          - Mezzoiuso
          - Mezzojuso
          - Munxifsi
        ascii_name: Mezzojuso
        geonamesid: 2524163
        latitude: 37.86445
        longitude: 13.46465
        name: Mezzojuso
        names_en: ~
        names_es: ~
        population: 3058
        timezone: Europe/Rome
      - 
        alternate_names: 
          - Mesina
          - Messana
          - Messina
          - Messine
        ascii_name: Messina
        geonamesid: 2524170
        latitude: 38.19327
        longitude: 15.54969
        name: Messina
        names_en: 
          - Messina
        names_es: 
          - Messina
          - Mesina
        population: 252026
        timezone: Europe/Rome
      - 
        alternate_names: 
          - Meri
          - Merì
        ascii_name: Meri
        geonamesid: 2524175
        latitude: 38.16586
        longitude: 15.24988
        name: Merì
        names_en: 
          - Merì
        names_es: ~
        population: 2186
        timezone: Europe/Rome
      - 
        alternate_names: 
          - Menfi
          - Менфи
        ascii_name: Menfi
        geonamesid: 2524179
        latitude: 37.60664
        longitude: 12.96784
        name: Menfi
        names_en: 
          - Menfi
        names_es: ~
        population: 12783
        timezone: Europe/Rome
      - 
        alternate_names: 
          - Melilli
          - Mellili
          - Miliddi
        ascii_name: Melilli
        geonamesid: 2524186
        latitude: 37.17965
        longitude: 15.12549
        name: Melilli
        names_en: 
          - Melilli
        names_es: ~
        population: 12216
        timezone: Europe/Rome
      - 
        alternate_names: 
          - Mazzarra
          - "Mazzarra Sant'Andrea"
          - Mazzarrà
          - "Mazzarrà Sant'Andrea"
        ascii_name: "Mazzarra Sant'Andrea"
        geonamesid: 2524199
        latitude: 38.08846
        longitude: 15.13358
        name: "Mazzarrà Sant'Andrea"
        names_en: 
          - "Mazzarrà Sant'Andrea"
        names_es: ~
        population: 1755
        timezone: Europe/Rome
      - 
        alternate_names: 
          - Mazzarino
          - Mazzarinu
        ascii_name: Mazzarino
        geonamesid: 2524200
        latitude: 37.30434
        longitude: 14.21407
        name: Mazzarino
        names_en: 
          - Mazzarino
        names_es: 
          - Mazzarino
        population: 12627
        timezone: Europe/Rome
      - 
        alternate_names: 
          - "Mazara del Vallo"
          - Mazzara
        ascii_name: "Mazara del Vallo"
        geonamesid: 2524205
        latitude: 37.66414
        longitude: 12.58804
        name: "Mazara del Vallo"
        names_en: 
          - "Mazara del Vallo"
        names_es: ~
        population: 50377
        timezone: Europe/Rome
      - 
        alternate_names: 
          - Mascalucia
          - Maskalucha
          - Маскалуча
        ascii_name: Mascalucia
        geonamesid: 2524236
        latitude: 37.59215
        longitude: 15.02989
        name: Mascalucia
        names_en: 
          - Mascalucia
        names_es: ~
        population: 24483
        timezone: Europe/Rome
      - 
        alternate_names: 
          - Mascali
          - Màscali
        ascii_name: Mascali
        geonamesid: 2524237
        latitude: 37.75576
        longitude: 15.19589
        name: Mascali
        names_en: 
          - Mascali
        names_es: ~
        population: 11122
        timezone: Europe/Rome
      - 
        alternate_names: 
          - Marsala
          - marusara
          - Марсала
          - マルサーラ
        ascii_name: Marsala
        geonamesid: 2524245
        latitude: 37.79664
        longitude: 12.43518
        name: Marsala
        names_en: 
          - Marsala
        names_es: 
          - Marsala
        population: 77784
        timezone: Europe/Rome
      - 
        alternate_names: 
          - Marineo
        ascii_name: Marineo
        geonamesid: 2524255
        latitude: 37.94995
        longitude: 13.41685
        name: Marineo
        names_en: 
          - Marineo
        names_es: ~
        population: 6956
        timezone: Europe/Rome
      - 
        alternate_names: 
          - "Marina di Ragusa"
          - Marina-di-Raguza
          - Марина-ди-Рагуза
        ascii_name: "Marina di Ragusa"
        geonamesid: 2524263
        latitude: 36.78333
        longitude: 14.55
        name: "Marina di Ragusa"
        names_en: ~
        names_es: ~
        population: 4070
        timezone: Europe/Rome
      - 
        alternate_names: 
          - Marianopoli
          - "Paisi di li Manchi"
        ascii_name: Marianopoli
        geonamesid: 2524275
        latitude: 37.59745
        longitude: 13.91576
        name: Marianopoli
        names_en: 
          - Marianopoli
        names_es: 
          - Marianopoli
        population: 2362
        timezone: Europe/Rome
      - 
        alternate_names: 
          - Maletto
          - Malettu
        ascii_name: Maletto
        geonamesid: 2524322
        latitude: 37.82996
        longitude: 14.86248
        name: Maletto
        names_en: 
          - Maletto
        names_es: ~
        population: 4032
        timezone: Europe/Rome
      - 
        alternate_names: 
          - "Lucca Sicula"
          - "Lucca Sìcula"
        ascii_name: "Lucca Sicula"
        geonamesid: 2524361
        latitude: 37.57944
        longitude: 13.30695
        name: "Lucca Sicula"
        names_en: 
          - "Lucca Sicula"
        names_es: ~
        population: 2090
        timezone: Europe/Rome
      - 
        alternate_names: 
          - Lonci
          - Longi
        ascii_name: Longi
        geonamesid: 2524369
        latitude: 38.02736
        longitude: 14.75228
        name: Longi
        names_en: 
          - Longi
        names_es: ~
        population: 1653
        timezone: Europe/Rome
      - 
        alternate_names: ~
        ascii_name: Lipari
        geonamesid: 2524379
        latitude: 38.46743
        longitude: 14.95398
        name: Lipari
        names_en: ~
        names_es: ~
        population: 10554
        timezone: Europe/Rome
      - 
        alternate_names: 
          - Linguaglossa
          - Linguarossa
        ascii_name: Linguaglossa
        geonamesid: 2524382
        latitude: 37.84316
        longitude: 15.13878
        name: Linguaglossa
        names_en: 
          - Linguaglossa
        names_es: ~
        population: 5432
        timezone: Europe/Rome
      - 
        alternate_names: 
          - "Licodia Eubea"
          - Licuddia
        ascii_name: "Licodia Eubea"
        geonamesid: 2524392
        latitude: 37.15714
        longitude: 14.70608
        name: "Licodia Eubea"
        names_en: 
          - "Licodia Eubea"
        names_es: ~
        population: 3161
        timezone: Europe/Rome
      - 
        alternate_names: 
          - Licata
        ascii_name: Licata
        geonamesid: 2524393
        latitude: 37.10714
        longitude: 13.94607
        name: Licata
        names_en: 
          - Licata
        names_es: ~
        population: 37976
        timezone: Europe/Rome
      - 
        alternate_names: 
          - Librizzi
        ascii_name: Librizzi
        geonamesid: 2524394
        latitude: 38.09576
        longitude: 14.95818
        name: Librizzi
        names_en: 
          - Librizzi
        names_es: ~
        population: 1908
        timezone: Europe/Rome
      - 
        alternate_names: 
          - "Letoianni Gallodori"
          - Letojanni
          - "Letojanni Gallodoro"
        ascii_name: Letoianni
        geonamesid: 2524400
        latitude: 37.89266
        longitude: 15.31919
        name: Letojanni
        names_en: 
          - Letojanni
        names_es: ~
        population: 2480
        timezone: Europe/Rome
      - 
        alternate_names: 
          - Lercara
          - "Lercara Friddi"
        ascii_name: "Lercara Friddi"
        geonamesid: 2524402
        latitude: 37.74695
        longitude: 13.60485
        name: "Lercara Friddi"
        names_en: 
          - "Lercara Friddi"
        names_es: ~
        population: 7392
        timezone: Europe/Rome
      - 
        alternate_names: 
          - Leonforte
          - Liunforti
        ascii_name: Leonforte
        geonamesid: 2524404
        latitude: 37.64435
        longitude: 14.40067
        name: Leonforte
        names_en: 
          - Leonforte
        names_es: ~
        population: 14145
        timezone: Europe/Rome
      - 
        alternate_names: 
          - Lentini
          - Leontini
          - Lintini
          - lntyny
        ascii_name: Lentini
        geonamesid: 2524410
        latitude: 37.28545
        longitude: 14.99959
        name: Lentini
        names_en: 
          - Lentini
        names_es: ~
        population: 24748
        timezone: Europe/Rome
      - 
        alternate_names: 
          - Lascari
        ascii_name: Lascari
        geonamesid: 2524438
        latitude: 38.00005
        longitude: 13.94146
        name: Lascari
        names_en: 
          - Lascari
        names_es: ~
        population: 3132
        timezone: Europe/Rome
      - 
        alternate_names: ~
        ascii_name: Lampedusa
        geonamesid: 2524459
        latitude: 35.5
        longitude: 12.6
        name: Lampedusa
        names_en: ~
        names_es: ~
        population: 6025
        timezone: Europe/Rome
      - 
        alternate_names: 
          - Itala
        ascii_name: Itala
        geonamesid: 2524492
        latitude: 38.05116
        longitude: 15.43799
        name: Itala
        names_en: 
          - Itala
        names_es: ~
        population: 1692
        timezone: Europe/Rome
      - 
        alternate_names: 
          - Spaccaforno
        ascii_name: Ispica
        geonamesid: 2524493
        latitude: 36.78444
        longitude: 14.90629
        name: Ispica
        names_en: ~
        names_es: ~
        population: 14457
        timezone: Europe/Rome
      - 
        alternate_names: 
          - "Isola delle Femmine"
          - Isula
        ascii_name: "Isola delle Femmine"
        geonamesid: 2524494
        latitude: 38.19345
        longitude: 13.24884
        name: "Isola delle Femmine"
        names_en: 
          - "Isola delle Femmine"
        names_es: ~
        population: 6208
        timezone: Europe/Rome
      - 
        alternate_names: 
          - Isneddu
          - Isnello
        ascii_name: Isnello
        geonamesid: 2524496
        latitude: 37.94395
        longitude: 14.00576
        name: Isnello
        names_en: 
          - Isnello
        names_es: ~
        population: 1923
        timezone: Europe/Rome
      - 
        alternate_names: 
          - Ioppolo
          - Joppolo
          - "Joppolo Giancaxio"
          - "Joppulu Giancaxiu"
        ascii_name: "Ioppolo Giancaxio"
        geonamesid: 2524506
        latitude: 37.38704
        longitude: 13.55526
        name: "Joppolo Giancaxio"
        names_en: 
          - "Joppolo Giancaxio"
        names_es: ~
        population: 1286
        timezone: Europe/Rome
      - 
        alternate_names: 
          - Grotte
          - Grutti
        ascii_name: Grotte
        geonamesid: 2524561
        latitude: 37.40464
        longitude: 13.70016
        name: Grotte
        names_en: 
          - Grotte
        names_es: ~
        population: 6208
        timezone: Europe/Rome
      - 
        alternate_names: 
          - Gratteri
          - Ratteri
        ascii_name: Gratteri
        geonamesid: 2524572
        latitude: 37.96555
        longitude: 13.97226
        name: Gratteri
        names_en: 
          - Gratteri
        names_es: ~
        population: 1079
        timezone: Europe/Rome
      - 
        alternate_names: 
          - Grammichele
          - Grammicheli
        ascii_name: Grammichele
        geonamesid: 2524583
        latitude: 37.21234
        longitude: 14.63968
        name: Grammichele
        names_en: 
          - Grammichele
        names_es: ~
        population: 13395
        timezone: Europe/Rome
      - 
        alternate_names: 
          - Godramo
          - Godrano
          - Gudranu
        ascii_name: Godrano
        geonamesid: 2524592
        latitude: 37.90335
        longitude: 13.42925
        name: Godrano
        names_en: 
          - Godrano
        names_es: ~
        population: 1147
        timezone: Europe/Rome
      - 
        alternate_names: 
          - Giuliana
          - juriana
          - ジュリアーナ
        ascii_name: Giuliana
        geonamesid: 2524598
        latitude: 37.67344
        longitude: 13.23695
        name: Giuliana
        names_en: 
          - Giuliana
        names_es: ~
        population: 2305
        timezone: Europe/Rome
      - 
        alternate_names: 
          - "Gioiosa Marea"
          - "Giojosa Marea"
          - Giujusa
        ascii_name: "Gioiosa Marea"
        geonamesid: 2524604
        latitude: 38.17276
        longitude: 14.89558
        name: "Gioiosa Marea"
        names_en: 
          - "Gioiosa Marea"
        names_es: ~
        population: 7245
        timezone: Europe/Rome
      - 
        alternate_names: 
          - Gibbellina
          - Gibellina
        ascii_name: Gibellina
        geonamesid: 2524614
        latitude: 37.80704
        longitude: 12.86954
        name: Gibellina
        names_en: 
          - Gibellina
        names_es: ~
        population: 4677
        timezone: Europe/Rome
      - 
        alternate_names: 
          - Dzharre
          - Giarre
          - "Giarre Riposto"
          - Giarri
        ascii_name: Giarre
        geonamesid: 2524618
        latitude: 37.72686
        longitude: 15.18769
        name: Giarre
        names_en: 
          - Giarre
        names_es: ~
        population: 26357
        timezone: Europe/Rome
      - 
        alternate_names: 
          - Giarratana
          - jarratana
          - ジャッラターナ
        ascii_name: Giarratana
        geonamesid: 2524619
        latitude: 37.04864
        longitude: 14.79419
        name: Giarratana
        names_en: 
          - Giarratana
        names_es: ~
        population: 3343
        timezone: Europe/Rome
      - 
        alternate_names: 
          - Giardini
        ascii_name: "Giardini Naxos"
        geonamesid: 2524622
        latitude: 37.82755
        longitude: 15.26713
        name: "Giardini Naxos"
        names_en: ~
        names_es: ~
        population: 9378
        timezone: Europe/Rome
      - 
        alternate_names: 
          - Giardineddu
          - Giardinello
        ascii_name: Giardinello
        geonamesid: 2524624
        latitude: 38.08805
        longitude: 13.15704
        name: Giardinello
        names_en: 
          - Giardinello
        names_es: ~
        population: 1900
        timezone: Europe/Rome
      - 
        alternate_names: 
          - Geraci
          - "Geraci Siculo"
          - Jiraci
        ascii_name: "Geraci Siculo"
        geonamesid: 2524641
        latitude: 37.85975
        longitude: 14.15356
        name: "Geraci Siculo"
        names_en: 
          - "Geraci Siculo"
        names_es: ~
        population: 2105
        timezone: Europe/Rome
      - 
        alternate_names: 
          - Dzhela
          - Gela
          - "ge la"
          - jera
        ascii_name: Gela
        geonamesid: 2524653
        latitude: 37.08034
        longitude: 14.23068
        name: Gela
        names_en: 
          - Gela
        names_es: 
          - Gela
        population: 72774
        timezone: Europe/Rome
      - 
        alternate_names: 
          - Gangi
          - ganji
          - ガンジ
        ascii_name: Gangi
        geonamesid: 2524661
        latitude: 37.79565
        longitude: 14.20437
        name: Gangi
        names_en: 
          - Gangi
        names_es: 
          - Gangi
        population: 7614
        timezone: Europe/Rome
      - 
        alternate_names: 
          - Galati
          - "Galati Mamertino"
        ascii_name: "Galati Mamertino"
        geonamesid: 2524679
        latitude: 38.03196
        longitude: 14.77088
        name: "Galati Mamertino"
        names_en: 
          - "Galati Mamertino"
        names_es: ~
        population: 3127
        timezone: Europe/Rome
      - 
        alternate_names: 
          - Gagghianu
          - "Gagliano Castelferrato"
        ascii_name: "Gagliano Castelferrato"
        geonamesid: 2524686
        latitude: 37.71195
        longitude: 14.53677
        name: "Gagliano Castelferrato"
        names_en: 
          - "Gagliano Castelferrato"
        names_es: ~
        population: 3772
        timezone: Europe/Rome
      - 
        alternate_names: 
          - Caggi
          - Gaggi
          - Kaggi
        ascii_name: Gaggi
        geonamesid: 2524688
        latitude: 37.85995
        longitude: 15.22126
        name: Gaggi
        names_en: 
          - Gaggi
        names_es: ~
        population: 2693
        timezone: Europe/Rome
      - 
        alternate_names: 
          - Fulci
          - "Furci Siculo"
          - "Furci Siculu"
        ascii_name: "Furci Siculo"
        geonamesid: 2524694
        latitude: 37.96036
        longitude: 15.37939
        name: "Furci Siculo"
        names_en: 
          - "Furci Siculo"
        names_es: ~
        population: 3285
        timezone: Europe/Rome
      - 
        alternate_names: 
          - Carlintini
          - Francofonte
          - Francufonti
          - furankofonte
        ascii_name: Francofonte
        geonamesid: 2524704
        latitude: 37.22645
        longitude: 14.88059
        name: Francofonte
        names_en: 
          - Francofonte
        names_es: ~
        population: 12949
        timezone: Europe/Rome
      - 
        alternate_names: 
          - "Francavigghia di Sicilia"
          - "Francavilla di Sicilia"
        ascii_name: "Francavilla di Sicilia"
        geonamesid: 2524707
        latitude: 37.90186
        longitude: 15.13748
        name: "Francavilla di Sicilia"
        names_en: 
          - "Francavilla di Sicilia"
        names_es: ~
        population: 4347
        timezone: Europe/Rome
      - 
        alternate_names: 
          - Ciuriddia
          - Floridia
          - Floridii
          - furoridia
        ascii_name: Floridia
        geonamesid: 2524734
        latitude: 37.08695
        longitude: 15.15189
        name: Floridia
        names_en: 
          - Floridia
        names_es: ~
        population: 20675
        timezone: Europe/Rome
      - 
        alternate_names: 
          - Ciumifriddu
          - "Fiumefreddo di Sicilia"
          - Sciummefriddo
        ascii_name: "Fiumefreddo di Sicilia"
        geonamesid: 2524742
        latitude: 37.79146
        longitude: 15.20919
        name: "Fiumefreddo di Sicilia"
        names_en: 
          - "Fiumefreddo di Sicilia"
        names_es: ~
        population: 9602
        timezone: Europe/Rome
      - 
        alternate_names: 
          - Ciumidinisi
          - Fiumedinisi
        ascii_name: Fiumedinisi
        geonamesid: 2524745
        latitude: 38.02596
        longitude: 15.38099
        name: Fiumedinisi
        names_en: 
          - Fiumedinisi
        names_es: ~
        population: 1679
        timezone: Europe/Rome
      - 
        alternate_names: 
          - Ficarra
        ascii_name: Ficarra
        geonamesid: 2524764
        latitude: 38.10906
        longitude: 14.82898
        name: Ficarra
        names_en: 
          - Ficarra
        names_es: ~
        population: 1803
        timezone: Europe/Rome
      - 
        alternate_names: 
          - Ficarazzi
        ascii_name: Ficarazzi
        geonamesid: 2524765
        latitude: 38.08975
        longitude: 13.46805
        name: Ficarazzi
        names_en: 
          - Ficarazzi
        names_es: ~
        population: 9418
        timezone: Europe/Rome
      - 
        alternate_names: 
          - Ferla
          - ferura
          - フェルラ
        ascii_name: Ferla
        geonamesid: 2524775
        latitude: 37.12054
        longitude: 14.93959
        name: Ferla
        names_en: 
          - Ferla
        names_es: ~
        population: 2760
        timezone: Europe/Rome
      - 
        alternate_names: 
          - Favignana
          - "Isla Favignana"
          - "Porto de Favignana"
          - favu~inyana
        ascii_name: Favignana
        geonamesid: 2524780
        latitude: 37.93004
        longitude: 12.32853
        name: Favignana
        names_en: 
          - Favignana
        names_es: 
          - "Isla Favignana"
        population: 4137
        timezone: Europe/Rome
      - 
        alternate_names: 
          - Favara
        ascii_name: Favara
        geonamesid: 2524786
        latitude: 37.31754
        longitude: 13.66226
        name: Favara
        names_en: 
          - Favara
        names_es: ~
        population: 31098
        timezone: Europe/Rome
      - 
        alternate_names: 
          - Falcone
          - Falcuni
        ascii_name: Falcone
        geonamesid: 2524801
        latitude: 38.11706
        longitude: 15.07908
        name: Falcone
        names_en: 
          - Falcone
        names_es: ~
        population: 2858
        timezone: Europe/Rome
      - 
        alternate_names: 
          - Ehriche
          - Erice
          - Erici
          - "Mont Eryx"
        ascii_name: Erice
        geonamesid: 2524815
        latitude: 38.03704
        longitude: 12.58653
        name: Erice
        names_en: 
          - Erice
        names_es: 
          - Erice
        population: 29338
        timezone: Europe/Rome
      - 
        alternate_names: 
          - Castrugiuvanni
          - Ehnna
          - Ena
          - Enna
        ascii_name: Enna
        geonamesid: 2524819
        latitude: 37.55885
        longitude: 14.28917
        name: Enna
        names_en: 
          - Enna
        names_es: 
          - Enna
        population: 28983
        timezone: Europe/Rome
      - 
        alternate_names: 
          - Delia
        ascii_name: Delia
        geonamesid: 2524862
        latitude: 37.35874
        longitude: 13.92867
        name: Delia
        names_en: 
          - Delia
        names_es: 
          - Delia
        population: 4350
        timezone: Europe/Rome
      - 
        alternate_names: 
          - Castonaci
          - Custonaci
          - Custunaci
        ascii_name: Custonaci
        geonamesid: 2524870
        latitude: 38.07304
        longitude: 12.68753
        name: Custonaci
        names_en: ~
        names_es: ~
        population: 4814
        timezone: Europe/Rome
      - 
        alternate_names: 
          - Corleone
          - Curliuni
          - Korleone
          - Korleonė
        ascii_name: Corleone
        geonamesid: 2524928
        latitude: 37.81338
        longitude: 13.3017
        name: Corleone
        names_en: 
          - Corleone
        names_es: 
          - Corleone
        population: 11393
        timezone: Europe/Rome
      - 
        alternate_names: 
          - "Contessa Entellina"
          - Cuntissa
        ascii_name: "Contessa Entellina"
        geonamesid: 2524940
        latitude: 37.73064
        longitude: 13.18365
        name: "Contessa Entellina"
        names_en: 
          - "Contessa Entellina"
        names_es: ~
        population: 1985
        timezone: Europe/Rome
      - 
        alternate_names: 
          - Comiso
          - Comisu
          - Commisu
          - Còmisu
        ascii_name: Comiso
        geonamesid: 2524955
        latitude: 36.95134
        longitude: 14.61018
        name: Comiso
        names_en: 
          - Comiso
        names_es: ~
        population: 29076
        timezone: Europe/Rome
      - 
        alternate_names: 
          - Collesano
          - Gulisanu
        ascii_name: Collesano
        geonamesid: 2524964
        latitude: 37.91835
        longitude: 13.93566
        name: Collesano
        names_en: 
          - Collesano
        names_es: ~
        population: 4253
        timezone: Europe/Rome
      - 
        alternate_names: 
          - Cinisi
        ascii_name: Cinisi
        geonamesid: 2524987
        latitude: 38.15615
        longitude: 13.10734
        name: Cinisi
        names_en: 
          - Cinisi
        names_es: ~
        population: 10253
        timezone: Europe/Rome
      - 
        alternate_names: 
          - Ciminna
        ascii_name: Ciminna
        geonamesid: 2524989
        latitude: 37.89825
        longitude: 13.55945
        name: Ciminna
        names_en: 
          - Ciminna
        names_es: ~
        population: 3986
        timezone: Europe/Rome
      - 
        alternate_names: 
          - Cianciana
        ascii_name: Cianciana
        geonamesid: 2524999
        latitude: 37.52024
        longitude: 13.43355
        name: Cianciana
        names_en: 
          - Cianciana
        names_es: ~
        population: 4073
        timezone: Europe/Rome
      - 
        alternate_names: 
          - Chiusa
          - "Chiusa Sclafani"
          - Sclafani
        ascii_name: "Chiusa Sclafani"
        geonamesid: 2525003
        latitude: 37.67694
        longitude: 13.27015
        name: "Chiusa Sclafani"
        names_en: 
          - "Chiusa Sclafani"
        names_es: ~
        population: 3302
        timezone: Europe/Rome
      - 
        alternate_names: 
          - "Chiaramonte Gulfi"
          - Ciaramunti
          - キアラモンテ・グルフィ
        ascii_name: "Chiaramonte Gulfi"
        geonamesid: 2525010
        latitude: 37.03134
        longitude: 14.70128
        name: "Chiaramonte Gulfi"
        names_en: 
          - "Chiaramonte Gulfi"
        names_es: ~
        population: 8099
        timezone: Europe/Rome
      - 
        alternate_names: 
          - Cesaro
          - Cesarò
          - Chezaro
          - Чезаро
        ascii_name: Cesaro
        geonamesid: 2525015
        latitude: 37.84476
        longitude: 14.71308
        name: Cesarò
        names_en: 
          - Cesarò
        names_es: ~
        population: 2815
        timezone: Europe/Rome
      - 
        alternate_names: 
          - Cerda
        ascii_name: Cerda
        geonamesid: 2525026
        latitude: 37.90595
        longitude: 13.81436
        name: Cerda
        names_en: 
          - Cerda
        names_es: ~
        population: 5377
        timezone: Europe/Rome
      - 
        alternate_names: 
          - Cerami
          - Cirami
        ascii_name: Cerami
        geonamesid: 2525031
        latitude: 37.81065
        longitude: 14.50727
        name: Cerami
        names_en: ~
        names_es: ~
        population: 2462
        timezone: Europe/Rome
      - 
        alternate_names: 
          - Centorvu
          - Centuripe
        ascii_name: Centuripe
        geonamesid: 2525032
        latitude: 37.62295
        longitude: 14.73908
        name: Centuripe
        names_en: 
          - Centuripe
        names_es: ~
        population: 5903
        timezone: Europe/Rome
      - 
        alternate_names: 
          - Cefalas
          - Cefalu
          - Cefalù
          - Cefalú
        ascii_name: Cefalu
        geonamesid: 2525041
        latitude: 38.03856
        longitude: 14.02285
        name: Cefalù
        names_en: 
          - Cefalù
        names_es: 
          - Cefalú
        population: 13789
        timezone: Europe/Rome
      - 
        alternate_names: 
          - "Catolica Eraclia"
          - Cattolica
          - "Cattolica Eraclea"
          - "Cattolica Eraclia"
        ascii_name: "Cattolica Eraclea"
        geonamesid: 2525054
        latitude: 37.44084
        longitude: 13.39205
        name: "Cattolica Eraclea"
        names_en: 
          - "Cattolica Eraclea"
        names_es: ~
        population: 4959
        timezone: Europe/Rome
      - 
        alternate_names: 
          - Cantagnenuova
        ascii_name: Catenanuova
        geonamesid: 2525057
        latitude: 37.56985
        longitude: 14.69208
        name: Catenanuova
        names_en: ~
        names_es: ~
        population: 4876
        timezone: Europe/Rome
      - 
        alternate_names: 
          - Catane
          - Catania
          - Catina
          - Catània
        ascii_name: Catania
        geonamesid: 2525068
        latitude: 37.50213
        longitude: 15.08719
        name: Catania
        names_en: 
          - Catania
        names_es: 
          - Catania
        population: 313110
        timezone: Europe/Rome
      - 
        alternate_names: 
          - Castroreale
          - Castruriali
        ascii_name: Castroreale
        geonamesid: 2525073
        latitude: 38.09916
        longitude: 15.21018
        name: Castroreale
        names_en: 
          - Castroreale
        names_es: ~
        population: 2910
        timezone: Europe/Rome
      - 
        alternate_names: 
          - "Castronovo di Sicilia"
          - Castronuovo
          - Castrunovu
        ascii_name: "Castronuovo di Sicilia"
        geonamesid: 2525074
        latitude: 37.67894
        longitude: 13.60346
        name: "Castronovo di Sicilia"
        names_en: 
          - "Castronovo di Sicilia"
        names_es: ~
        population: 3419
        timezone: Europe/Rome
      - 
        alternate_names: 
          - Castrofilippo
          - Castrufilippu
        ascii_name: Castrofilippo
        geonamesid: 2525076
        latitude: 37.35046
        longitude: 13.75001
        name: Castrofilippo
        names_en: 
          - Castrofilippo
        names_es: ~
        population: 3247
        timezone: Europe/Rome
      - 
        alternate_names: 
          - "Castigghiuni di Sicilia"
          - "Castiglione di Sicilia"
        ascii_name: "Castiglione di Sicilia"
        geonamesid: 2525079
        latitude: 37.88206
        longitude: 15.12138
        name: "Castiglione di Sicilia"
        names_en: 
          - "Castiglione di Sicilia"
        names_es: ~
        population: 3746
        timezone: Europe/Rome
      - 
        alternate_names: 
          - Castedduvitranu
          - Castelvetrano
          - Castelvetranu
          - Kastel'vetrano
        ascii_name: Castelvetrano
        geonamesid: 2525083
        latitude: 37.68264
        longitude: 12.79164
        name: Castelvetrano
        names_en: 
          - Castelvetrano
        names_es: ~
        population: 30518
        timezone: Europe/Rome
      - 
        alternate_names: 
          - Casteltermini
        ascii_name: Casteltermini
        geonamesid: 2525084
        latitude: 37.54054
        longitude: 13.64446
        name: Casteltermini
        names_en: 
          - Casteltermini
        names_es: ~
        population: 8782
        timezone: Europe/Rome
      - 
        alternate_names: 
          - Castania
          - Castell'Umberto
          - "Castello Umberto"
        ascii_name: Castell'Umberto
        geonamesid: 2525088
        latitude: 38.08506
        longitude: 14.80698
        name: Castell'Umberto
        names_en: 
          - Castell'Umberto
        names_es: ~
        population: 3564
        timezone: Europe/Rome
      - 
        alternate_names: 
          - Castellana
          - "Castellana Sicula"
          - Castiddana
        ascii_name: "Castellana Sicula"
        geonamesid: 2525093
        latitude: 37.78485
        longitude: 14.03936
        name: "Castellana Sicula"
        names_en: 
          - "Castellana Sicula"
        names_es: ~
        population: 3833
        timezone: Europe/Rome
      - 
        alternate_names: 
          - Casteddammari
          - "Castellammare del Golfo"
        ascii_name: "Castellammare del Golfo"
        geonamesid: 2525095
        latitude: 38.01885
        longitude: 12.88584
        name: "Castellammare del Golfo"
        names_en: 
          - "Castellammare del Golfo"
        names_es: ~
        population: 14573
        timezone: Europe/Rome
      - 
        alternate_names: 
          - "Castel di Lucio"
          - "Castel di Luciu"
        ascii_name: "Castel di Lucio"
        geonamesid: 2525100
        latitude: 37.88645
        longitude: 14.31217
        name: "Castel di Lucio"
        names_en: 
          - "Castel di Lucio"
        names_es: ~
        population: 1561
        timezone: Europe/Rome
      - 
        alternate_names: 
          - Carrulo
          - "Castel di Iudica"
          - "Castel di Judica"
          - Giardinelli
        ascii_name: "Castel di Iudica"
        geonamesid: 2525101
        latitude: 37.49475
        longitude: 14.64744
        name: "Castel di Iudica"
        names_en: 
          - "Castel di Judica"
        names_es: ~
        population: 4777
        timezone: Europe/Rome
      - 
        alternate_names: 
          - Casteldaccia
          - Castiddazzu
        ascii_name: Casteldaccia
        geonamesid: 2525102
        latitude: 38.05255
        longitude: 13.52865
        name: Casteldaccia
        names_en: 
          - Casteldaccia
        names_es: ~
        population: 9022
        timezone: Europe/Rome
      - 
        alternate_names: 
          - Castelbuono
          - Castiddubbuonu
        ascii_name: Castelbuono
        geonamesid: 2525103
        latitude: 37.93195
        longitude: 14.08856
        name: Castelbuono
        names_en: 
          - Castelbuono
        names_es: ~
        population: 9648
        timezone: Europe/Rome
      - 
        alternate_names: 
          - Casalvecchio
          - "Casalvecchio Siculo"
          - "Casalvecchiu Siculu"
        ascii_name: "Casalvecchio Siculo"
        geonamesid: 2525251
        latitude: 37.95816
        longitude: 15.32259
        name: "Casalvecchio Siculo"
        names_en: 
          - "Casalvecchio Siculo"
        names_es: ~
        population: 1152
        timezone: Europe/Rome
      - 
        alternate_names: 
          - Caronia
          - Carunia
          - Carunìa
        ascii_name: Caronia
        geonamesid: 2525344
        latitude: 38.02436
        longitude: 14.44057
        name: Caronia
        names_en: 
          - Caronia
        names_es: ~
        population: 3589
        timezone: Europe/Rome
      - 
        alternate_names: 
          - Carlentini
          - Carlintini
          - Carruntini
          - karurentini
        ascii_name: Carlentini
        geonamesid: 2525349
        latitude: 37.26955
        longitude: 15.01259
        name: Carlentini
        names_en: 
          - Carlentini
        names_es: ~
        population: 16879
        timezone: Europe/Rome
      - 
        alternate_names: 
          - Carini
          - Karina
          - Карина
        ascii_name: Carini
        geonamesid: 2525350
        latitude: 38.15665
        longitude: 13.17764
        name: Carini
        names_en: 
          - Carini
        names_es: 
          - Carini
        population: 25730
        timezone: Europe/Rome
      - 
        alternate_names: 
          - "Capri Leone"
          - "Capri Liuni"
        ascii_name: "Capri Leone"
        geonamesid: 2525373
        latitude: 38.08626
        longitude: 14.72877
        name: "Capri Leone"
        names_en: 
          - "Capri Leone"
        names_es: ~
        population: 4016
        timezone: Europe/Rome
      - 
        alternate_names: 
          - "Capo d'Orlando"
          - "Capu d'Orlannu"
        ascii_name: "Capo d'Orlando"
        geonamesid: 2525384
        latitude: 38.14346
        longitude: 14.73047
        name: "Capo d'Orlando"
        names_en: 
          - "Capo d'Orlando"
        names_es: 
          - "Capo d'Orlando"
        population: 12710
        timezone: Europe/Rome
      - 
        alternate_names: 
          - Capizzi
        ascii_name: Capizzi
        geonamesid: 2525387
        latitude: 37.84785
        longitude: 14.47817
        name: Capizzi
        names_en: 
          - Capizzi
        names_es: ~
        population: 3564
        timezone: Europe/Rome
      - 
        alternate_names: 
          - Capaci
        ascii_name: Capaci
        geonamesid: 2525392
        latitude: 38.17107
        longitude: 13.2393
        name: Capaci
        names_en: 
          - Capaci
        names_es: ~
        population: 10164
        timezone: Europe/Rome
      - 
        alternate_names: 
          - Canicattini
          - "Canicattini Bagni"
          - カニカッティーニ・バーニ
        ascii_name: "Canicattini Bagni"
        geonamesid: 2525404
        latitude: 37.03294
        longitude: 15.06339
        name: "Canicattini Bagni"
        names_en: 
          - "Canicattini Bagni"
        names_es: ~
        population: 7519
        timezone: Europe/Rome
      - 
        alternate_names: 
          - Canicatti
          - Canicattì
        ascii_name: Canicatti
        geonamesid: 2525405
        latitude: 37.35894
        longitude: 13.85036
        name: Canicattì
        names_en: 
          - Canicattì
        names_es: ~
        population: 31713
        timezone: Europe/Rome
      - 
        alternate_names: 
          - Camporeale
          - Campuriali
        ascii_name: Camporeale
        geonamesid: 2525415
        latitude: 37.89714
        longitude: 13.09384
        name: Camporeale
        names_en: 
          - Camporeale
        names_es: ~
        population: 3716
        timezone: Europe/Rome
      - 
        alternate_names: 
          - Campofranco
          - Campufrancu
        ascii_name: Campofranco
        geonamesid: 2525421
        latitude: 37.51114
        longitude: 13.71256
        name: Campofranco
        names_en: 
          - Campofranco
        names_es: 
          - Campofranco
        population: 3632
        timezone: Europe/Rome
      - 
        alternate_names: 
          - Campofiorito
          - Campuciurutu
        ascii_name: Campofiorito
        geonamesid: 2525422
        latitude: 37.75374
        longitude: 13.26875
        name: Campofiorito
        names_en: 
          - Campofiorito
        names_es: ~
        population: 1401
        timezone: Europe/Rome
      - 
        alternate_names: 
          - Campofelice
          - "Campofelice Roccella"
