--- 
geonamesid: 4030945
iso: KI
name: Kiribati
names_en: 
  - Kiribati
names_es: 
  - Kiribati
regions: 
  - 
    ascii_name: "Gilbert Islands"
    cities: 
      - 
        alternate_names: 
          - Teaoraereka
          - Teaoraereke
          - "Teaoraereke Mission"
        ascii_name: "Teaoraereke Village"
        geonamesid: 2110070
        latitude: 1.33309
        longitude: 173.01162
        name: "Teaoraereke Village"
        names_en: ~
        names_es: ~
        population: 3939
        timezone: Pacific/Tarawa
      - 
        alternate_names: ~
        ascii_name: "Rawannawi Village"
        geonamesid: 2110131
        latitude: 2.05379
        longitude: 173.26354
        name: "Rawannawi Village"
        names_en: ~
        names_es: ~
        population: 1075
        timezone: Pacific/Tarawa
      - 
        alternate_names: 
          - Butaritari
          - "New Butaritari"
        ascii_name: "Butaritari Villages"
        geonamesid: 2110227
        latitude: 3.07071
        longitude: 172.79022
        name: "Butaritari Villages"
        names_en: ~
        names_es: ~
        population: 1160
        timezone: Pacific/Tarawa
      - 
        alternate_names: ~
        ascii_name: "Buota Village"
        geonamesid: 2110229
        latitude: 1.39078
        longitude: 173.13082
        name: "Buota Village"
        names_en: ~
        names_es: ~
        population: 1373
        timezone: Pacific/Tarawa
      - 
        alternate_names: ~
        ascii_name: "Betio Village"
        geonamesid: 2110248
        latitude: 1.35797
        longitude: 172.92105
        name: "Betio Village"
        names_en: ~
        names_es: ~
        population: 12509
        timezone: Pacific/Tarawa
      - 
        alternate_names: 
          - Banraeaba
          - Banreaba
        ascii_name: "Banraeaba Village"
        geonamesid: 2110254
        latitude: 1.3454
        longitude: 173.03464
        name: "Banraeaba Village"
        names_en: ~
        names_es: ~
        population: 1789
        timezone: Pacific/Tarawa
      - 
        alternate_names: 
          - Bajriki
          - "South Tarawa"
          - Tarawa
          - Tarawa-Sud
        ascii_name: Tarawa
        geonamesid: 2110257
        latitude: 1.3278
        longitude: 172.97696
        name: Tarawa
        names_en: 
          - "South Tarawa"
          - Tarawa
        names_es: ~
        population: 40311
        timezone: Pacific/Tarawa
      - 
        alternate_names: ~
        ascii_name: "Makin Village"
        geonamesid: 7576909
        latitude: 3.3644
        longitude: 172.98352
        name: "Makin Village"
        names_en: ~
        names_es: ~
        population: 1834
        timezone: Pacific/Tarawa
      - 
        alternate_names: ~
        ascii_name: "Bairiki Village"
        geonamesid: 7601762
        latitude: 1.32924
        longitude: 172.97522
        name: "Bairiki Village"
        names_en: ~
        names_es: ~
        population: 2766
        timezone: Pacific/Tarawa
      - 
        alternate_names: ~
        ascii_name: "Ambo Village"
        geonamesid: 7601765
        latitude: 1.35317
        longitude: 173.04259
        name: "Ambo Village"
        names_en: ~
        names_es: ~
        population: 1688
        timezone: Pacific/Tarawa
      - 
        alternate_names: ~
        ascii_name: "Bonriki Village"
        geonamesid: 7601768
        latitude: 1.38081
        longitude: 173.13887
        name: "Bonriki Village"
        names_en: ~
        names_es: ~
        population: 2119
        timezone: Pacific/Tarawa
      - 
        alternate_names: ~
        ascii_name: "Temaiku Village"
        geonamesid: 7601770
        latitude: 1.36292
        longitude: 173.16226
        name: "Temaiku Village"
        names_en: ~
        names_es: ~
        population: 2011
        timezone: Pacific/Tarawa
      - 
        alternate_names: 
          - Causeway
        ascii_name: "Nawerewere Village"
        geonamesid: 7601771
        latitude: 1.36362
        longitude: 173.13935
        name: "Nawerewere Village"
        names_en: ~
        names_es: ~
        population: 1780
        timezone: Pacific/Tarawa
      - 
        alternate_names: ~
        ascii_name: "Bikenibeu Village"
        geonamesid: 7601774
        latitude: 1.3673
        longitude: 173.12415
        name: "Bikenibeu Village"
        names_en: ~
        names_es: ~
        population: 6170
        timezone: Pacific/Tarawa
      - 
        alternate_names: ~
        ascii_name: "Eita Village"
        geonamesid: 7601776
        latitude: 1.36154
        longitude: 173.08113
        name: "Eita Village"
        names_en: ~
        names_es: ~
        population: 2299
        timezone: Pacific/Tarawa
    geonamesid: 2110215
    name: "Gilbert Islands"
    names_en: 
      - "Gilbert Islands"
    names_es: ~
  - 
    ascii_name: "Line Islands"
    cities: 
      - 
        alternate_names: 
          - London
        ascii_name: "London Village"
        geonamesid: 4030939
        latitude: 1.98487
        longitude: -157.47502
        name: "London Village"
        names_en: ~
        names_es: ~
        population: 1829
        timezone: Pacific/Kiritimati
      - 
        alternate_names: ~
        ascii_name: "Tabwakea Village"
        geonamesid: 7521902
        latitude: 2.01643
        longitude: -157.48773
        name: "Tabwakea Village"
        names_en: ~
        names_es: ~
        population: 1881
        timezone: Pacific/Kiritimati
      - 
        alternate_names: ~
        ascii_name: "Banana Village"
        geonamesid: 7521903
        latitude: 1.98329
        longitude: -157.36526
        name: "Banana Village"
        names_en: ~
        names_es: ~
        population: 1170
        timezone: ~
    geonamesid: 4030940
    name: "Line Islands"
    names_en: 
      - "Line Islands"
    names_es: ~
  - 
    ascii_name: "Phoenix Islands"
    cities: []
    geonamesid: 7521379
    name: "Phoenix Islands"
    names_en: ~
    names_es: ~
