--- 
geonamesid: 932692
iso: LS
name: Lesotho
names_en: 
  - Lesotho
names_es: 
  - Lesotho
  - Lesoto
regions: 
  - 
    ascii_name: Thaba-Tseka
    cities: 
      - 
        alternate_names: 
          - Taba-Ceka
          - Thaba-Tseka
          - Таба-Цека
        ascii_name: Thaba-Tseka
        geonamesid: 1106835
        latitude: -29.52204
        longitude: 28.6084
        name: Thaba-Tseka
        names_en: ~
        names_es: ~
        population: 5423
        timezone: Africa/Maseru
    geonamesid: 932011
    name: Thaba-Tseka
    names_en: 
      - "Thaba-Tseka District"
      - Thaba-Tseka
    names_es: 
      - "Distrito de Thaba-Tseka"
  - 
    ascii_name: Quthing
    cities: 
      - 
        alternate_names: 
          - Cguting
          - Moyeni
          - Quthing
          - Цгутинг
        ascii_name: Quthing
        geonamesid: 932183
        latitude: -30.40001
        longitude: 27.70027
        name: Quthing
        names_en: 
          - Quthing
        names_es: ~
        population: 24130
        timezone: Africa/Maseru
    geonamesid: 932184
    name: Quthing
    names_en: 
      - "Quthing District"
      - Quthing
    names_es: 
      - "Distrito de Quthing"
  - 
    ascii_name: "Qacha's Nek District"
    cities: 
      - 
        alternate_names: 
          - "Qacha's Neck"
          - "Qacha's Nek"
          - "Qacha's Nek Residency"
          - "Qachas Nek Camp"
        ascii_name: "Qacha's Nek"
        geonamesid: 932218
        latitude: -30.11537
        longitude: 28.68936
        name: "Qacha’s Nek"
        names_en: 
          - "Qacha's Nek"
        names_es: ~
        population: 25573
        timezone: Africa/Maseru
    geonamesid: 932219
    name: "Qachaʼs Nek"
    names_en: ~
    names_es: ~
  - 
    ascii_name: "Mokhotlong District"
    cities: 
      - 
        alternate_names: 
          - Mokhotlong
          - Мохотлонг
        ascii_name: Mokhotlong
        geonamesid: 932416
        latitude: -29.28939
        longitude: 29.06751
        name: Mokhotlong
        names_en: ~
        names_es: ~
        population: 8809
        timezone: Africa/Maseru
    geonamesid: 932418
    name: Mokhotlong
    names_en: ~
    names_es: ~
  - 
    ascii_name: "Mohale's Hoek District"
    cities: 
      - 
        alternate_names: 
          - "Mohale's Hoek"
          - "Mohale’s Hoek"
        ascii_name: "Mohale's Hoek"
        geonamesid: 932438
        latitude: -30.15137
        longitude: 27.47691
        name: "Mohale’s Hoek"
        names_en: 
          - "Mohale's Hoek"
        names_es: ~
        population: 28310
        timezone: Africa/Maseru
    geonamesid: 932439
    name: "Mohaleʼs Hoek"
    names_en: ~
    names_es: ~
  - 
    ascii_name: "Maseru District"
    cities: 
      - 
        alternate_names: 
          - Maserou
          - Maseru
          - "ma sai lu"
          - "ma se ru"
        ascii_name: Maseru
        geonamesid: 932505
        latitude: -29.31667
        longitude: 27.48333
        name: Maseru
        names_en: 
          - Maseru
        names_es: 
          - Maseru
        population: 118355
        timezone: Africa/Maseru
    geonamesid: 932506
    name: Maseru
    names_en: ~
    names_es: ~
  - 
    ascii_name: "Mafeteng District"
    cities: 
      - 
        alternate_names: 
          - Mafeteng
        ascii_name: Mafeteng
        geonamesid: 932614
        latitude: -29.823
        longitude: 27.23744
        name: Mafeteng
        names_en: 
          - Mafeteng
        names_es: ~
        population: 57059
        timezone: Africa/Maseru
    geonamesid: 932615
    name: Mafeteng
    names_en: ~
    names_es: ~
  - 
    ascii_name: Leribe
    cities: 
      - 
        alternate_names: ~
        ascii_name: Maputsoe
        geonamesid: 932521
        latitude: -28.88333
        longitude: 27.9
        name: Maputsoe
        names_en: ~
        names_es: ~
        population: 32117
        timezone: Africa/Maseru
      - 
        alternate_names: 
          - Hlotse
          - Leribe
          - Лерибе
        ascii_name: Leribe
        geonamesid: 932698
        latitude: -28.87185
        longitude: 28.04501
        name: Leribe
        names_en: 
          - Hlotse
        names_es: ~
        population: 47675
        timezone: Africa/Maseru
    geonamesid: 932700
    name: Leribe
    names_en: 
      - "Leribe District"
      - Leribe
    names_es: 
      - "Distrito de Leribe"
  - 
    ascii_name: Butha-Buthe
    cities: 
      - 
        alternate_names: 
          - Buta-Buteh
          - Butha-Buthe
          - Бута-Бутэ
        ascii_name: Butha-Buthe
        geonamesid: 932886
        latitude: -28.76659
        longitude: 28.24936
        name: Butha-Buthe
        names_en: 
          - Butha-Buthe
        names_es: ~
        population: 16330
        timezone: Africa/Maseru
    geonamesid: 932888
    name: Butha-Buthe
    names_en: 
      - "Butha-Buthe District"
      - Butha-Buthe
    names_es: 
      - "Distrito de Butha-Buthe"
  - 
    ascii_name: Berea
    cities: 
      - 
        alternate_names: 
          - Teyateyaneng
        ascii_name: Teyateyaneng
        geonamesid: 932035
        latitude: -29.14719
        longitude: 27.74895
        name: Teyateyaneng
        names_en: ~
        names_es: ~
        population: 5115
        timezone: Africa/Maseru
    geonamesid: 932932
    name: Berea
    names_en: 
      - "Berea District"
      - Berea
    names_es: 
      - "Distrito de Berea"
