--- 
geonamesid: 3570311
iso: MQ
name: Martinique
names_en: 
  - Martinique
names_es: 
  - Martinica
regions: 
  - 
    ascii_name: Martinique
    cities: 
      - 
        alternate_names: 
          - Saint-Pierre
        ascii_name: Saint-Pierre
        geonamesid: 3569907
        latitude: 14.74383
        longitude: -61.17533
        name: Saint-Pierre
        names_en: ~
        names_es: ~
        population: 4125
        timezone: America/Martinique
      - 
        alternate_names: 
          - Saint-Joseph
        ascii_name: Saint-Joseph
        geonamesid: 3569915
        latitude: 14.66792
        longitude: -61.04558
        name: Saint-Joseph
        names_en: ~
        names_es: ~
        population: 16974
        timezone: America/Martinique
      - 
        alternate_names: 
          - Sainte-Marie
          - Sent-Mari
          - Сент-Мари
        ascii_name: Sainte-Marie
        geonamesid: 3569926
        latitude: 14.78392
        longitude: -60.99274
        name: Sainte-Marie
        names_en: ~
        names_es: ~
        population: 20380
        timezone: America/Martinique
      - 
        alternate_names: 
          - Sainte-Luce
        ascii_name: Sainte-Luce
        geonamesid: 3569928
        latitude: 14.46733
        longitude: -60.92708
        name: Sainte-Luce
        names_en: ~
        names_es: ~
        population: 9196
        timezone: America/Martinique
      - 
        alternate_names: 
          - Riviere-Pilote
          - Rivière-Pilote
        ascii_name: Riviere-Pilote
        geonamesid: 3569970
        latitude: 14.47746
        longitude: -60.9035
        name: Rivière-Pilote
        names_en: ~
        names_es: ~
        population: 13359
        timezone: America/Martinique
      - 
        alternate_names: 
          - "Petite Riviere Salee"
          - "Petite Rivière Salée"
          - "Quartier Petite Riviere Salee"
          - "Quartier Petite Rivière Salée"
        ascii_name: "Petite Riviere Salee"
        geonamesid: 3570166
        latitude: 14.75
        longitude: -60.96667
        name: "Petite Rivière Salée"
        names_en: ~
        names_es: ~
        population: 15152
        timezone: America/Martinique
      - 
        alternate_names: 
          - "Le Vauclin"
          - Vauclin
        ascii_name: "Le Vauclin"
        geonamesid: 3570392
        latitude: 14.54524
        longitude: -60.83883
        name: "Le Vauclin"
        names_en: ~
        names_es: ~
        population: 7812
        timezone: America/Martinique
      - 
        alternate_names: 
          - "Les Trois-Ilets"
          - "Les Trois-Îlets"
          - Trois-Ilets
          - Trois-Îlets
        ascii_name: "Les Trois-Ilets"
        geonamesid: 3570396
        latitude: 14.539
        longitude: -61.03608
        name: "Les Trois-Îlets"
        names_en: ~
        names_es: ~
        population: 5657
        timezone: America/Martinique
      - 
        alternate_names: 
          - "Saint Esprit"
        ascii_name: Saint-Esprit
        geonamesid: 3570410
        latitude: 14.55
        longitude: -60.93333
        name: Saint-Esprit
        names_en: ~
        names_es: ~
        population: 8508
        timezone: America/Martinique
      - 
        alternate_names: 
          - Robert
        ascii_name: "Le Robert"
        geonamesid: 3570412
        latitude: 14.67751
        longitude: -60.94228
        name: "Le Robert"
        names_en: ~
        names_es: ~
        population: 23814
        timezone: America/Martinique
      - 
        alternate_names: 
          - "Morne Rouge"
        ascii_name: "Le Morne-Rouge"
        geonamesid: 3570423
        latitude: 14.76667
        longitude: -61.13333
        name: "Le Morne-Rouge"
        names_en: ~
        names_es: ~
        population: 5469
        timezone: America/Martinique
      - 
        alternate_names: 
          - "Le Marin"
          - Marin
        ascii_name: "Le Marin"
        geonamesid: 3570426
        latitude: 14.47212
        longitude: -60.86973
        name: "Le Marin"
        names_en: ~
        names_es: ~
        population: 7943
        timezone: America/Martinique
      - 
        alternate_names: 
          - "Grande Anse"
          - "Le Lorrain"
          - Lorrain
        ascii_name: "Le Lorrain"
        geonamesid: 3570427
        latitude: 14.83292
        longitude: -61.05667
        name: "Le Lorrain"
        names_en: ~
        names_es: ~
        population: 8341
        timezone: America/Martinique
      - 
        alternate_names: 
          - Lamentin
          - "Le Lamentin"
        ascii_name: "Le Lamentin"
        geonamesid: 3570428
        latitude: 14.608
        longitude: -61.00933
        name: "Le Lamentin"
        names_en: ~
        names_es: ~
        population: 39229
        timezone: America/Martinique
      - 
        alternate_names: 
          - Francois
          - François
          - "Le Francois"
          - "Le François"
        ascii_name: "Le Francois"
        geonamesid: 3570429
        latitude: 14.61557
        longitude: -60.90308
        name: "Le François"
        names_en: ~
        names_es: ~
        population: 19682
        timezone: America/Martinique
      - 
        alternate_names: 
          - "La Trinite"
          - "La Trinité"
          - Trinite
          - Trinité
        ascii_name: "La Trinite"
        geonamesid: 3570446
        latitude: 14.73758
        longitude: -60.96286
        name: "La Trinité"
        names_en: ~
        names_es: ~
        population: 15040
        timezone: America/Martinique
      - 
        alternate_names: ~
        ascii_name: "Le Gros-Morne"
        geonamesid: 3570584
        latitude: 14.7
        longitude: -61.0
        name: "Le Gros-Morne"
        names_en: ~
        names_es: ~
        population: 11025
        timezone: America/Martinique
      - 
        alternate_names: 
          - "For de Fransas"
          - "Fort Royal"
          - Fort-de-France
          - Fort-de-Frans
        ascii_name: Fort-de-France
        geonamesid: 3570675
        latitude: 14.60892
        longitude: -61.07334
        name: Fort-de-France
        names_en: 
          - Fort-de-France
        names_es: 
          - Fort-de-France
        population: 89995
        timezone: America/Martinique
      - 
        alternate_names: 
          - Ducos
        ascii_name: Ducos
        geonamesid: 3570785
        latitude: 14.57529
        longitude: -60.97453
        name: Ducos
        names_en: ~
        names_es: ~
        population: 17394
        timezone: America/Martinique
      - 
        alternate_names: 
          - Basse-Pointe
        ascii_name: Basse-Pointe
        geonamesid: 3571097
        latitude: 14.86954
        longitude: -61.11504
        name: Basse-Pointe
        names_en: ~
        names_es: ~
        population: 4037
        timezone: America/Martinique
    geonamesid: 6690603
    name: Martinique
    names_en: ~
    names_es: ~
