--- 
geonamesid: 934292
iso: MU
name: Mauritius
names_en: 
  - Mauritius
names_es: 
  - Mauricio
  - "República de Mauricio"
regions: 
  - 
    ascii_name: "Agalega Islands"
    cities: []
    geonamesid: 448254
    name: "Agalega Islands"
    names_en: ~
    names_es: ~
  - 
    ascii_name: "Savanne District"
    cities: 
      - 
        alternate_names: ~
        ascii_name: Surinam
        geonamesid: 933988
        latitude: -20.50972
        longitude: 57.50528
        name: Surinam
        names_en: ~
        names_es: ~
        population: 10621
        timezone: Indian/Mauritius
      - 
        alternate_names: 
          - "Port Souillac"
          - Soullac
        ascii_name: Souillac
        geonamesid: 933995
        latitude: -20.51667
        longitude: 57.51667
        name: Souillac
        names_en: ~
        names_es: ~
        population: 4392
        timezone: Indian/Mauritius
      - 
        alternate_names: 
          - "Saint Aubin"
          - "Union Saint Aubin"
        ascii_name: "Saint Aubin"
        geonamesid: 934056
        latitude: -20.49167
        longitude: 57.54139
        name: "Saint Aubin"
        names_en: ~
        names_es: ~
        population: 1659
        timezone: Indian/Mauritius
      - 
        alternate_names: 
          - "River des Anguilles"
          - "Riviere des Anguilles"
          - "Rivière des Anguilles"
        ascii_name: "Riviere des Anguilles"
        geonamesid: 934095
        latitude: -20.48528
        longitude: 57.55083
        name: "Rivière des Anguilles"
        names_en: ~
        names_es: ~
        population: 9927
        timezone: Indian/Mauritius
      - 
        alternate_names: ~
        ascii_name: "Grand Bois"
        geonamesid: 934485
        latitude: -20.41889
        longitude: 57.54417
        name: "Grand Bois"
        names_en: ~
        names_es: ~
        population: 7804
        timezone: Indian/Mauritius
      - 
        alternate_names: ~
        ascii_name: "Chemin Grenier"
        geonamesid: 934614
        latitude: -20.48722
        longitude: 57.46556
        name: "Chemin Grenier"
        names_en: ~
        names_es: ~
        population: 12457
        timezone: Indian/Mauritius
      - 
        alternate_names: ~
        ascii_name: Chamouny
        geonamesid: 934624
        latitude: -20.48222
        longitude: 57.46611
        name: Chamouny
        names_en: ~
        names_es: ~
        population: 4913
        timezone: Indian/Mauritius
      - 
        alternate_names: ~
        ascii_name: "Camp Diable"
        geonamesid: 934660
        latitude: -20.46278
        longitude: 57.57889
        name: "Camp Diable"
        names_en: ~
        names_es: ~
        population: 5082
        timezone: Indian/Mauritius
    geonamesid: 934017
    name: Savanne
    names_en: ~
    names_es: ~
  - 
    ascii_name: "Riviere du Rempart District"
    cities: 
      - 
        alternate_names: ~
        ascii_name: "The Vale"
        geonamesid: 933970
        latitude: -20.02833
        longitude: 57.58778
        name: "The Vale"
        names_en: ~
        names_es: ~
        population: 3707
        timezone: Indian/Mauritius
      - 
        alternate_names: ~
        ascii_name: "Roche Terre"
        geonamesid: 934076
        latitude: -20.01861
        longitude: 57.64472
        name: "Roche Terre"
        names_en: ~
        names_es: ~
        population: 3199
        timezone: Indian/Mauritius
      - 
        alternate_names: 
          - "Roche Noire"
          - "Roche Noires"
          - "Roches Noire"
          - "Roches Noires"
        ascii_name: "Roches Noire"
        geonamesid: 934085
        latitude: -20.11111
        longitude: 57.71222
        name: "Roches Noire"
        names_en: ~
        names_es: ~
        population: 5733
        timezone: Indian/Mauritius
      - 
        alternate_names: ~
        ascii_name: "Riviere du Rempart"
        geonamesid: 934091
        latitude: -20.10306
        longitude: 57.68472
        name: "Rivière du Rempart"
        names_en: ~
        names_es: ~
        population: 11675
        timezone: Indian/Mauritius
      - 
        alternate_names: ~
        ascii_name: "Petit Raffray"
        geonamesid: 934184
        latitude: -20.01333
        longitude: 57.61194
        name: "Petit Raffray"
        names_en: ~
        names_es: ~
        population: 9117
        timezone: Indian/Mauritius
      - 
        alternate_names: 
          - "Mont Piton"
          - Piton
        ascii_name: Piton
        geonamesid: 934255
        latitude: -20.09028
        longitude: 57.63028
        name: Piton
        names_en: ~
        names_es: ~
        population: 5909
        timezone: Indian/Mauritius
      - 
        alternate_names: 
          - "Grand Gaube"
          - "Grande Gaube"
        ascii_name: "Grand Gaube"
        geonamesid: 934479
        latitude: -20.00639
        longitude: 57.66083
        name: "Grand Gaube"
        names_en: ~
        names_es: ~
        population: 7156
        timezone: Indian/Mauritius
      - 
        alternate_names: 
          - "Grand Baie"
          - "Grande Baie"
        ascii_name: "Grand Baie"
        geonamesid: 934482
        latitude: -20.01361
        longitude: 57.57389
        name: "Grand Baie"
        names_en: ~
        names_es: ~
        population: 11512
        timezone: Indian/Mauritius
      - 
        alternate_names: ~
        ascii_name: Goodlands
        geonamesid: 934488
        latitude: -20.035
        longitude: 57.64306
        name: Goodlands
        names_en: ~
        names_es: ~
        population: 20910
        timezone: Indian/Mauritius
      - 
        alternate_names: 
          - Esperance
          - "Esperance Trebuchet"
          - Espérance
          - "Espérance Trébuchet"
        ascii_name: "Esperance Trebuchet"
        geonamesid: 934533
        latitude: -20.06972
        longitude: 57.64194
        name: "Espérance Trébuchet"
        names_en: ~
        names_es: ~
        population: 2323
        timezone: Indian/Mauritius
      - 
        alternate_names: ~
        ascii_name: "Cap Malheureux"
        geonamesid: 934649
        latitude: -19.98417
        longitude: 57.61417
        name: "Cap Malheureux"
        names_en: ~
        names_es: ~
        population: 4803
        timezone: Indian/Mauritius
      - 
        alternate_names: ~
        ascii_name: Cottage
        geonamesid: 1106596
        latitude: -20.05972
        longitude: 57.62917
        name: Cottage
        names_en: ~
        names_es: ~
        population: 3646
        timezone: Indian/Mauritius
      - 
        alternate_names: ~
        ascii_name: Amaury
        geonamesid: 1106630
        latitude: -20.13083
        longitude: 57.65917
        name: Amaury
        names_en: ~
        names_es: ~
        population: 2912
        timezone: Indian/Mauritius
      - 
        alternate_names: ~
        ascii_name: "Plaines des Roches"
        geonamesid: 1106631
        latitude: -20.11167
        longitude: 57.69083
        name: "Plaines des Roches"
        names_en: ~
        names_es: ~
        population: 4218
        timezone: Indian/Mauritius
      - 
        alternate_names: 
          - Mapou
        ascii_name: Mapou
        geonamesid: 1106771
        latitude: -20.07583
        longitude: 57.60139
        name: Mapou
        names_en: ~
        names_es: ~
        population: 1288
        timezone: Indian/Mauritius
    geonamesid: 934090
    name: "Rivière du Rempart"
    names_en: ~
    names_es: ~
  - 
    ascii_name: "Port Louis District"
    cities: 
      - 
        alternate_names: 
          - "Por Loui"
          - "Port Louis"
          - "Port Louis Town"
          - "Port Luis Mauricijus"
        ascii_name: "Port Louis"
        geonamesid: 934154
        latitude: -20.16194
        longitude: 57.49889
        name: "Port Louis"
        names_en: 
          - "Port Louis"
        names_es: 
          - "Port Louis"
        population: 155226
        timezone: Indian/Mauritius
    geonamesid: 934153
    name: "Port Louis"
    names_en: ~
    names_es: ~
  - 
    ascii_name: "Plaines Wilhems District"
    cities: 
      - 
        alternate_names: 
          - Vacoa
          - Vacoas
        ascii_name: Vacoas
        geonamesid: 933945
        latitude: -20.29806
        longitude: 57.47833
        name: Vacoas
        names_en: ~
        names_es: ~
        population: 110000
        timezone: Indian/Mauritius
      - 
        alternate_names: 
          - "Quatre Bornes"
        ascii_name: "Quatre Bornes"
        geonamesid: 934131
        latitude: -20.26444
        longitude: 57.47194
        name: "Quatre Bornes"
        names_en: 
          - "Quatre Bornes"
        names_es: ~
        population: 80961
        timezone: Indian/Mauritius
      - 
        alternate_names: ~
        ascii_name: Midlands
        geonamesid: 934282
        latitude: -20.3325
        longitude: 57.55833
        name: Midlands
        names_en: ~
        names_es: ~
        population: 4546
        timezone: Indian/Mauritius
      - 
        alternate_names: 
          - Curepipe
          - Kurepipe
          - Курепипе
        ascii_name: Curepipe
        geonamesid: 934570
        latitude: -20.31472
        longitude: 57.52028
        name: Curepipe
        names_en: 
          - Curepipe
        names_es: ~
        population: 84200
        timezone: Indian/Mauritius
    geonamesid: 934166
    name: "Plaines Wilhems"
    names_en: ~
    names_es: ~
  - 
    ascii_name: "Pamplemousses District"
    cities: 
      - 
        alternate_names: 
          - Triolet
          - Триолет
        ascii_name: Triolet
        geonamesid: 933959
        latitude: -20.05472
        longitude: 57.54528
        name: Triolet
        names_en: ~
        names_es: ~
        population: 23269
        timezone: Indian/Mauritius
      - 
        alternate_names: ~
        ascii_name: "Terre Rouge"
        geonamesid: 933974
        latitude: -20.12611
        longitude: 57.52444
        name: "Terre Rouge"
        names_en: ~
        names_es: ~
        population: 9566
        timezone: Indian/Mauritius
      - 
        alternate_names: 
          - "Morcellemont Saint Andre"
          - "Morcellemont Saint André"
          - Saint-Andre
          - Saint-André
        ascii_name: "Morcellemont Saint Andre"
        geonamesid: 934058
        latitude: -20.07306
        longitude: 57.55806
        name: "Morcellemont Saint André"
        names_en: ~
        names_es: ~
        population: 6150
        timezone: Indian/Mauritius
      - 
        alternate_names: 
          - "Plaine des Papayes"
          - "Plaines des Papayes"
        ascii_name: "Plaine des Papayes"
        geonamesid: 934170
        latitude: -20.065
        longitude: 57.5725
        name: "Plaine des Papayes"
        names_en: ~
        names_es: ~
        population: 7617
        timezone: Indian/Mauritius
      - 
        alternate_names: 
          - Pamplemousses
          - "Pamplemousses Village"
        ascii_name: Pamplemousses
        geonamesid: 934213
        latitude: -20.10389
        longitude: 57.57028
        name: Pamplemousses
        names_en: ~
        names_es: ~
        population: 8836
        timezone: Indian/Mauritius
      - 
        alternate_names: 
          - "Notre Dame"
          - "Notre Dame Station"
        ascii_name: "Notre Dame"
        geonamesid: 934232
        latitude: -20.14056
        longitude: 57.55306
        name: "Notre Dame"
        names_en: ~
        names_es: ~
        population: 3959
        timezone: Indian/Mauritius
      - 
        alternate_names: 
          - "Long Mountain"
          - "Mont Longue"
        ascii_name: "Long Mountain"
        geonamesid: 934333
        latitude: -20.14306
        longitude: 57.56222
        name: "Long Mountain"
        names_en: ~
        names_es: ~
        population: 7775
        timezone: Indian/Mauritius
      - 
        alternate_names: 
          - "Fond du Sac"
        ascii_name: "Fond du Sac"
        geonamesid: 934513
        latitude: -20.04306
        longitude: 57.57861
        name: "Fond du Sac"
        names_en: ~
        names_es: ~
        population: 5796
        timezone: Indian/Mauritius
      - 
        alternate_names: ~
        ascii_name: "Creve Coeur"
        geonamesid: 934573
        latitude: -20.19111
        longitude: 57.55722
        name: "Crève Coeur"
        names_en: ~
        names_es: ~
        population: 3097
        timezone: Indian/Mauritius
      - 
        alternate_names: ~
        ascii_name: "Grande Pointe aux Piments"
        geonamesid: 1106614
        latitude: -20.06278
        longitude: 57.51306
        name: "Grande Pointe aux Piments"
        names_en: ~
        names_es: ~
        population: 7556
        timezone: Indian/Mauritius
      - 
        alternate_names: ~
        ascii_name: Congomah
        geonamesid: 1106621
        latitude: -20.14889
        longitude: 57.59083
        name: Congomah
        names_en: ~
        names_es: ~
        population: 1956
        timezone: Indian/Mauritius
      - 
        alternate_names: ~
        ascii_name: "Le Hochet"
        geonamesid: 1106809
        latitude: -20.135
        longitude: 57.52111
        name: "Le Hochet"
        names_en: ~
        names_es: ~
        population: 15197
        timezone: Indian/Mauritius
      - 
        alternate_names: ~
        ascii_name: Calebasses
        geonamesid: 1106811
        latitude: -20.11167
        longitude: 57.55389
        name: Calebasses
        names_en: ~
        names_es: ~
        population: 4648
        timezone: Indian/Mauritius
      - 
        alternate_names: ~
        ascii_name: Arsenal
        geonamesid: 1106813
        latitude: -20.10556
        longitude: 57.53528
        name: Arsenal
        names_en: ~
        names_es: ~
        population: 2599
        timezone: Indian/Mauritius
    geonamesid: 934212
    name: Pamplemousses
    names_en: ~
    names_es: ~
  - 
    ascii_name: "Moka District"
    cities: 
      - 
        alternate_names: 
          - Verdun
          - "Verdun Station"
        ascii_name: Verdun
        geonamesid: 933933
        latitude: -20.22833
        longitude: 57.54389
        name: Verdun
        names_en: ~
        names_es: ~
        population: 2208
        timezone: Indian/Mauritius
      - 
        alternate_names: 
          - "Saint Pierre"
          - "Saint Pierre Village"
        ascii_name: "Saint Pierre"
        geonamesid: 934032
        latitude: -20.2175
        longitude: 57.52083
        name: "Saint Pierre"
        names_en: ~
        names_es: ~
        population: 16414
        timezone: Indian/Mauritius
      - 
        alternate_names: 
          - "Quartier Militaire"
        ascii_name: "Quartier Militaire"
        geonamesid: 934133
        latitude: -20.24389
        longitude: 57.58917
        name: "Quartier Militaire"
        names_en: ~
        names_es: ~
        population: 6424
        timezone: Indian/Mauritius
      - 
        alternate_names: ~
        ascii_name: Providence
        geonamesid: 934138
        latitude: -20.24472
        longitude: 57.61222
        name: Providence
        names_en: ~
        names_es: ~
        population: 3126
        timezone: Indian/Mauritius
      - 
        alternate_names: 
          - Pailles
          - "Pailles Village"
          - mauvilac
        ascii_name: Pailles
        geonamesid: 934219
        latitude: -20.18556
        longitude: 57.47722
        name: Pailles
        names_en: ~
        names_es: ~
        population: 10622
        timezone: Indian/Mauritius
      - 
        alternate_names: 
          - Moka
          - "Moka Village"
        ascii_name: Moka
        geonamesid: 934277
        latitude: -20.21889
        longitude: 57.49583
        name: Moka
        names_en: ~
        names_es: ~
        population: 8842
        timezone: Indian/Mauritius
      - 
        alternate_names: ~
        ascii_name: Melrose
        geonamesid: 934288
        latitude: -20.26972
        longitude: 57.63194
        name: Melrose
        names_en: ~
        names_es: ~
        population: 2002
        timezone: Indian/Mauritius
      - 
        alternate_names: 
          - Dagotiere
          - Dagotière
          - "La Dagotiere"
          - "La Dagotière"
        ascii_name: "La Dagotiere"
        geonamesid: 934400
        latitude: -20.24444
        longitude: 57.55417
        name: "La Dagotière"
        names_en: ~
        names_es: ~
        population: 6915
        timezone: Indian/Mauritius
      - 
        alternate_names: 
          - "Camp Thorel"
          - "Camp Thoret"
        ascii_name: "Camp Thorel"
        geonamesid: 934656
        latitude: -20.21472
        longitude: 57.61611
        name: "Camp Thorel"
        names_en: ~
        names_es: ~
        population: 2299
        timezone: Indian/Mauritius
      - 
        alternate_names: ~
        ascii_name: Dubreuil
        geonamesid: 1106788
        latitude: -20.2975
        longitude: 57.595
        name: Dubreuil
        names_en: ~
        names_es: ~
        population: 2726
        timezone: Indian/Mauritius
    geonamesid: 934275
    name: Moka
    names_en: ~
    names_es: ~
  - 
    ascii_name: "Grand Port District"
    cities: 
      - 
        alternate_names: ~
        ascii_name: "Saint Hubert"
        geonamesid: 934047
        latitude: -20.36417
        longitude: 57.63833
        name: "Saint Hubert"
        names_en: ~
        names_es: ~
        population: 4170
        timezone: Indian/Mauritius
      - 
        alternate_names: ~
        ascii_name: "Rose Belle"
        geonamesid: 934072
        latitude: -20.40028
        longitude: 57.59667
        name: "Rose Belle"
        names_en: ~
        names_es: ~
        population: 12619
        timezone: Indian/Mauritius
      - 
        alternate_names: 
          - "Plaine Magnien"
          - "Plaines Magnien"
        ascii_name: "Plaine Magnien"
        geonamesid: 934169
        latitude: -20.42861
        longitude: 57.65306
        name: "Plaine Magnien"
        names_en: ~
        names_es: ~
        population: 10778
        timezone: Indian/Mauritius
      - 
        alternate_names: ~
        ascii_name: "Nouvelle France"
        geonamesid: 934229
        latitude: -20.37056
        longitude: 57.56111
        name: "Nouvelle France"
        names_en: ~
        names_es: ~
        population: 7238
        timezone: Indian/Mauritius
      - 
        alternate_names: 
          - "New Grove"
          - "New Grove Station"
        ascii_name: "New Grove"
        geonamesid: 934240
        latitude: -20.40861
        longitude: 57.61361
        name: "New Grove"
        names_en: ~
        names_es: ~
        population: 9935
        timezone: Indian/Mauritius
      - 
        alternate_names: 
          - Mahebourg
          - Mahébourg
        ascii_name: Mahebourg
        geonamesid: 934322
        latitude: -20.40806
        longitude: 57.7
        name: Mahébourg
        names_en: ~
        names_es: ~
        population: 17042
        timezone: Indian/Mauritius
      - 
        alternate_names: ~
        ascii_name: "Grand Sable"
        geonamesid: 934459
        latitude: -20.31417
        longitude: 57.76444
        name: "Grand Sable"
        names_en: ~
        names_es: ~
        population: 2208
        timezone: Indian/Mauritius
      - 
        alternate_names: ~
        ascii_name: "Bois des Amourettes"
        geonamesid: 934705
        latitude: -20.36306
        longitude: 57.73111
        name: "Bois des Amourettes"
        names_en: ~
        names_es: ~
        population: 1986
        timezone: Indian/Mauritius
      - 
        alternate_names: ~
        ascii_name: "Beau Vallon"
        geonamesid: 934753
        latitude: -20.41889
        longitude: 57.69528
        name: "Beau Vallon"
        names_en: ~
        names_es: ~
        population: 7016
        timezone: Indian/Mauritius
      - 
        alternate_names: ~
        ascii_name: Cluny
        geonamesid: 1106589
        latitude: -20.36694
        longitude: 57.60389
        name: Cluny
        names_en: ~
        names_es: ~
        population: 1629
        timezone: Indian/Mauritius
      - 
        alternate_names: ~
        ascii_name: "Bambous Virieux"
        geonamesid: 1106677
        latitude: -20.34278
        longitude: 57.7575
        name: "Bambous Virieux"
        names_en: ~
        names_es: ~
        population: 1540
        timezone: Indian/Mauritius
    geonamesid: 934466
    name: "Grand Port"
    names_en: ~
    names_es: ~
  - 
    ascii_name: "Flacq District"
    cities: 
      - 
        alternate_names: ~
        ascii_name: Sebastopol
        geonamesid: 934013
        latitude: -20.28889
        longitude: 57.6875
        name: Sebastopol
        names_en: ~
        names_es: ~
        population: 5745
        timezone: Indian/Mauritius
      - 
        alternate_names: 
          - Julien
          - "Saint Julien"
          - "Saint Julien Village"
        ascii_name: "Saint Julien"
        geonamesid: 934043
        latitude: -20.22639
        longitude: 57.63639
        name: "Saint Julien"
        names_en: ~
        names_es: ~
        population: 3188
        timezone: Indian/Mauritius
      - 
        alternate_names: ~
        ascii_name: "Queen Victoria"
        geonamesid: 934126
        latitude: -20.22
        longitude: 57.7075
        name: "Queen Victoria"
        names_en: ~
        names_es: ~
        population: 3025
        timezone: Indian/Mauritius
      - 
        alternate_names: 
          - "La Coterie"
          - "Quatre Soeurs"
          - "Quatre Soeurs Br."
        ascii_name: "Quatre Soeurs"
        geonamesid: 934127
        latitude: -20.29917
        longitude: 57.77056
        name: "Quatre Soeurs"
        names_en: ~
        names_es: ~
        population: 3515
        timezone: Indian/Mauritius
      - 
        alternate_names: 
          - "Post of Flacq"
          - "Poste de Flacq"
        ascii_name: "Poste de Flacq"
        geonamesid: 934149
        latitude: -20.16306
        longitude: 57.73056
        name: "Poste de Flacq"
        names_en: ~
        names_es: ~
        population: 7133
        timezone: Indian/Mauritius
      - 
        alternate_names: 
          - Oliva
          - Olivia
        ascii_name: Olivia
        geonamesid: 934225
        latitude: -20.2975
        longitude: 57.72556
        name: Olivia
        names_en: ~
        names_es: ~
        population: 3980
        timezone: Indian/Mauritius
      - 
        alternate_names: ~
        ascii_name: Lalmatie
        geonamesid: 934390
        latitude: -20.18972
        longitude: 57.66111
        name: Lalmatie
        names_en: ~
        names_es: ~
        population: 10404
        timezone: Indian/Mauritius
      - 
        alternate_names: 
          - "Grand River"
          - "Grand River South East"
          - "Grande Reviere Sud Est"
          - "Grande Riviere Sud Est"
        ascii_name: "Grande Riviere Sud Est"
        geonamesid: 934475
        latitude: -20.28611
        longitude: 57.77583
        name: "Grande Rivière Sud Est"
        names_en: ~
        names_es: ~
        population: 2472
        timezone: Indian/Mauritius
      - 
        alternate_names: ~
        ascii_name: Clemencia
        geonamesid: 934599
        latitude: -20.26389
        longitude: 57.70611
        name: Clémencia
        names_en: ~
        names_es: ~
        population: 1835
        timezone: Indian/Mauritius
      - 
        alternate_names: 
          - "Centre of Flacq"
          - Flacq
        ascii_name: "Centre de Flacq"
        geonamesid: 934631
        latitude: -20.18972
        longitude: 57.71444
        name: "Centre de Flacq"
        names_en: ~
        names_es: ~
        population: 17710
        timezone: Indian/Mauritius
      - 
        alternate_names: 
          - "Camp de Masque"
          - "Camp de Masque Station"
        ascii_name: "Camp de Masque"
        geonamesid: 934661
        latitude: -20.23694
        longitude: 57.66333
        name: "Camp de Masque"
        names_en: ~
        names_es: ~
        population: 2721
        timezone: Indian/Mauritius
      - 
        alternate_names: ~
        ascii_name: "Brisee Verdiere"
        geonamesid: 934677
        latitude: -20.16389
        longitude: 57.64667
        name: "Brisée Verdière"
        names_en: ~
        names_es: ~
        population: 7374
        timezone: Indian/Mauritius
      - 
        alternate_names: ~
        ascii_name: "Bon Accueil"
        geonamesid: 934693
        latitude: -20.17083
        longitude: 57.65639
        name: "Bon Accueil"
        names_en: ~
        names_es: ~
        population: 6553
        timezone: Indian/Mauritius
      - 
        alternate_names: 
          - "Bel Air"
          - "Riviere Seche"
          - "Rivière Sèche"
        ascii_name: "Bel Air"
        geonamesid: 934750
        latitude: -20.25417
        longitude: 57.74528
        name: "Bel Air"
        names_en: ~
        names_es: ~
        population: 17671
        timezone: Indian/Mauritius
      - 
        alternate_names: ~
        ascii_name: Laventure
        geonamesid: 1106584
        latitude: -20.14583
        longitude: 57.67667
        name: Laventure
        names_en: ~
        names_es: ~
        population: 6171
        timezone: Indian/Mauritius
      - 
        alternate_names: ~
        ascii_name: "Mare La Chaux"
        geonamesid: 1106638
        latitude: -20.19806
        longitude: 57.74944
        name: "Mare La Chaux"
        names_en: ~
        names_es: ~
        population: 2058
        timezone: Indian/Mauritius
      - 
        alternate_names: ~
        ascii_name: "Quatre Cocos"
        geonamesid: 1106643
        latitude: -20.20778
        longitude: 57.7625
        name: "Quatre Cocos"
        names_en: ~
        names_es: ~
        population: 5724
        timezone: Indian/Mauritius
      - 
        alternate_names: ~
        ascii_name: "Camp Ithier"
        geonamesid: 1106645
        latitude: -20.21583
        longitude: 57.74556
        name: "Camp Ithier"
        names_en: ~
        names_es: ~
        population: 4401
        timezone: Indian/Mauritius
      - 
        alternate_names: ~
        ascii_name: Ecroignard
        geonamesid: 1106660
        latitude: -20.22611
        longitude: 57.73611
        name: Ecroignard
        names_en: ~
        names_es: ~
        population: 5952
        timezone: Indian/Mauritius
    geonamesid: 934522
    name: Flacq
    names_en: ~
    names_es: ~
  - 
    ascii_name: "Black River District"
    cities: 
      - 
        alternate_names: ~
        ascii_name: Tamarin
        geonamesid: 933982
        latitude: -20.32556
        longitude: 57.37056
        name: Tamarin
        names_en: ~
        names_es: ~
        population: 3764
        timezone: Indian/Mauritius
      - 
        alternate_names: 
          - "Black River"
          - "Grand Riviere Noire"
          - "Grand Rivière Noire"
          - "Grande Riviere Noire"
        ascii_name: "Grande Riviere Noire"
        geonamesid: 934089
        latitude: -20.36028
        longitude: 57.36611
        name: "Grande Rivière Noire"
        names_en: ~
        names_es: ~
        population: 2361
        timezone: Indian/Mauritius
      - 
        alternate_names: ~
        ascii_name: "Petite Riviere"
        geonamesid: 934195
        latitude: -20.18944
        longitude: 57.44528
        name: "Petite Rivière"
        names_en: ~
        names_es: ~
        population: 5331
        timezone: Indian/Mauritius
      - 
        alternate_names: ~
        ascii_name: "Petite Case Noyale"
        geonamesid: 934198
        latitude: -20.39306
        longitude: 57.365
        name: "Petite Case Noyale"
        names_en: ~
        names_es: ~
        population: 1525
        timezone: Indian/Mauritius
      - 
        alternate_names: 
          - "Flic en Flac"
          - Flic-en-Flacq
        ascii_name: "Flic en Flac"
        geonamesid: 934517
        latitude: -20.27417
        longitude: 57.36306
        name: "Flic en Flac"
        names_en: ~
        names_es: ~
        population: 2010
        timezone: Indian/Mauritius
      - 
        alternate_names: ~
        ascii_name: Cascavelle
        geonamesid: 934644
        latitude: -20.28694
        longitude: 57.40722
        name: Cascavelle
        names_en: ~
        names_es: ~
        population: 2613
        timezone: Indian/Mauritius
      - 
        alternate_names: ~
        ascii_name: Albion
        geonamesid: 934812
        latitude: -20.21167
        longitude: 57.40083
        name: Albion
        names_en: ~
        names_es: ~
        population: 3254
        timezone: Indian/Mauritius
      - 
        alternate_names: ~
        ascii_name: "Gros Cailloux"
        geonamesid: 1106763
        latitude: -20.20722
        longitude: 57.43
        name: "Gros Cailloux"
        names_en: ~
        names_es: ~
        population: 3361
        timezone: Indian/Mauritius
    geonamesid: 934718
    name: "Black River"
    names_en: ~
    names_es: ~
  - 
    ascii_name: "Cargados Carajos"
    cities: []
    geonamesid: 1106583
    name: "Cargados Carajos"
    names_en: 
      - "Cargados Carajos"
    names_es: 
      - "Cargados Carajos"
  - 
    ascii_name: Rodrigues
    cities: []
    geonamesid: 1547449
    name: Rodrigues
    names_en: ~
    names_es: ~
