--- 
geonamesid: 2378080
iso: MR
name: Mauritania
names_en: ~
names_es: ~
regions: 
  - 
    ascii_name: "Wilaya du Trarza"
    cities: 
      - 
        alternate_names: 
          - Roco
          - Rosso
        ascii_name: Rosso
        geonamesid: 2376898
        latitude: 16.52004
        longitude: -15.80727
        name: Rosso
        names_en: ~
        names_es: ~
        population: 0
        timezone: Africa/Nouakchott
    geonamesid: 2375742
    name: Trarza
    names_en: ~
    names_es: ~
  - 
    ascii_name: "Wilaya du Tiris Zemmour"
    cities: 
      - 
        alternate_names: 
          - Zoueiratt
          - Zouerat
          - Zouerate
        ascii_name: Zouerate
        geonamesid: 2375558
        latitude: 22.71873
        longitude: -12.45205
        name: Zouérate
        names_en: ~
        names_es: ~
        population: 0
        timezone: Africa/Nouakchott
    geonamesid: 2375989
    name: "Tiris Zemmour"
    names_en: ~
    names_es: ~
  - 
    ascii_name: "Wilaya du Tagant"
    cities: 
      - 
        alternate_names: 
          - "Fort Cappolani"
          - Tidjikdja
          - Tidjikja
        ascii_name: Tidjikja
        geonamesid: 2376193
        latitude: 18.55644
        longitude: -11.42715
        name: Tidjikja
        names_en: ~
        names_es: ~
        population: 6000
        timezone: Africa/Nouakchott
    geonamesid: 2376551
    name: Tagant
    names_en: ~
    names_es: ~
  - 
    ascii_name: "District de Nouakchott"
    cities: 
      - 
        alternate_names: 
          - Naevakjut
          - Nawakszut
          - Nouakchat
        ascii_name: Nouakchott
        geonamesid: 2377450
        latitude: 18.10033
        longitude: -15.94975
        name: Nouakchott
        names_en: ~
        names_es: ~
        population: 661400
        timezone: Africa/Nouakchott
    geonamesid: 2377449
    name: Nouakchott
    names_en: ~
    names_es: ~
  - 
    ascii_name: "Wilaya de l'Inchiri"
    cities: 
      - 
        alternate_names: 
          - Akdzawadzat
          - Akdżawadżat
          - Akjoujt
        ascii_name: Akjoujt
        geonamesid: 2381690
        latitude: 19.69694
        longitude: -14.41639
        name: Akjoujt
        names_en: ~
        names_es: ~
        population: 0
        timezone: Africa/Nouakchott
    geonamesid: 2378903
    name: Inchiri
    names_en: ~
    names_es: ~
  - 
    ascii_name: "Wilaya du Hodh el Gharbi"
    cities: 
      - 
        alternate_names: 
          - "'Ayoun el 'Atrous"
          - "Aioun el Atrouss"
          - "Ayoun El Atrous"
        ascii_name: "'Ayoun el 'Atrous"
        geonamesid: 2381291
        latitude: 16.6614
        longitude: -9.6149
        name: "’Ayoûn el ’Atroûs"
        names_en: ~
        names_es: ~
        population: 0
        timezone: Africa/Nouakchott
    geonamesid: 2379024
    name: "Wilaya du Hodh el Gharbi"
    names_en: ~
    names_es: ~
  - 
    ascii_name: "Wilaya du Hodh ech Chargui"
    cities: 
      - 
        alternate_names: 
          - "En Na`ma"
          - "En Na‘ma"
          - Nema
        ascii_name: Nema
        geonamesid: 2377539
        latitude: 16.6162
        longitude: -7.2535
        name: Néma
        names_en: ~
        names_es: ~
        population: 0
        timezone: Africa/Nouakchott
    geonamesid: 2379025
    name: "Hodh ech Chargui"
    names_en: ~
    names_es: ~
  - 
    ascii_name: "Wilaya du Guidimaka"
    cities: 
      - 
        alternate_names: 
          - Selibabi
          - Selibaby
          - Sélibabi
        ascii_name: Selibabi
        geonamesid: 2376719
        latitude: 15.15895
        longitude: -12.1829
        name: Sélibabi
        names_en: ~
        names_es: ~
        population: 0
        timezone: Africa/Nouakchott
    geonamesid: 2379216
    name: Guidimaka
    names_en: ~
    names_es: ~
  - 
    ascii_name: "Wilaya du Gorgol"
    cities: 
      - 
        alternate_names: 
          - Kaedi
          - Kaédi
          - קאדי
        ascii_name: Kaedi
        geonamesid: 2378736
        latitude: 16.14653
        longitude: -13.50474
        name: Kaédi
        names_en: ~
        names_es: ~
        population: 0
        timezone: Africa/Nouakchott
    geonamesid: 2379384
    name: Gorgol
    names_en: ~
    names_es: ~
  - 
    ascii_name: "Wilaya de Dakhlet Nouadhibou"
    cities: 
      - 
        alternate_names: 
          - Nawazibu
          - Nouadhibou
          - Nouâdhibou
        ascii_name: Nouadhibou
        geonamesid: 2377457
        latitude: 20.93098
        longitude: -17.03465
        name: Nouâdhibou
        names_en: ~
        names_es: ~
        population: 72337
        timezone: Africa/Nouakchott
    geonamesid: 2380426
    name: "Dakhlet Nouadhibou"
    names_en: ~
    names_es: ~
  - 
    ascii_name: "Wilaya du Brakna"
    cities: 
      - 
        alternate_names: 
          - Aleg
        ascii_name: Aleg
        geonamesid: 2381659
        latitude: 17.0481
        longitude: -13.9209
        name: Aleg
        names_en: ~
        names_es: ~
        population: 0
        timezone: Africa/Nouakchott
    geonamesid: 2380635
    name: Brakna
    names_en: ~
    names_es: ~
  - 
    ascii_name: "Wilaya de l'Assaba"
    cities: 
      - 
        alternate_names: 
          - Kifa
          - Kiffa
          - Kîfa
        ascii_name: Kiffa
        geonamesid: 2378538
        latitude: 16.61659
        longitude: -11.40453
        name: Kiffa
        names_en: ~
        names_es: ~
        population: 0
        timezone: Africa/Nouakchott
      - 
        alternate_names: 
          - Barkeol
          - Barkewol
          - Barkéol
        ascii_name: Barkewol
        geonamesid: 2381163
        latitude: 16.64039
        longitude: -12.49849
        name: Barkéwol
        names_en: ~
        names_es: ~
        population: 1100
        timezone: Africa/Nouakchott
    geonamesid: 2381344
    name: Assaba
    names_en: ~
    names_es: ~
  - 
    ascii_name: "Wilaya de l'Adrar"
    cities: 
      - 
        alternate_names: 
          - Chingetti
          - Chinguetti
          - Chingueṭṭi
        ascii_name: Chinguetti
        geonamesid: 2380519
        latitude: 20.44036
        longitude: -12.2622
        name: Chingueṭṭi
        names_en: ~
        names_es: ~
        population: 4711
        timezone: Africa/Nouakchott
      - 
        alternate_names: 
          - Atar
          - Atâr
        ascii_name: Atar
        geonamesid: 2381334
        latitude: 20.51686
        longitude: -13.04986
        name: Atar
        names_en: ~
        names_es: ~
        population: 0
        timezone: Africa/Nouakchott
    geonamesid: 2381972
    name: Adrar
    names_en: ~
    names_es: ~
