--- 
geonamesid: 3355338
iso: NA
name: Namibia
names_en: 
  - Namibia
names_es: 
  - Namibia
regions: 
  - 
    ascii_name: Caprivi
    cities: 
      - 
        alternate_names: 
          - "Katima Molilo"
          - "Katima Mulilo"
          - Katima-Mulilo
          - Катіма-Муліло
        ascii_name: "Katima Mulilo"
        geonamesid: 877178
        latitude: -17.5
        longitude: 24.26667
        name: "Katima Mulilo"
        names_en: 
          - "Katima Mulilo"
        names_es: 
          - "Katima Mulilo"
        population: 25027
        timezone: Africa/Windhoek
    geonamesid: 1090052
    name: Caprivi
    names_en: ~
    names_es: ~
  - 
    ascii_name: Khomas
    cities: 
      - 
        alternate_names: 
          - Gouintchouk
          - Vindhuk
          - Vindhukas
          - Vindkhuk
        ascii_name: Windhoek
        geonamesid: 3352136
        latitude: -22.55941
        longitude: 17.08323
        name: Windhoek
        names_en: 
          - Windhoek
        names_es: 
          - Windhoek
        population: 268132
        timezone: Africa/Windhoek
    geonamesid: 3352137
    name: Khomas
    names_en: ~
    names_es: ~
  - 
    ascii_name: Erongo
    cities: 
      - 
        alternate_names: 
          - Usakos
        ascii_name: Usakos
        geonamesid: 3352461
        latitude: -22.0
        longitude: 15.6
        name: Usakos
        names_en: ~
        names_es: ~
        population: 9147
        timezone: Africa/Windhoek
      - 
        alternate_names: 
          - Svakopmund
          - Swakopmund
          - suwakopumunto
          - Свакопмунд
        ascii_name: Swakopmund
        geonamesid: 3352844
        latitude: -22.68333
        longitude: 14.53333
        name: Swakopmund
        names_en: 
          - Swakopmund
        names_es: 
          - Swakopmund
        population: 25047
        timezone: Africa/Windhoek
      - 
        alternate_names: 
          - Otjimbingue
          - Otjimbingwe
        ascii_name: Otjimbingwe
        geonamesid: 3353871
        latitude: -22.35
        longitude: 16.13333
        name: Otjimbingwe
        names_en: ~
        names_es: ~
        population: 7677
        timezone: Africa/Windhoek
      - 
        alternate_names: 
          - Omaruru
        ascii_name: Omaruru
        geonamesid: 3354540
        latitude: -21.43333
        longitude: 15.93333
        name: Omaruru
        names_en: ~
        names_es: ~
        population: 11547
        timezone: Africa/Windhoek
      - 
        alternate_names: 
          - Karibib
        ascii_name: Karibib
        geonamesid: 3356332
        latitude: -21.93333
        longitude: 15.83333
        name: Karibib
        names_en: ~
        names_es: ~
        population: 6898
        timezone: Africa/Windhoek
      - 
        alternate_names: 
          - "Henties Bay"
          - Hentiesbaai
        ascii_name: Hentiesbaai
        geonamesid: 3356832
        latitude: -22.11667
        longitude: 14.28333
        name: Hentiesbaai
        names_en: ~
        names_es: ~
        population: 3837
        timezone: Africa/Windhoek
      - 
        alternate_names: 
          - Arandis
        ascii_name: Arandis
        geonamesid: 3358670
        latitude: -22.41667
        longitude: 14.96667
        name: Arandis
        names_en: ~
        names_es: ~
        population: 4507
        timezone: Africa/Windhoek
      - 
        alternate_names: 
          - "Valvis Bej"
          - Volfis-Bej
          - Walfisch-Bucht-Niederland
          - Walfischbucht
        ascii_name: "Walvis Bay"
        geonamesid: 3359638
        latitude: -22.9575
        longitude: 14.50528
        name: "Walvis Bay"
        names_en: 
          - "Walvis Bay"
        names_es: 
          - "Walvis Bay"
        population: 52058
        timezone: Africa/Windhoek
    geonamesid: 3371199
    name: Erongo
    names_en: ~
    names_es: ~
  - 
    ascii_name: Hardap
    cities: 
      - 
        alternate_names: 
          - Rehoboth
          - Rekhobot
          - Рехобот
        ascii_name: Rehoboth
        geonamesid: 3353540
        latitude: -23.31667
        longitude: 17.08333
        name: Rehoboth
        names_en: ~
        names_es: ~
        population: 21377
        timezone: Africa/Windhoek
      - 
        alternate_names: 
          - Mariental
        ascii_name: Mariental
        geonamesid: 3355595
        latitude: -24.63333
        longitude: 17.96667
        name: Mariental
        names_en: ~
        names_es: ~
        population: 13380
        timezone: Africa/Windhoek
      - 
        alternate_names: 
          - Maltahohe
          - Maltahöhe
        ascii_name: Maltahohe
        geonamesid: 3355624
        latitude: -24.83333
        longitude: 16.98333
        name: Maltahöhe
        names_en: ~
        names_es: ~
        population: 2329
        timezone: Africa/Windhoek
      - 
        alternate_names: ~
        ascii_name: Aranos
        geonamesid: 3358666
        latitude: -24.13333
        longitude: 19.11667
        name: Aranos
        names_en: ~
        names_es: ~
        population: 3430
        timezone: Africa/Windhoek
    geonamesid: 3371200
    name: Hardap
    names_en: ~
    names_es: ~
  - 
    ascii_name: Karas
    cities: 
      - 
        alternate_names: ~
        ascii_name: Warmbad
        geonamesid: 3352263
        latitude: -28.45
        longitude: 18.73333
        name: Warmbad
        names_en: ~
        names_es: ~
        population: 6700
        timezone: Africa/Windhoek
      - 
        alternate_names: 
          - "Orange Mouth"
          - Orangemund
          - Oranjemond
          - Oranjemund
        ascii_name: Oranjemund
        geonamesid: 3354071
        latitude: -28.55
        longitude: 16.43333
        name: Oranjemund
        names_en: ~
        names_es: ~
        population: 8496
        timezone: Africa/Windhoek
      - 
        alternate_names: 
          - Ljuderic
          - Luderitz
          - Luederitz
          - Lüderitz
        ascii_name: Luderitz
        geonamesid: 3355672
        latitude: -26.64806
        longitude: 15.15944
        name: Lüderitz
        names_en: 
          - Lüderitz
        names_es: 
          - Lüderitz
        population: 15137
        timezone: Africa/Windhoek
      - 
        alternate_names: 
          - Keetmanshoop
        ascii_name: Keetmanshoop
        geonamesid: 3356264
        latitude: -26.58333
        longitude: 18.13333
        name: Keetmanshoop
        names_en: 
          - Keetmanshoop
        names_es: 
          - Keetmanshoop
        population: 15608
        timezone: Africa/Windhoek
      - 
        alternate_names: 
          - Kalkfontein
          - "Kalkfontein South"
          - Karasburg
        ascii_name: Karasburg
        geonamesid: 3356343
        latitude: -28.01667
        longitude: 18.75
        name: Karasburg
        names_en: ~
        names_es: ~
        population: 6054
        timezone: Africa/Windhoek
      - 
        alternate_names: 
          - Bethanie
          - Bethanien
          - Bethany
        ascii_name: Bethanie
        geonamesid: 3358416
        latitude: -26.48333
        longitude: 17.15
        name: Bethanie
        names_en: ~
        names_es: ~
        population: 10363
        timezone: Africa/Windhoek
    geonamesid: 3371201
    name: Karas
    names_en: ~
    names_es: ~
  - 
    ascii_name: Kunene
    cities: 
      - 
        alternate_names: 
          - Outjo
        ascii_name: Outjo
        geonamesid: 3353715
        latitude: -20.11667
        longitude: 16.15
        name: Outjo
        names_en: ~
        names_es: ~
        population: 6557
        timezone: Africa/Windhoek
      - 
        alternate_names: 
          - Khorixas
          - Wallwitch
          - Wellwitsch
          - Welwitsch
        ascii_name: Khorixas
        geonamesid: 3356213
        latitude: -20.36667
        longitude: 14.96667
        name: Khorixas
        names_en: ~
        names_es: ~
        population: 12021
        timezone: Africa/Windhoek
    geonamesid: 3371202
    name: Kunene
    names_en: ~
    names_es: ~
  - 
    ascii_name: Ohangwena
    cities: 
      - 
        alternate_names: 
          - Oshikango
        ascii_name: Oshikango
        geonamesid: 3353996
        latitude: -17.4
        longitude: 15.88333
        name: Oshikango
        names_en: ~
        names_es: ~
        population: 2658
        timezone: Africa/Windhoek
    geonamesid: 3371203
    name: Ohangwena
    names_en: ~
    names_es: ~
  - 
    ascii_name: Okavango
    cities: 
      - 
        alternate_names: 
          - Rundu
          - Runtu
          - Рунду
        ascii_name: Rundu
        geonamesid: 3353383
        latitude: -17.93333
        longitude: 19.76667
        name: Rundu
        names_en: ~
        names_es: ~
        population: 58172
        timezone: Africa/Windhoek
    geonamesid: 3371204
    name: Okavango
    names_en: ~
    names_es: ~
  - 
    ascii_name: Omaheke
    cities: 
      - 
        alternate_names: 
          - Gobabis
        ascii_name: Gobabis
        geonamesid: 3357247
        latitude: -22.45
        longitude: 18.96667
        name: Gobabis
        names_en: ~
        names_es: ~
        population: 16321
        timezone: Africa/Windhoek
    geonamesid: 3371205
    name: Omaheke
    names_en: ~
    names_es: ~
  - 
    ascii_name: Omusati
    cities: 
      - 
        alternate_names: 
          - Okandjera
          - Ongandjera
          - Rehoboth
        ascii_name: Ongandjera
        geonamesid: 3354178
        latitude: -17.88333
        longitude: 15.06667
        name: Ongandjera
        names_en: ~
        names_es: ~
        population: 2719
        timezone: Africa/Windhoek
    geonamesid: 3371206
    name: Omusati
    names_en: ~
    names_es: ~
  - 
    ascii_name: Oshana
    cities: 
      - 
        alternate_names: 
          - Okatana
          - Oshakati
          - Ошакати
        ascii_name: Oshakati
        geonamesid: 3354021
        latitude: -17.78333
        longitude: 15.68333
        name: Oshakati
        names_en: ~
        names_es: ~
        population: 33618
        timezone: Africa/Windhoek
      - 
        alternate_names: 
          - Onguedira
          - Onguediva
          - Ongwediva
        ascii_name: Ongwediva
        geonamesid: 3354147
        latitude: -17.78333
        longitude: 15.76667
        name: Ongwediva
        names_en: ~
        names_es: ~
        population: 9654
        timezone: Africa/Windhoek
      - 
        alternate_names: 
          - Ondangua
          - Ondangwa
          - Ondonga
        ascii_name: Ondangwa
        geonamesid: 3354247
        latitude: -17.91667
        longitude: 15.95
        name: Ondangwa
        names_en: ~
        names_es: ~
        population: 9124
        timezone: Africa/Windhoek
    geonamesid: 3371207
    name: Oshana
    names_en: ~
    names_es: ~
  - 
    ascii_name: Oshikoto
    cities: 
      - 
        alternate_names: 
          - Tsumeb
        ascii_name: Tsumeb
        geonamesid: 3352593
        latitude: -19.23333
        longitude: 17.71667
        name: Tsumeb
        names_en: ~
        names_es: ~
        population: 12190
        timezone: Africa/Windhoek
    geonamesid: 3371208
    name: Oshikoto
    names_en: ~
    names_es: ~
  - 
    ascii_name: Otjozondjupa
    cities: 
      - 
        alternate_names: 
          - Otavi
          - Otawi
        ascii_name: Otavi
        geonamesid: 3353934
        latitude: -19.65
        longitude: 17.33333
        name: Otavi
        names_en: ~
        names_es: ~
        population: 4562
        timezone: Africa/Windhoek
      - 
        alternate_names: ~
        ascii_name: Okakarara
        geonamesid: 3354876
        latitude: -20.58333
        longitude: 17.43333
        name: Okakarara
        names_en: ~
        names_es: ~
        population: 5255
        timezone: Africa/Windhoek
      - 
        alternate_names: 
          - Okahandja
          - Okahanja
        ascii_name: Okahandja
        geonamesid: 3354898
        latitude: -21.98333
        longitude: 16.91667
        name: Okahandja
        names_en: 
          - Okahandja
        names_es: 
          - Okahandja
        population: 20879
        timezone: Africa/Windhoek
      - 
        alternate_names: 
          - Grootfontein
          - Groutfontein
        ascii_name: Grootfontein
        geonamesid: 3357114
        latitude: -19.56667
        longitude: 18.11667
        name: Grootfontein
        names_en: ~
        names_es: ~
        population: 24099
        timezone: Africa/Windhoek
    geonamesid: 3371209
    name: Otjozondjupa
    names_en: ~
    names_es: ~
