--- 
geonamesid: 2139685
iso: NC
name: "New Caledonia"
names_en: 
  - "New Caledonia"
names_es: 
  - "Nueva Caledonia"
regions: 
  - 
    ascii_name: "Province Sud"
    cities: 
      - 
        alternate_names: ~
        ascii_name: Thio
        geonamesid: 2138103
        latitude: -21.61667
        longitude: 166.21667
        name: Thio
        names_en: ~
        names_es: ~
        population: 2748
        timezone: Pacific/Noumea
      - 
        alternate_names: ~
        ascii_name: Paita
        geonamesid: 2138981
        latitude: -22.13333
        longitude: 166.36667
        name: Païta
        names_en: ~
        names_es: ~
        population: 12617
        timezone: Pacific/Noumea
      - 
        alternate_names: 
          - Noumea
          - Nouméa
          - Numea
          - "Port de France"
        ascii_name: Noumea
        geonamesid: 2139521
        latitude: -22.27631
        longitude: 166.4572
        name: Nouméa
        names_en: 
          - Nouméa
          - Noumea
        names_es: 
          - Numea
        population: 93060
        timezone: Pacific/Noumea
      - 
        alternate_names: ~
        ascii_name: "La Foa"
        geonamesid: 2140466
        latitude: -21.71079
        longitude: 165.82764
        name: "La Foa"
        names_en: ~
        names_es: ~
        population: 2947
        timezone: Pacific/Noumea
      - 
        alternate_names: ~
        ascii_name: Dumbea
        geonamesid: 2141394
        latitude: -22.15
        longitude: 166.45
        name: Dumbéa
        names_en: ~
        names_es: ~
        population: 19346
        timezone: Pacific/Noumea
      - 
        alternate_names: 
          - Bourail
          - Boureil
          - Burail
        ascii_name: Bourail
        geonamesid: 2141714
        latitude: -21.56667
        longitude: 165.48333
        name: Bourail
        names_en: ~
        names_es: ~
        population: 4826
        timezone: Pacific/Noumea
      - 
        alternate_names: 
          - Bouloupari
          - Boulouparis
          - Bulupari
        ascii_name: Bouloupari
        geonamesid: 2141722
        latitude: -21.86667
        longitude: 166.05
        name: Bouloupari
        names_en: ~
        names_es: ~
        population: 2146
        timezone: Pacific/Noumea
    geonamesid: 2140464
    name: "Province Sud"
    names_en: ~
    names_es: ~
  - 
    ascii_name: "Province Nord"
    cities: 
      - 
        alternate_names: 
          - Voh
        ascii_name: Voh
        geonamesid: 2137748
        latitude: -20.96667
        longitude: 164.7
        name: Voh
        names_en: ~
        names_es: ~
        population: 2272
        timezone: Pacific/Noumea
      - 
        alternate_names: 
          - Touho
          - Tuho
          - Tuo
        ascii_name: Touho
        geonamesid: 2137873
        latitude: -20.78333
        longitude: 165.23333
        name: Touho
        names_en: ~
        names_es: ~
        population: 2283
        timezone: Pacific/Noumea
      - 
        alternate_names: ~
        ascii_name: Poya
        geonamesid: 2138522
        latitude: -21.35
        longitude: 165.15
        name: Poya
        names_en: ~
        names_es: ~
        population: 2617
        timezone: Pacific/Noumea
      - 
        alternate_names: 
          - Bouemanda
          - Bouémanda
          - Buemanda
          - Peum
        ascii_name: Poum
        geonamesid: 2138555
        latitude: -20.23333
        longitude: 164.01667
        name: Poum
        names_en: ~
        names_es: ~
        population: 1405
        timezone: Pacific/Noumea
      - 
        alternate_names: 
          - Pouembout
          - Puembut
        ascii_name: Pouembout
        geonamesid: 2138592
        latitude: -21.13333
        longitude: 164.9
        name: Pouembout
        names_en: ~
        names_es: ~
        population: 1511
        timezone: Pacific/Noumea
      - 
        alternate_names: 
          - Pouebo
          - Pouébo
          - Puebo
          - Puébo
        ascii_name: Pouebo
        geonamesid: 2138607
        latitude: -20.4
        longitude: 164.56667
        name: Pouébo
        names_en: ~
        names_es: ~
        population: 2391
        timezone: Pacific/Noumea
      - 
        alternate_names: 
          - Ponerihouen
          - Poneriuen
          - Ponérihouen
          - Punereuin
        ascii_name: Ponerihouen
        geonamesid: 2138687
        latitude: -21.08333
        longitude: 165.4
        name: Ponérihouen
        names_en: ~
        names_es: ~
        population: 2739
        timezone: Pacific/Noumea
      - 
        alternate_names: ~
        ascii_name: Poindimie
        geonamesid: 2138717
        latitude: -20.93333
        longitude: 165.33333
        name: Poindimié
        names_en: ~
        names_es: ~
        population: 4885
        timezone: Pacific/Noumea
      - 
        alternate_names: ~
        ascii_name: Ouegoa
        geonamesid: 2139259
        latitude: -20.35
        longitude: 164.43333
        name: Ouégoa
        names_en: ~
        names_es: ~
        population: 2127
        timezone: Pacific/Noumea
      - 
        alternate_names: 
          - Koumac
          - Kumac
          - Kumak
        ascii_name: Koumac
        geonamesid: 2140558
        latitude: -20.56667
        longitude: 164.28333
        name: Koumac
        names_en: ~
        names_es: ~
        population: 3060
        timezone: Pacific/Noumea
      - 
        alternate_names: ~
        ascii_name: Kone
        geonamesid: 2140691
        latitude: -21.05951
        longitude: 164.86582
        name: Koné
        names_en: ~
        names_es: ~
        population: 4572
        timezone: Pacific/Noumea
      - 
        alternate_names: 
          - Gomen
          - Kaala-Gomen
          - Kaala-Gomén
        ascii_name: Kaala-Gomen
        geonamesid: 2140915
        latitude: -20.66667
        longitude: 164.4
        name: Kaala-Gomén
        names_en: ~
        names_es: ~
        population: 1897
        timezone: Pacific/Noumea
      - 
        alternate_names: 
          - Houailou
          - Houaïlou
          - Huailu
          - Huaïlu
        ascii_name: Houailou
        geonamesid: 2141006
        latitude: -21.28333
        longitude: 165.61667
        name: Houaïlou
        names_en: ~
        names_es: ~
        population: 4562
        timezone: Pacific/Noumea
      - 
        alternate_names: 
          - Hienghene
          - Hiengherie
          - Hienghène
          - Yengen
        ascii_name: Hienghene
        geonamesid: 2141050
        latitude: -20.68333
        longitude: 164.93333
        name: Hienghène
        names_en: ~
        names_es: ~
        population: 2668
        timezone: Pacific/Noumea
      - 
        alternate_names: 
          - Canala
          - Kanala
          - Napoleonville
          - Napoléonville
        ascii_name: Canala
        geonamesid: 2141658
        latitude: -21.53333
        longitude: 165.95
        name: Canala
        names_en: ~
        names_es: ~
        population: 3538
        timezone: Pacific/Noumea
    geonamesid: 2140685
    name: "Province Nord"
    names_en: ~
    names_es: ~
  - 
    ascii_name: "Province des iles Loyaute"
    cities: 
      - 
        alternate_names: 
          - Oue
          - Oué
          - We
          - Wé
        ascii_name: We
        geonamesid: 2137690
        latitude: -20.91687
        longitude: 167.26461
        name: Wé
        names_en: ~
        names_es: ~
        population: 10375
        timezone: Pacific/Noumea
    geonamesid: 7521415
    name: "Province des îles Loyauté"
    names_en: ~
    names_es: ~
