--- 
geonamesid: 1873107
iso: KP
name: "North Korea"
names_en: 
  - "North Korea"
  - "Democratic People’s Republic of Korea"
names_es: 
  - "Corea del Norte"
  - "Corea, República Popular Democrática"
regions: 
  - 
    ascii_name: P'yongyang-si
    cities: 
      - 
        alternate_names: 
          - Shoko-ri
          - Shōko-ri
          - Sungho
          - "Sungho 1-tong"
        ascii_name: "Sungho 1-tong"
        geonamesid: 1868998
        latitude: 38.99139
        longitude: 125.97778
        name: "Sŭngho 1-tong"
        names_en: ~
        names_es: ~
        population: 39841
        timezone: Asia/Pyongyang
      - 
        alternate_names: 
          - Junan
          - Sunan
          - Sunan-dong
          - Sunan-ni
        ascii_name: Sunan
        geonamesid: 1869021
        latitude: 39.19833
        longitude: 125.69
        name: Sunan
        names_en: ~
        names_es: ~
        population: 36671
        timezone: Asia/Pyongyang
      - 
        alternate_names: 
          - "Binh Nhuong"
          - "Bình Nhưỡng"
          - Heijo
          - Heijo-fu
        ascii_name: Pyongyang
        geonamesid: 1871859
        latitude: 39.03385
        longitude: 125.75432
        name: Pyongyang
        names_en: 
          - Pyongyang
        names_es: 
          - Pyongyang
        population: 3222000
        timezone: Asia/Pyongyang
      - 
        alternate_names: 
          - Kandong
          - Kangdong
          - Kangdong-up
          - Kangdong-ŭp
        ascii_name: Kangdong-up
        geonamesid: 1876153
        latitude: 39.1425
        longitude: 126.09611
        name: Kangdong-ŭp
        names_en: ~
        names_es: ~
        population: 28922
        timezone: Asia/Pyongyang
      - 
        alternate_names: 
          - Chunghwa
          - Chunghwa-up
          - Chunghwa-ŭp
          - Chuwa
        ascii_name: Chunghwa
        geonamesid: 1877872
        latitude: 38.86389
        longitude: 125.8
        name: Chunghwa
        names_en: ~
        names_es: ~
        population: 19346
        timezone: Asia/Pyongyang
    geonamesid: 1871856
    name: P'yŏngyang-si
    names_en: ~
    names_es: ~
  - 
    ascii_name: P'yongan-namdo
    cities: 
      - 
        alternate_names: 
          - Chinji-ri
          - Shinchi-ri
          - Shinchido
          - Shinchidō
        ascii_name: Yonggang-up
        geonamesid: 1866362
        latitude: 38.85611
        longitude: 125.42444
        name: Yonggang-ŭp
        names_en: ~
        names_es: ~
        population: 13440
        timezone: Asia/Pyongyang
      - 
        alternate_names: 
          - Sil-li
          - Sin-ni
        ascii_name: Sil-li
        geonamesid: 1870413
        latitude: 39.49472
        longitude: 125.47361
        name: Sil-li
        names_en: ~
        names_es: ~
        population: 19463
        timezone: Asia/Pyongyang
      - 
        alternate_names: 
          - Shin-anshu
          - Shin-anshū
          - Sin-ansyu
          - Sin-ansyū
        ascii_name: Sinanju
        geonamesid: 1870742
        latitude: 39.59806
        longitude: 125.60972
        name: Sinanju
        names_en: ~
        names_es: ~
        population: 15693
        timezone: Asia/Pyongyang
      - 
        alternate_names: 
          - "Ku Yangdok"
          - "Ku Yangdŏk"
          - Sangsong-ni
          - Sangsŏng-ni
        ascii_name: Sangsong-ni
        geonamesid: 1871028
        latitude: 39.16944
        longitude: 126.88556
        name: Sangsŏng-ni
        names_en: ~
        names_es: ~
        population: 9888
        timezone: Asia/Pyongyang
      - 
        alternate_names: 
          - P'yongsong
          - P’yŏngsŏng
          - Sain-ni
          - Sainjang
        ascii_name: P'yongsong
        geonamesid: 1871871
        latitude: 39.24639
        longitude: 125.87194
        name: P’yŏngsŏng
        names_en: ~
        names_es: ~
        population: 0
        timezone: Asia/Pyongyang
      - 
        alternate_names: 
          - Channampo
          - Chinnamp'o
          - Chinnamp’o
          - Chinnanpo
        ascii_name: Namp'o
        geonamesid: 1873757
        latitude: 38.7375
        longitude: 125.40778
        name: Namp’o
        names_en: ~
        names_es: ~
        population: 455000
        timezone: Asia/Pyongyang
      - 
        alternate_names: 
          - Aanshu
          - An-dschu
          - Anju
          - Anju-up
        ascii_name: Anju
        geonamesid: 1879613
        latitude: 39.61778
        longitude: 125.66472
        name: Anju
        names_en: ~
        names_es: ~
        population: 50196
        timezone: Asia/Pyongyang
    geonamesid: 1871952
    name: P'yŏngan-namdo
    names_en: ~
    names_es: ~
  - 
    ascii_name: P'yongan-bukto
    cities: 
      - 
        alternate_names: 
          - Neihen
          - Nyongbyon
          - Nyŏngbyŏn
          - Yongbyon
        ascii_name: Yongbyon
        geonamesid: 1866453
        latitude: 39.81333
        longitude: 125.80417
        name: Yŏngbyŏn
        names_en: ~
        names_es: ~
        population: 9584
        timezone: Asia/Pyongyang
      - 
        alternate_names: 
          - Chonggo-dong
          - Chŏnggŏ-dong
          - Teisha
          - Teisha-do
        ascii_name: Yomju-up
        geonamesid: 1866587
        latitude: 39.89333
        longitude: 124.59806
        name: Yŏmju-ŭp
        names_en: ~
        names_es: ~
        population: 9437
        timezone: Asia/Pyongyang
      - 
        alternate_names: 
          - Namsi
          - Nanshi
          - Panghyon
          - Panghyon-dong
        ascii_name: Panghyon-dong
        geonamesid: 1872726
        latitude: 39.88722
        longitude: 125.24139
        name: Panghyŏn-dong
        names_en: ~
        names_es: ~
        population: 11026
        timezone: Asia/Pyongyang
      - 
        alternate_names: 
          - Kakusan
          - Kakuzan
          - Kwaksan
          - Kwaksan-up
        ascii_name: Kwaksan
        geonamesid: 1875054
        latitude: 39.6875
        longitude: 125.08278
        name: Kwaksan
        names_en: ~
        names_es: ~
        population: 10478
        timezone: Asia/Pyongyang
      - 
        alternate_names: 
          - Kijo
          - Kijō
          - Kuisong
          - Kuisŏng
        ascii_name: Kusong
        geonamesid: 1875107
        latitude: 39.98111
        longitude: 125.24472
        name: Kusŏng
        names_en: ~
        names_es: ~
        population: 30902
        timezone: Asia/Pyongyang
      - 
        alternate_names: 
          - Kuchung
          - Kujang
          - Kujang-dong
          - Kujang-up
        ascii_name: Kujang-up
        geonamesid: 1875506
        latitude: 39.86722
        longitude: 126.03028
        name: Kujang-ŭp
        names_en: ~
        names_es: ~
        population: 19522
        timezone: Asia/Pyongyang
      - 
        alternate_names: 
          - Chongju
          - Chongju-up
          - Chŏngju
          - Chŏngju-ŭp
        ascii_name: Chongju
        geonamesid: 1878389
        latitude: 39.69333
        longitude: 125.21028
        name: Chŏngju
        names_en: ~
        names_es: ~
        population: 29065
        timezone: Asia/Pyongyang
      - 
        alternate_names: 
          - Eui-chu
          - Gishu
          - Gishū
          - Gisyu
        ascii_name: Uiju
        geonamesid: 2039623
        latitude: 40.19944
        longitude: 124.53167
        name: Ŭiju
        names_en: ~
        names_es: ~
        population: 50081
        timezone: Asia/Pyongyang
      - 
        alternate_names: 
          - "New Eui-chu"
          - Shingishu
          - Shingishū
          - Sin-eui-chu
        ascii_name: Sinuiju
        geonamesid: 2040893
        latitude: 40.10056
        longitude: 124.39806
        name: Sinŭiju
        names_en: 
          - Sinuiju
        names_es: ~
        population: 288112
        timezone: Asia/Pyongyang
      - 
        alternate_names: 
          - Sakchu
          - Sakchu-up
          - Sakchu-ŭp
          - Sakushu
        ascii_name: Sakchu-up
        geonamesid: 2041533
        latitude: 40.38944
        longitude: 125.04667
        name: Sakchu-ŭp
        names_en: ~
        names_es: ~
        population: 18001
        timezone: Asia/Pyongyang
      - 
        alternate_names: 
          - Hokuchin
          - Puckchin
          - Pukch'ang
          - Pukchil-lodongjagu
        ascii_name: Pukchil-lodongjagu
        geonamesid: 2041817
        latitude: 40.20194
        longitude: 125.74833
        name: Pukchil-lodongjagu
        names_en: ~
        names_es: ~
        population: 14129
        timezone: Asia/Pyongyang
    geonamesid: 1871954
    name: P'yŏngan-bukto
    names_en: ~
    names_es: ~
  - 
    ascii_name: Gangwon
    cities: 
      - 
        alternate_names: 
          - Gensan
          - Genzan
          - "Genzan Hu"
          - Onsan
        ascii_name: Wonsan
        geonamesid: 1866923
        latitude: 39.15278
        longitude: 127.44361
        name: Wŏnsan
        names_en: 
          - Wonsan
        names_es: ~
        population: 329207
        timezone: Asia/Pyongyang
      - 
        alternate_names: 
          - Kojo
          - Kojŏ
          - Kotei
          - T'ongch'on
        ascii_name: T'ongch'on-up
        geonamesid: 1867927
        latitude: 38.95389
        longitude: 127.89167
        name: T’ongch’ŏn-ŭp
        names_en: ~
        names_es: ~
        population: 20575
        timezone: Asia/Pyongyang
      - 
        alternate_names: 
          - Kosan
          - Kosan-up
          - Kosan-ŭp
          - Shinko-san
        ascii_name: Kosan
        geonamesid: 1875632
        latitude: 38.85583
        longitude: 127.41806
        name: Kosan
        names_en: ~
        names_es: ~
        population: 24822
        timezone: Asia/Pyongyang
      - 
        alternate_names: 
          - Chunyang
          - Hoeyang
          - Hoeyang-up
          - Hoeyang-ŭp
        ascii_name: Hoeyang
        geonamesid: 1877148
        latitude: 38.71028
        longitude: 127.59833
        name: Hoeyang
        names_en: ~
        names_es: ~
        population: 21111
        timezone: Asia/Pyongyang
      - 
        alternate_names: 
          - Ampen
          - Anbyon
          - Anbyon-up
          - Anbyŏn
        ascii_name: Anbyon-up
        geonamesid: 1879672
        latitude: 39.0425
        longitude: 127.52389
        name: Anbyŏn-ŭp
        names_en: ~
        names_es: ~
        population: 31845
        timezone: Asia/Pyongyang
    geonamesid: 1876101
    name: Gangwon
    names_en: 
      - Gangwon
    names_es: ~
  - 
    ascii_name: Hwanghae-namdo
    cities: 
      - 
        alternate_names: 
          - Enan
          - Yonan
          - Yonan-up
          - Yŏnan
        ascii_name: Yonan-up
        geonamesid: 1866569
        latitude: 37.90889
        longitude: 126.16111
        name: Yŏnan-ŭp
        names_en: ~
        names_es: ~
        population: 22665
        timezone: Asia/Pyongyang
      - 
        alternate_names: 
          - Ch'wiya
          - Chuya
          - Ch’wiya
          - Pyoksong
        ascii_name: Pyoksong-up
        geonamesid: 1871967
        latitude: 38.0475
        longitude: 125.55667
        name: Pyŏksŏng-ŭp
        names_en: ~
        names_es: ~
        population: 12937
        timezone: Asia/Pyongyang
      - 
        alternate_names: 
          - Bazan
          - Onchzhin
          - Ongjin
          - Ongjin-up
        ascii_name: Ongjin
        geonamesid: 1873172
        latitude: 37.93472
        longitude: 125.36194
        name: Ongjin
        names_en: ~
        names_es: ~
        population: 64247
        timezone: Asia/Pyongyang
      - 
        alternate_names: 
          - Haeju
          - Hai-dschu
          - Hai-ju
          - Hai-tjyou
        ascii_name: Haeju
        geonamesid: 1877615
        latitude: 38.04056
        longitude: 125.71472
        name: Haeju
        names_en: ~
        names_es: ~
        population: 222396
        timezone: Asia/Pyongyang
      - 
        alternate_names: 
          - Changyon
          - Changyon-up
          - Changyŏn
          - Changyŏn-ŭp
        ascii_name: Changyon
        geonamesid: 1879029
        latitude: 38.25083
        longitude: 125.09611
        name: Changyŏn
        names_en: ~
        names_es: ~
        population: 39368
        timezone: Asia/Pyongyang
      - 
        alternate_names: 
          - Chaenyong
          - Chaenyŏng
          - Chaeryong
          - Chaeryong-up
        ascii_name: Chaeryong-up
        geonamesid: 1879487
        latitude: 38.39917
        longitude: 125.61556
        name: Chaeryŏng-ŭp
        names_en: ~
        names_es: ~
        population: 53330
        timezone: Asia/Pyongyang
      - 
        alternate_names: 
          - Ayang-ni
          - Gayo-ri
          - Gayō-ri
        ascii_name: Ayang-ni
        geonamesid: 1879544
        latitude: 38.24306
        longitude: 125.78
        name: Ayang-ni
        names_en: ~
        names_es: ~
        population: 16104
        timezone: Asia/Pyongyang
    geonamesid: 1876884
    name: Hwanghae-namdo
    names_en: ~
    names_es: ~
  - 
    ascii_name: Hwanghae-bukto
    cities: 
      - 
        alternate_names: 
          - Kenjiho
          - Kenjiko
          - Kenniho
          - Kenziho
        ascii_name: Songnim
        geonamesid: 1869446
        latitude: 38.75417
        longitude: 125.645
        name: Songnim
        names_en: ~
        names_es: ~
        population: 152425
        timezone: Asia/Pyongyang
      - 
        alternate_names: 
          - Hozan
          - Sa-ri-uen
          - Sarivone
          - Sariwon
        ascii_name: Sariwon
        geonamesid: 1870883
        latitude: 38.50722
        longitude: 125.75583
        name: Sariwŏn
        names_en: ~
        names_es: ~
        population: 154942
        timezone: Asia/Pyongyang
      - 
        alternate_names: 
          - Kokan
          - Kokchang
          - Koksan
          - Koksan-up
        ascii_name: Koksan
        geonamesid: 1875790
        latitude: 38.78194
        longitude: 126.66639
        name: Koksan
        names_en: ~
        names_es: ~
        population: 12923
        timezone: Asia/Pyongyang
      - 
        alternate_names: 
          - Kaesong
          - Kaesŏng
          - Kai-seng
          - Kaijo
        ascii_name: Kaesong
        geonamesid: 1876373
        latitude: 37.97083
        longitude: 126.55444
        name: Kaesŏng
        names_en: 
          - Kaesong
        names_es: 
          - Kaesong
        population: 338155
        timezone: Asia/Pyongyang
      - 
        alternate_names: 
          - Hwangju
          - Hwangju-up
          - Hwangju-ŭp
          - Koshu
        ascii_name: Hwangju-up
        geonamesid: 1876873
        latitude: 38.67028
        longitude: 125.77611
        name: Hwangju-ŭp
        names_en: ~
        names_es: ~
        population: 35641
        timezone: Asia/Pyongyang
      - 
        alternate_names: 
          - Hukkyo-ri
          - Hŭkkyo-ri
          - Kokkyo-ri
          - Kokkyō-ri
        ascii_name: Hukkyo-ri
        geonamesid: 1877046
        latitude: 38.79861
        longitude: 125.79194
        name: Hŭkkyo-ri
        names_en: ~
        names_es: ~
        population: 25437
        timezone: Asia/Pyongyang
      - 
        alternate_names: 
          - Aenak
          - Anag-up
          - Anag-ŭp
          - Anak
        ascii_name: Anak
        geonamesid: 1879682
        latitude: 38.51083
        longitude: 125.49417
        name: Anak
        names_en: ~
        names_es: ~
        population: 19995
        timezone: Asia/Pyongyang
    geonamesid: 1876888
    name: Hwanghae-bukto
    names_en: ~
    names_es: ~
  - 
    ascii_name: Hamgyong-namdo
    cities: 
      - 
        alternate_names: 
          - Samho
          - Samho-dong
          - Samho-nodongjagu
          - Samho-rodongjagu
        ascii_name: Samho-rodongjagu
        geonamesid: 1871484
        latitude: 39.9475
        longitude: 127.87111
        name: Samho-rodongjagu
        names_en: ~
        names_es: ~
        population: 19025
        timezone: Asia/Pyongyang
      - 
        alternate_names: 
          - Kogen
          - Kovon-do
          - Kowon
          - Kowon-up
        ascii_name: Kowon-up
        geonamesid: 1875588
        latitude: 39.43806
        longitude: 127.24306
        name: Kowŏn-ŭp
        names_en: ~
        names_es: ~
        population: 21490
        timezone: Asia/Pyongyang
      - 
        alternate_names: 
          - Hungbong-ni
          - Hungdogi-dong
          - Hungdogil-tong
          - Hungdok-2-dong
        ascii_name: Hungnam
        geonamesid: 1877030
        latitude: 39.83167
        longitude: 127.61861
        name: Hŭngnam
        names_en: ~
        names_es: ~
        population: 346082
        timezone: Asia/Pyongyang
      - 
        alternate_names: 
          - Hamheung
          - Hamhunas
          - Hamhung
          - Hamhungo
        ascii_name: Hamhung
        geonamesid: 1877449
        latitude: 39.91833
        longitude: 127.53639
        name: Hamhŭng
        names_en: 
          - Hamhung
        names_es: ~
        population: 559056
        timezone: Asia/Pyongyang
      - 
        alternate_names: 
          - Sinsang-ni
          - 신상리
        ascii_name: Sinsang-ni
        geonamesid: 1932058
        latitude: 39.65028
        longitude: 127.40583
        name: Sinsang-ni
        names_en: ~
        names_es: ~
        population: 14960
        timezone: Asia/Pyongyang
      - 
        alternate_names: 
          - Rokudaito-ri
          - Rokudaitō-ri
          - Yuktae-dong
          - Yuktae-nodongjagu
        ascii_name: Yuktae-dong
        geonamesid: 2038854
        latitude: 40.02472
        longitude: 128.15972
        name: Yuktae-dong
        names_en: ~
        names_es: ~
        population: 76427
        timezone: Asia/Pyongyang
      - 
        alternate_names: 
          - Goro-ri
          - Gorō-ri
          - Oro
          - Oro-ri
        ascii_name: Yonggwang-up
        geonamesid: 2042249
        latitude: 40.01833
        longitude: 127.45472
        name: Yŏnggwang-ŭp
        names_en: ~
        names_es: ~
        population: 21882
        timezone: Asia/Pyongyang
      - 
        alternate_names: 
          - Gunsen
          - Iwon
          - Iwon-up
          - Iwŏn
        ascii_name: Iwon-up
        geonamesid: 2043677
        latitude: 40.32306
        longitude: 128.65528
        name: Iwŏn-ŭp
        names_en: ~
        names_es: ~
        population: 26364
        timezone: Asia/Pyongyang
      - 
        alternate_names: 
          - Hongwon
          - Hongwon-up
          - Hongwŏn
          - Hongwŏn-ŭp
        ascii_name: Hongwon
        geonamesid: 2044050
        latitude: 40.02528
        longitude: 127.95583
        name: Hongwŏn
        names_en: ~
        names_es: ~
        population: 70923
        timezone: Asia/Pyongyang
    geonamesid: 1877450
    name: Hamgyŏng-namdo
    names_en: ~
    names_es: ~
  - 
    ascii_name: Yanggang-do
    cities: 
      - 
        alternate_names: 
          - Kapsan
          - Kapsan-up
          - Kapsan-ŭp
          - Kapsane-do
        ascii_name: Kapsan-up
        geonamesid: 2043531
        latitude: 41.09028
        longitude: 128.29333
        name: Kapsan-ŭp
        names_en: ~
        names_es: ~
        population: 20406
        timezone: Asia/Pyongyang
      - 
        alternate_names: 
          - Hyesan-dong
          - 혜산동
        ascii_name: Hyesan-dong
        geonamesid: 2043835
        latitude: 41.39756
        longitude: 128.17873
        name: Hyesan-dong
        names_en: ~
        names_es: ~
        population: 97794
        timezone: Asia/Pyongyang
      - 
        alternate_names: 
          - Hesanjin
          - Hyesan
          - Hyesan-si
          - Hyesanjin
        ascii_name: Hyesan-si
        geonamesid: 2043837
        latitude: 41.40167
        longitude: 128.17778
        name: Hyesan-si
        names_en: 
          - Hyesan
        names_es: ~
        population: 0
        timezone: Asia/Pyongyang
      - 
        alternate_names: 
          - Sungjibaegam
          - Sungjipaegam
          - Sŭngjibaegam
        ascii_name: Sungjibaegam
        geonamesid: 2049653
        latitude: 41.24278
        longitude: 128.79889
        name: Sŭngjibaegam
        names_en: ~
        names_es: ~
        population: 11786
        timezone: Asia/Pyongyang
    geonamesid: 2039332
    name: Yanggang-do
    names_en: ~
    names_es: ~
  - 
    ascii_name: Hamgyong-bukto
    cities: 
      - 
        alternate_names: 
          - Kjong-song
          - Kjöng-söng
          - Kyeng-seng
          - Kyojo
        ascii_name: Sungam-nodongjagu
        geonamesid: 2040316
        latitude: 41.66972
        longitude: 129.66889
        name: Sŭngam-nodongjagu
        names_en: ~
        names_es: ~
        population: 11406
        timezone: Asia/Pyongyang
      - 
        alternate_names: 
          - Funei
          - Kuum-nodongjagu
          - Kuup-nodongjagu
          - Kuŭm-nodongjagu
        ascii_name: Puryong
        geonamesid: 2041702
        latitude: 42.06056
        longitude: 129.71167
        name: Puryŏng
        names_en: ~
        names_es: ~
        population: 12267
        timezone: Asia/Pyongyang
      - 
        alternate_names: 
          - Kosong
          - Kosong-ni
          - Kosŏng
          - Kosŏng-ni
        ascii_name: Onsong
        geonamesid: 2042267
        latitude: 42.95722
        longitude: 129.99333
        name: Onsŏng
        names_en: ~
        names_es: ~
        population: 19806
        timezone: Asia/Pyongyang
      - 
        alternate_names: 
          - Naman
          - Nanam
          - Ranam
          - lanam
        ascii_name: Nanam
        geonamesid: 2042498
        latitude: 41.71361
        longitude: 129.68444
        name: Nanam
        names_en: ~
        names_es: ~
        population: 34055
        timezone: Asia/Pyongyang
      - 
        alternate_names: ~
        ascii_name: Namyang-dong
        geonamesid: 2042503
        latitude: 42.95
        longitude: 129.86667
        name: Namyang-dong
        names_en: ~
        names_es: ~
        population: 22218
        timezone: Asia/Pyongyang
      - 
        alternate_names: 
          - Mosan
          - Mozan
          - Musan
          - Musan-up
        ascii_name: Musan-up
        geonamesid: 2042738
        latitude: 42.22609
        longitude: 129.20776
        name: Musan-ŭp
        names_en: ~
        names_es: ~
        population: 21739
        timezone: Asia/Pyongyang
      - 
        alternate_names: 
          - Keigen
          - Kyongwon
          - Kyungwan
          - Kyungwon
        ascii_name: Kyongwon
        geonamesid: 2042985
        latitude: 42.81361
        longitude: 130.15278
        name: Kyŏngwŏn
        names_en: ~
        names_es: ~
        population: 12650
        timezone: Asia/Pyongyang
      - 
        alternate_names: 
          - Churuonjan
          - Chuul
          - Chuuronjang
          - Chuŭl
        ascii_name: Kyongsong
        geonamesid: 2042987
        latitude: 41.58778
        longitude: 129.60611
        name: Kyŏngsŏng
        names_en: ~
        names_es: ~
        population: 35604
        timezone: Asia/Pyongyang
      - 
        alternate_names: 
          - Kichishu
          - Kichishū
          - Kil'dzhu
          - Kil-dschu
        ascii_name: Kilju
        geonamesid: 2043484
        latitude: 40.96417
        longitude: 129.32778
        name: Kilju
        names_en: ~
        names_es: ~
        population: 63652
        timezone: Asia/Pyongyang
      - 
        alternate_names: 
          - Ch'ongjin
          - Ch'ŏngjin
          - Chkhonchzhine
          - Chongjin
        ascii_name: Ch'ongjin
        geonamesid: 2044757
        latitude: 41.79556
        longitude: 129.77583
        name: Ch’ŏngjin
        names_en: 
          - Chongjin
        names_es: ~
        population: 327000
        timezone: Asia/Pyongyang
      - 
        alternate_names: 
          - Agochi
          - Agochi-do
          - Agochi-dŏ
          - Agoji-do
        ascii_name: Aoji-ri
        geonamesid: 2045311
        latitude: 42.52056
        longitude: 130.39528
        name: Aoji-ri
        names_en: ~
        names_es: ~
        population: 34248
        timezone: Asia/Pyongyang
      - 
        alternate_names: ~
        ascii_name: "Komusan 1-tong"
        geonamesid: 2050500
        latitude: 42.10917
        longitude: 129.7
        name: "Komusan 1-tong"
        names_en: ~
        names_es: ~
        population: 12242
        timezone: Asia/Pyongyang
    geonamesid: 2044245
    name: Hamgyŏng-bukto
    names_en: ~
    names_es: ~
  - 
    ascii_name: Chagang-do
    cities: 
      - 
        alternate_names: 
          - Uijil-li
          - Uijin-dong
          - Uijin-ni
          - uijindong
        ascii_name: Uijin-dong
        geonamesid: 2039625
        latitude: 40.97518
        longitude: 126.49584
        name: Ŭijin-dong
        names_en: ~
        names_es: ~
        population: 0
        timezone: Asia/Pyongyang
      - 
        alternate_names: 
          - Kakai
          - Kang-ge
          - Kange
          - Kanggye
        ascii_name: Kanggye-si
        geonamesid: 2043572
        latitude: 40.96946
        longitude: 126.58523
        name: Kanggye-si
        names_en: 
          - Kanggye
        names_es: ~
        population: 209530
        timezone: Asia/Pyongyang
      - 
        alternate_names: 
          - Hungju-dong
          - Hungju-ri
          - Hŭngju-dong
          - Hŭngju-ri
        ascii_name: Hungju-dong
        geonamesid: 2043983
        latitude: 40.99629
        longitude: 126.54756
        name: Hŭngju-dong
        names_en: ~
        names_es: ~
        population: 0
        timezone: Asia/Pyongyang
      - 
        alternate_names: 
          - Chasong
          - Chasong-up
          - Chasŏng
          - Chasŏng-ŭp
        ascii_name: Chasong
        geonamesid: 2045005
        latitude: 41.46083
        longitude: 126.64139
        name: Chasŏng
        names_en: ~
        names_es: ~
        population: 12736
        timezone: Asia/Pyongyang
    geonamesid: 2045265
    name: Chagang-do
    names_en: ~
    names_es: ~
  - 
    ascii_name: Nason-si
    cities: 
      - 
        alternate_names: 
          - Ongei
          - Sonbon
          - Sonbong
          - Sonbong-up
        ascii_name: Sonbong
        geonamesid: 2040674
        latitude: 42.34222
        longitude: 130.39667
        name: Sŏnbong
        names_en: ~
        names_es: ~
        population: 27331
        timezone: Asia/Pyongyang
      - 
        alternate_names: 
          - Najin
          - Najin-up
          - Najin-ŭp
          - Radzin
        ascii_name: Najin
        geonamesid: 2042645
        latitude: 42.24889
        longitude: 130.30028
        name: Najin
        names_en: ~
        names_es: ~
        population: 66224
        timezone: Asia/Pyongyang
    geonamesid: 2054927
    name: "Najin Sŏnbong-si"
    names_en: ~
    names_es: ~
