--- 
geonamesid: 4041468
iso: MP
name: "Northern Mariana Islands"
names_en: 
  - "Northern Mariana Islands"
names_es: 
  - "Islas Marianas del Norte"
regions: 
  - 
    ascii_name: "Northern Mariana Islands"
    cities: []
    geonamesid: 4041467
    name: "Northern Mariana Islands"
    names_en: 
      - "Northern Mariana Islands"
    names_es: 
      - "Islas Mariana del Norte"
  - 
    ascii_name: "Municipality of Rota"
    cities: 
      - 
        alternate_names: ~
        ascii_name: Songsong
        geonamesid: 4041579
        latitude: 14.13972
        longitude: 145.14111
        name: Songsong
        names_en: ~
        names_es: ~
        population: 1321
        timezone: Pacific/Saipan
    geonamesid: 4041530
    name: "Municipality of Rota"
    names_en: ~
    names_es: ~
  - 
    ascii_name: "Municipality of Saipan"
    cities: 
      - 
        alternate_names: ~
        ascii_name: "Capital Hill"
        geonamesid: 4041170
        latitude: 15.2
        longitude: 145.75194
        name: "Capital Hill"
        names_en: ~
        names_es: ~
        population: 1542
        timezone: Pacific/Saipan
      - 
        alternate_names: ~
        ascii_name: "Capitol Hill"
        geonamesid: 4041171
        latitude: 15.21083
        longitude: 145.75056
        name: "Capitol Hill"
        names_en: ~
        names_es: ~
        population: 0
        timezone: Pacific/Saipan
      - 
        alternate_names: ~
        ascii_name: "Chalan Kanoa"
        geonamesid: 4041177
        latitude: 15.14556
        longitude: 145.69917
        name: "Chalan Kanoa"
        names_en: ~
        names_es: ~
        population: 3207
        timezone: Pacific/Saipan
      - 
        alternate_names: ~
        ascii_name: Garapan
        geonamesid: 4041280
        latitude: 15.20694
        longitude: 145.715
        name: Garapan
        names_en: ~
        names_es: ~
        population: 4192
        timezone: Pacific/Saipan
      - 
        alternate_names: ~
        ascii_name: "Gualo Rai"
        geonamesid: 4041295
        latitude: 15.19083
        longitude: 145.7225
        name: "Gualo Rai"
        names_en: ~
        names_es: ~
        population: 2549
        timezone: Pacific/Saipan
      - 
        alternate_names: ~
        ascii_name: Koblerville
        geonamesid: 4041347
        latitude: 15.12056
        longitude: 145.70639
        name: Koblerville
        names_en: ~
        names_es: ~
        population: 3714
        timezone: Pacific/Saipan
      - 
        alternate_names: ~
        ascii_name: "San Antonio"
        geonamesid: 4041554
        latitude: 15.1325
        longitude: 145.69361
        name: "San Antonio"
        names_en: ~
        names_es: ~
        population: 5629
        timezone: Pacific/Saipan
      - 
        alternate_names: ~
        ascii_name: "San Roque"
        geonamesid: 4041560
        latitude: 15.24694
        longitude: 145.77278
        name: "San Roque"
        names_en: ~
        names_es: ~
        population: 1086
        timezone: Pacific/Saipan
      - 
        alternate_names: ~
        ascii_name: "San Vicente"
        geonamesid: 4041561
        latitude: 15.15167
        longitude: 145.73778
        name: "San Vicente"
        names_en: ~
        names_es: ~
        population: 4644
        timezone: Pacific/Saipan
      - 
        alternate_names: ~
        ascii_name: Susupe
        geonamesid: 4041584
        latitude: 15.15639
        longitude: 145.70583
        name: Susupe
        names_en: ~
        names_es: ~
        population: 2364
        timezone: Pacific/Saipan
      - 
        alternate_names: ~
        ascii_name: Tanapag
        geonamesid: 4041619
        latitude: 15.24111
        longitude: 145.7525
        name: Tanapag
        names_en: ~
        names_es: ~
        population: 4389
        timezone: Pacific/Saipan
    geonamesid: 4041552
    name: "Municipality of Saipan"
    names_en: ~
    names_es: ~
  - 
    ascii_name: "Municipality of Tinian"
    cities: 
      - 
        alternate_names: ~
        ascii_name: "San Jose"
        geonamesid: 4041558
        latitude: 14.96944
        longitude: 145.62278
        name: "San Jose"
        names_en: ~
        names_es: ~
        population: 1883
        timezone: Pacific/Saipan
    geonamesid: 4041650
    name: "Municipality of Tinian"
    names_en: ~
    names_es: ~
