--- 
geonamesid: 1168579
iso: PK
name: Pakistan
names_en: 
  - Pakistan
  - "Islamic Republic of Pakistan"
names_es: 
  - Pakistán
regions: 
  - 
    ascii_name: "Islamabad Capital Territory"
    cities: 
      - 
        alternate_names: 
          - Islamabad
          - Islamabade
          - Islamahbad
          - Islamampant
        ascii_name: Islamabad
        geonamesid: 1176615
        latitude: 33.72148
        longitude: 73.04329
        name: Islāmābād
        names_en: 
          - Islamabad
        names_es: 
          - Islamabad
        population: 601600
        timezone: Asia/Karachi
    geonamesid: 1162015
    name: Islāmābād
    names_en: ~
    names_es: ~
  - 
    ascii_name: Sindh
    cities: 
      - 
        alternate_names: ~
        ascii_name: "Chuhar Jamali"
        geonamesid: 1108161
        latitude: 24.38889
        longitude: 67.99306
        name: "Chuhar Jamāli"
        names_en: ~
        names_es: ~
        population: 15781
        timezone: Asia/Karachi
      - 
        alternate_names: 
          - "Pir Goth"
          - "Pir jo Goth"
          - "Pīr jo Goth"
        ascii_name: "Pir jo Goth"
        geonamesid: 1161991
        latitude: 27.59102
        longitude: 68.61786
        name: "Pīr jo Goth"
        names_en: ~
        names_es: ~
        population: 35537
        timezone: Asia/Karachi
      - 
        alternate_names: 
          - Khaipur
          - Khairpur
          - "Khairpur Mirs"
          - "Khairpur Mīrs"
        ascii_name: Khairpur
        geonamesid: 1162004
        latitude: 27.53333
        longitude: 68.76667
        name: Khairpur
        names_en: ~
        names_es: ~
        population: 124602
        timezone: Asia/Karachi
      - 
        alternate_names: 
          - Adalpur
          - Adilpur
          - Adulpoor
          - "Us'mar Ruk Malpur"
        ascii_name: Adilpur
        geonamesid: 1162035
        latitude: 27.93758
        longitude: 69.31926
        name: Ādilpur
        names_en: ~
        names_es: ~
        population: 8247
        timezone: Asia/Karachi
      - 
        alternate_names: ~
        ascii_name: Warah
        geonamesid: 1162589
        latitude: 27.45
        longitude: 67.8
        name: Wārāh
        names_en: ~
        names_es: ~
        population: 18724
        timezone: Asia/Karachi
      - 
        alternate_names: ~
        ascii_name: Umarkot
        geonamesid: 1162959
        latitude: 25.36667
        longitude: 69.73333
        name: Umarkot
        names_en: ~
        names_es: ~
        population: 42074
        timezone: Asia/Karachi
      - 
        alternate_names: ~
        ascii_name: Ubauro
        geonamesid: 1163021
        latitude: 28.16667
        longitude: 69.73333
        name: Ubauro
        names_en: ~
        names_es: ~
        population: 23462
        timezone: Asia/Karachi
      - 
        alternate_names: 
          - Thul
          - "Thul Sind"
        ascii_name: Thul
        geonamesid: 1163414
        latitude: 28.24185
        longitude: 68.7776
        name: Thul
        names_en: ~
        names_es: ~
        population: 34472
        timezone: Asia/Karachi
      - 
        alternate_names: 
          - Tatta
          - Thatta
        ascii_name: Thatta
        geonamesid: 1163582
        latitude: 24.74745
        longitude: 67.92353
        name: Thatta
        names_en: ~
        names_es: ~
        population: 44302
        timezone: Asia/Karachi
      - 
        alternate_names: ~
        ascii_name: "Tharu Shah"
        geonamesid: 1163595
        latitude: 26.94423
        longitude: 68.11602
        name: "Thāru Shāh"
        names_en: ~
        names_es: ~
        population: 17698
        timezone: Asia/Karachi
      - 
        alternate_names: 
          - Tangwan
          - Tangwani
          - Tangwān
          - Tangwāni
        ascii_name: Tangwani
        geonamesid: 1163912
        latitude: 28.2787
        longitude: 68.99718
        name: Tangwāni
        names_en: ~
        names_es: ~
        population: 9255
        timezone: Asia/Karachi
      - 
        alternate_names: 
          - "Tando Mohammad Khan"
          - "Tando Muhammad Khan"
          - "Tando Muhammad Khān"
        ascii_name: "Tando Muhammad Khan"
        geonamesid: 1163952
        latitude: 25.13333
        longitude: 68.53333
        name: "Tando Muhammad Khān"
        names_en: ~
        names_es: ~
        population: 72659
        timezone: Asia/Karachi
      - 
        alternate_names: 
          - "Tando Mittha Khan"
          - Tandomithakhan
          - "Tāndo Mittha Khān"
        ascii_name: "Tando Mittha Khan"
        geonamesid: 1163953
        latitude: 25.98333
        longitude: 69.2
        name: "Tāndo Mittha Khān"
        names_en: ~
        names_es: ~
        population: 2723
        timezone: Asia/Karachi
      - 
        alternate_names: ~
        ascii_name: "Tando Jam"
        geonamesid: 1163958
        latitude: 25.42718
        longitude: 68.53619
        name: "Tando Jām"
        names_en: ~
        names_es: ~
        population: 31612
        timezone: Asia/Karachi
      - 
        alternate_names: ~
        ascii_name: "Tando Bago"
        geonamesid: 1163964
        latitude: 24.78333
        longitude: 68.96667
        name: "Tando Bāgo"
        names_en: ~
        names_es: ~
        population: 14095
        timezone: Asia/Karachi
      - 
        alternate_names: 
          - "Tando Alahyar"
          - "Tando Allahyar"
          - "Tando Allāhyār"
        ascii_name: "Tando Allahyar"
        geonamesid: 1163965
        latitude: 25.46263
        longitude: 68.71923
        name: "Tando Allāhyār"
        names_en: ~
        names_es: ~
        population: 127202
        timezone: Asia/Karachi
      - 
        alternate_names: ~
        ascii_name: "Tando Adam"
        geonamesid: 1163967
        latitude: 25.76667
        longitude: 68.66667
        name: "Tando Ādam"
        names_en: ~
        names_es: ~
        population: 125598
        timezone: Asia/Karachi
      - 
        alternate_names: ~
        ascii_name: Talhar
        geonamesid: 1164045
        latitude: 24.88333
        longitude: 68.81667
        name: Talhār
        names_en: ~
        names_es: ~
        population: 21154
        timezone: Asia/Karachi
      - 
        alternate_names: 
          - Sukkur
          - Суккур
        ascii_name: Sukkur
        geonamesid: 1164408
        latitude: 27.7
        longitude: 68.86667
        name: Sukkur
        names_en: ~
        names_es: ~
        population: 417767
        timezone: Asia/Karachi
      - 
        alternate_names: 
          - Sobbodero
          - Sobhadero
          - "Sobho Dero"
          - Sobhādero
        ascii_name: Sobhadero
        geonamesid: 1164698
        latitude: 27.30556
        longitude: 68.39749
        name: Sobhādero
        names_en: ~
        names_es: ~
        population: 14623
        timezone: Asia/Karachi
      - 
        alternate_names: ~
        ascii_name: "Sita Road"
        geonamesid: 1164716
        latitude: 27.03333
        longitude: 67.85
        name: "Sīta Road"
        names_en: ~
        names_es: ~
        population: 27587
        timezone: Asia/Karachi
      - 
        alternate_names: 
          - Sinjhoro
          - Sinjihoro
        ascii_name: Sinjhoro
        geonamesid: 1164776
        latitude: 26.03333
        longitude: 68.8
        name: Sinjhoro
        names_en: ~
        names_es: ~
        population: 15970
        timezone: Asia/Karachi
      - 
        alternate_names: ~
        ascii_name: Shikarpur
        geonamesid: 1165108
        latitude: 27.95706
        longitude: 68.63789
        name: Shikārpur
        names_en: ~
        names_es: ~
        population: 156901
        timezone: Asia/Karachi
      - 
        alternate_names: 
          - "Shahpur Chaka"
          - "Shahpur Chakar"
          - "Shahpur Chaker"
          - "Shāhpur Chaka"
        ascii_name: "Shahpur Chakar"
        geonamesid: 1165507
        latitude: 26.15497
        longitude: 68.65093
        name: "Shāhpur Chākar"
        names_en: ~
        names_es: ~
        population: 21446
        timezone: Asia/Karachi
      - 
        alternate_names: ~
        ascii_name: Shahdadpur
        geonamesid: 1165635
        latitude: 25.93333
        longitude: 68.61667
        name: Shāhdādpur
        names_en: ~
        names_es: ~
        population: 67249
        timezone: Asia/Karachi
      - 
        alternate_names: 
          - Shahdadkot
          - Shahdadpur
          - Shāhdādkot
          - Shāhdādpur
        ascii_name: Shahdadkot
        geonamesid: 1165638
        latitude: 27.84771
        longitude: 67.9055
        name: Shāhdādkot
        names_en: ~
        names_es: ~
        population: 75411
        timezone: Asia/Karachi
      - 
        alternate_names: 
          - Sehwan
          - Sehwān
        ascii_name: Sehwan
        geonamesid: 1165789
        latitude: 26.43333
        longitude: 67.86667
        name: Sehwān
        names_en: ~
        names_es: ~
        population: 41150
        timezone: Asia/Karachi
      - 
        alternate_names: ~
        ascii_name: Sann
        geonamesid: 1166115
        latitude: 26.04184
        longitude: 68.13777
        name: Sann
        names_en: ~
        names_es: ~
        population: 8834
        timezone: Asia/Karachi
      - 
        alternate_names: 
          - Sangar
          - Sanghar
          - Sānghar
        ascii_name: Sanghar
        geonamesid: 1166164
        latitude: 26.03333
        longitude: 68.95
        name: Sānghar
        names_en: ~
        names_es: ~
        population: 62033
        timezone: Asia/Karachi
      - 
        alternate_names: 
          - Samara
          - Samaro
        ascii_name: Samaro
        geonamesid: 1166275
        latitude: 25.28333
        longitude: 69.4
        name: Samaro
        names_en: ~
        names_es: ~
        population: 8784
        timezone: Asia/Karachi
      - 
        alternate_names: 
          - Sakrand
          - Sakrano
        ascii_name: Sakrand
        geonamesid: 1166381
        latitude: 26.13839
        longitude: 68.27361
        name: Sakrand
        names_en: ~
        names_es: ~
        population: 31630
        timezone: Asia/Karachi
      - 
        alternate_names: 
          - Rustam
          - "Rustam jo Goth"
          - Rustom
        ascii_name: "Rustam jo Goth"
        geonamesid: 1166720
        latitude: 27.96897
        longitude: 68.80481
        name: "Rustam jo Goth"
        names_en: ~
        names_es: ~
        population: 9048
        timezone: Asia/Karachi
      - 
        alternate_names: 
          - Lohri
          - Rohri
        ascii_name: Rohri
        geonamesid: 1166827
        latitude: 27.68333
        longitude: 68.9
        name: Rohri
        names_en: ~
        names_es: ~
        population: 50649
        timezone: Asia/Karachi
      - 
        alternate_names: 
          - Dero
          - Rato
          - Ratodero
        ascii_name: Ratodero
        geonamesid: 1167031
        latitude: 27.80296
        longitude: 68.28708
        name: Ratodero
        names_en: ~
        names_es: ~
        population: 47819
        timezone: Asia/Karachi
      - 
        alternate_names: 
          - Ranipur
          - Raripur
          - Rānīpur
        ascii_name: Ranipur
        geonamesid: 1167142
        latitude: 27.29024
        longitude: 68.50592
        name: Rānīpur
        names_en: ~
        names_es: ~
        population: 22495
        timezone: Asia/Karachi
      - 
        alternate_names: ~
        ascii_name: "Rajo Khanani"
        geonamesid: 1167342
        latitude: 24.98333
        longitude: 68.85
        name: "Rājo Khanāni"
        names_en: ~
        names_es: ~
        population: 7683
        timezone: Asia/Karachi
      - 
        alternate_names: ~
        ascii_name: Radhan
        geonamesid: 1167501
        latitude: 27.18333
        longitude: 67.95
        name: Rādhan
        names_en: ~
        names_es: ~
        population: 16786
        timezone: Asia/Karachi
      - 
        alternate_names: 
          - Kambar
          - Qambar
          - Камбар
        ascii_name: Kambar
        geonamesid: 1167622
        latitude: 27.58676
        longitude: 68.00103
        name: Kambar
        names_en: ~
        names_es: ~
        population: 77481
        timezone: Asia/Karachi
      - 
        alternate_names: ~
        ascii_name: Pithoro
        geonamesid: 1167798
        latitude: 25.51667
        longitude: 69.38333
        name: Pithoro
        names_en: ~
        names_es: ~
        population: 6440
        timezone: Asia/Karachi
      - 
        alternate_names: ~
        ascii_name: Phulji
        geonamesid: 1168101
        latitude: 26.88333
        longitude: 67.68333
        name: Phūlji
        names_en: ~
        names_es: ~
        population: 7877
        timezone: Asia/Karachi
      - 
        alternate_names: 
          - "Pano Akil"
          - "Pano Aqil"
          - "Pāno Āqil"
        ascii_name: "Pano Aqil"
        geonamesid: 1168412
        latitude: 27.85875
        longitude: 69.10969
        name: "Pāno Āqil"
        names_en: ~
        names_es: ~
        population: 72881
        timezone: Asia/Karachi
      - 
        alternate_names: ~
        ascii_name: "Pad Idan"
        geonamesid: 1168652
        latitude: 26.77475
        longitude: 68.30197
        name: "Pad Īdan"
        names_en: ~
        names_es: ~
        population: 20919
        timezone: Asia/Karachi
      - 
        alternate_names: 
          - Nawabshah
          - Nawābshāh
        ascii_name: Nawabshah
        geonamesid: 1169116
        latitude: 26.25289
        longitude: 68.41052
        name: Nawābshāh
        names_en: 
          - Nawabshah
        names_es: ~
        population: 229504
        timezone: Asia/Karachi
      - 
        alternate_names: 
          - Naushahro
          - "Naushahro Firoz"
          - "Naushahro Fīroz"
          - "Naushahro Piroz"
        ascii_name: "Naushahro Firoz"
        geonamesid: 1169143
        latitude: 26.84238
        longitude: 68.12298
        name: "Naushahro Fīroz"
        names_en: ~
        names_es: ~
        population: 17631
        timezone: Asia/Karachi
      - 
        alternate_names: 
          - Naudero
          - Naundero
        ascii_name: Naudero
        geonamesid: 1169187
        latitude: 27.66477
        longitude: 68.36217
        name: Naudero
        names_en: ~
        names_es: ~
        population: 33455
        timezone: Asia/Karachi
      - 
        alternate_names: ~
        ascii_name: Nasirabad
        geonamesid: 1169254
        latitude: 27.38333
        longitude: 67.91667
        name: Nasīrābād
        names_en: ~
        names_es: ~
        population: 27809
        timezone: Asia/Karachi
      - 
        alternate_names: 
          - Naokot
          - Naukot
          - Nawakot
        ascii_name: Naukot
        geonamesid: 1169367
        latitude: 24.857
        longitude: 69.40337
        name: Naukot
        names_en: ~
        names_es: ~
        population: 22081
        timezone: Asia/Karachi
      - 
        alternate_names: 
          - Nabisar
          - Nabisarpat
          - Nabīsar
        ascii_name: Nabisar
        geonamesid: 1169580
        latitude: 25.06667
        longitude: 69.65
        name: Nabīsar
        names_en: ~
        names_es: ~
        population: 6256
        timezone: Asia/Karachi
      - 
        alternate_names: ~
        ascii_name: Moro
        geonamesid: 1170013
        latitude: 26.66459
        longitude: 68.00156
        name: Moro
        names_en: ~
        names_es: ~
        population: 76765
        timezone: Asia/Karachi
      - 
        alternate_names: 
          - Mithi
          - Mitti
        ascii_name: Mithi
        geonamesid: 1170219
        latitude: 24.73183
        longitude: 69.79811
        name: Mithi
        names_en: ~
        names_es: ~
        population: 23431
        timezone: Asia/Karachi
      - 
        alternate_names: 
          - Mirwah
          - "Mirwah Gorchani"
          - Mīrwāh
          - "Mīrwāh Gorchani"
        ascii_name: "Mirwah Gorchani"
        geonamesid: 1170281
        latitude: 25.31667
        longitude: 69.05
        name: "Mīrwāh Gorchani"
        names_en: ~
        names_es: ~
        population: 12139
        timezone: Asia/Karachi
      - 
        alternate_names: 
          - "Mipur Sakro"
          - "Mirpur Sakro"
          - "Mirpur Sukro"
          - "Mīrpur Sakro"
        ascii_name: "Mirpur Sakro"
        geonamesid: 1170290
        latitude: 24.54742
        longitude: 67.62771
        name: "Mīrpur Sakro"
        names_en: ~
        names_es: ~
        population: 8371
        timezone: Asia/Karachi
      - 
        alternate_names: 
          - Mirpur
          - "Mirpur Mathelo"
          - Mīrpur
          - "Mīrpur Māthelo"
        ascii_name: "Mirpur Mathelo"
        geonamesid: 1170294
        latitude: 28.03333
        longitude: 69.55
        name: "Mīrpur Māthelo"
        names_en: ~
        names_es: ~
        population: 49311
        timezone: Asia/Karachi
      - 
        alternate_names: 
          - "Mirpur Khas"
          - "Mīrpur Khās"
        ascii_name: "Mirpur Khas"
        geonamesid: 1170295
        latitude: 25.5251
        longitude: 69.0159
        name: "Mīrpur Khās"
        names_en: 
          - "Mīrpur Khās"
        names_es: ~
        population: 215657
        timezone: Asia/Karachi
      - 
        alternate_names: 
          - "Mirpur Bathoro"
          - "Mirpur Batoro"
          - "Mīrpur Batoro"
        ascii_name: "Mirpur Batoro"
        geonamesid: 1170299
        latitude: 24.72913
        longitude: 68.26237
        name: "Mīrpur Batoro"
        names_en: 
          - "Mīrpur Batoro"
        names_es: ~
        population: 8866
        timezone: Asia/Karachi
      - 
        alternate_names: ~
        ascii_name: "Miro Khan"
        geonamesid: 1170312
        latitude: 27.7604
        longitude: 68.09334
        name: "Mīro Khān"
        names_en: ~
        names_es: ~
        population: 10590
        timezone: Asia/Karachi
      - 
        alternate_names: ~
        ascii_name: Mehar
        geonamesid: 1170584
        latitude: 27.18333
        longitude: 67.81667
        name: Mehar
        names_en: ~
        names_es: ~
        population: 30429
        timezone: Asia/Karachi
      - 
        alternate_names: ~
        ascii_name: Matli
        geonamesid: 1170667
        latitude: 25.04312
        longitude: 68.65568
        name: Mātli
        names_en: ~
        names_es: ~
        population: 50398
        timezone: Asia/Karachi
      - 
        alternate_names: 
          - Matari
          - Matiari
          - Matiāri
        ascii_name: Matiari
        geonamesid: 1170677
        latitude: 25.59609
        longitude: 68.44666
        name: Matiāri
        names_en: 
          - Matiāri
        names_es: ~
        population: 18929
        timezone: Asia/Karachi
      - 
        alternate_names: ~
        ascii_name: Madeji
        geonamesid: 1171677
        latitude: 27.75344
        longitude: 68.46335
        name: Madeji
        names_en: ~
        names_es: ~
        population: 14802
        timezone: Asia/Karachi
      - 
        alternate_names: 
          - Larkana
          - Larkane
          - Lārkāna
          - Ларкане
        ascii_name: Larkana
        geonamesid: 1172128
        latitude: 27.55
        longitude: 68.21667
        name: Lārkāna
        names_en: 
          - Larkana
        names_es: ~
        population: 364033
        timezone: Asia/Karachi
      - 
        alternate_names: ~
        ascii_name: Lakhi
        geonamesid: 1172389
        latitude: 27.84958
        longitude: 68.69936
        name: Lakhi
        names_en: ~
        names_es: ~
        population: 13600
        timezone: Asia/Karachi
      - 
        alternate_names: ~
        ascii_name: Kunri
        geonamesid: 1172657
        latitude: 25.18333
        longitude: 69.56667
        name: Kunri
        names_en: ~
        names_es: ~
        population: 26773
        timezone: Asia/Karachi
      - 
        alternate_names: 
          - Koti
          - Kotri
        ascii_name: Kotri
        geonamesid: 1172904
        latitude: 25.3652
        longitude: 68.3152
        name: Kotri
        names_en: 
          - Kotri
        names_es: ~
        population: 72672
        timezone: Asia/Karachi
      - 
        alternate_names: 
          - Diji
          - "Kot Diji"
        ascii_name: "Kot Diji"
        geonamesid: 1173302
        latitude: 27.34272
        longitude: 68.70834
        name: "Kot Diji"
        names_en: ~
        names_es: ~
        population: 25616
        timezone: Asia/Karachi
      - 
        alternate_names: ~
        ascii_name: Khipro
        geonamesid: 1173889
        latitude: 25.83333
        longitude: 69.36667
        name: Khipro
        names_en: ~
        names_es: ~
        population: 28729
        timezone: Asia/Karachi
      - 
        alternate_names: 
          - Khanpoor
          - Khanpur
          - Khānpur
        ascii_name: Khanpur
        geonamesid: 1174171
        latitude: 27.84358
        longitude: 69.41373
        name: Khānpur
        names_en: ~
        names_es: ~
        population: 22273
        timezone: Asia/Karachi
      - 
        alternate_names: 
          - Khairpur
          - "Khairpur Nathan Shah"
          - "Khairpur Nathan Shāh"
          - "Khairpur Nathoshah"
        ascii_name: "Khairpur Nathan Shah"
        geonamesid: 1174344
        latitude: 27.1
        longitude: 67.73333
        name: "Khairpur Nathan Shāh"
        names_en: ~
        names_es: ~
        population: 30286
        timezone: Asia/Karachi
      - 
        alternate_names: 
          - Khairpur
          - "Khairpur Daherki"
          - Khajrpura
          - Хайрпура
        ascii_name: Khairpur
        geonamesid: 1174357
        latitude: 28.05
        longitude: 69.7
        name: Khairpur
        names_en: ~
        names_es: ~
        population: 40083
        timezone: Asia/Karachi
      - 
        alternate_names: ~
        ascii_name: Khadro
        geonamesid: 1174408
        latitude: 26.14795
        longitude: 68.71552
        name: Khadro
        names_en: ~
        names_es: ~
        population: 9997
        timezone: Asia/Karachi
      - 
        alternate_names: 
          - Keti
          - "Keti Bandar"
          - Ketibunder
        ascii_name: "Keti Bandar"
        geonamesid: 1174451
        latitude: 24.14472
        longitude: 67.44972
        name: "Keti Bandar"
        names_en: ~
        names_es: ~
        population: 2934
        timezone: Asia/Karachi
      - 
        alternate_names: 
          - Kashmor
          - Kashmore
        ascii_name: Kashmor
        geonamesid: 1174653
        latitude: 28.43333
        longitude: 69.58333
        name: Kashmor
        names_en: ~
        names_es: ~
        population: 33732
        timezone: Asia/Karachi
      - 
        alternate_names: ~
        ascii_name: Kario
        geonamesid: 1174765
        latitude: 24.81667
        longitude: 68.6
        name: Kario
        names_en: ~
        names_es: ~
        population: 5685
        timezone: Asia/Karachi
      - 
        alternate_names: 
          - Karaundi
          - Karundi
        ascii_name: Karaundi
        geonamesid: 1174815
        latitude: 26.88333
        longitude: 68.45
        name: Karaundi
        names_en: ~
        names_es: ~
        population: 8604
        timezone: Asia/Karachi
      - 
        alternate_names: 
          - Carachi
          - Karachi
          - "Karachi - krachy"
          - "Karachi - كراچى"
        ascii_name: Karachi
        geonamesid: 1174872
        latitude: 24.9056
        longitude: 67.0822
        name: Karachi
        names_en: 
          - Karachi
          - Karāchi
        names_es: 
          - Karachi
        population: 11624219
        timezone: Asia/Karachi
      - 
        alternate_names: 
          - Kandiaro
          - Kandiāro
        ascii_name: Kandiaro
        geonamesid: 1175010
        latitude: 27.06259
        longitude: 68.21016
        name: Kandiāro
        names_en: ~
        names_es: ~
        population: 26807
        timezone: Asia/Karachi
      - 
        alternate_names: ~
        ascii_name: Kandiari
        geonamesid: 1175012
        latitude: 26.91667
        longitude: 68.51667
        name: Kandiāri
        names_en: ~
        names_es: ~
        population: 6861
        timezone: Asia/Karachi
      - 
        alternate_names: ~
        ascii_name: Kandhkot
        geonamesid: 1175021
        latitude: 28.23333
        longitude: 69.18333
        name: Kandhkot
        names_en: ~
        names_es: ~
        population: 88468
        timezone: Asia/Karachi
      - 
        alternate_names: ~
        ascii_name: Kadhan
        geonamesid: 1175506
        latitude: 24.48333
        longitude: 68.98333
        name: Kadhan
        names_en: ~
        names_es: ~
        population: 6854
        timezone: Asia/Karachi
      - 
        alternate_names: ~
        ascii_name: Johi
        geonamesid: 1175678
        latitude: 26.68333
        longitude: 67.61667
        name: Johi
        names_en: ~
        names_es: ~
        population: 16311
        timezone: Asia/Karachi
      - 
        alternate_names: ~
        ascii_name: Jhol
        geonamesid: 1175762
        latitude: 25.95507
        longitude: 68.88821
        name: Jhol
        names_en: ~
        names_es: ~
        population: 16067
        timezone: Asia/Karachi
      - 
        alternate_names: 
          - Jati
          - Jāti
          - "Mughal Bhim"
          - Mughalbhin
        ascii_name: Jati
        geonamesid: 1176048
        latitude: 24.35563
        longitude: 68.27225
        name: Jāti
        names_en: ~
        names_es: ~
        population: 9152
        timezone: Asia/Karachi
      - 
        alternate_names: 
          - "Jam Shoro"
          - "Jams Shoro"
          - Jamsboro
          - Jamshore
        ascii_name: Jamshoro
        geonamesid: 1176229
        latitude: 25.4268
        longitude: 68.2799
        name: Jamshoro
        names_en: 
          - "Jām Shoro"
          - Jamshoro
        names_es: ~
        population: 0
        timezone: Asia/Karachi
      - 
        alternate_names: 
          - Jacobabad
          - Jacobadad
          - Jacobābād
          - Jacobādad
        ascii_name: Jacobabad
        geonamesid: 1176515
        latitude: 28.28673
        longitude: 68.43316
        name: Jacobābād
        names_en: ~
        names_es: ~
        population: 170588
        timezone: Asia/Karachi
      - 
        alternate_names: ~
        ascii_name: Islamkot
        geonamesid: 1176608
        latitude: 24.6997
        longitude: 70.177
        name: Islāmkot
        names_en: ~
        names_es: ~
        population: 12426
        timezone: Asia/Karachi
      - 
        alternate_names: 
          - Haidarabad
          - Hyderabad
          - Hyderābād
          - Khajdarabad
        ascii_name: Hyderabad
        geonamesid: 1176734
        latitude: 25.3823
        longitude: 68.3699
        name: Hyderābād
        names_en: 
          - Hyderabad
          - Hyderābād
        names_es: 
          - Hyderabad
        population: 1386330
        timezone: Asia/Karachi
      - 
        alternate_names: ~
        ascii_name: Hingorja
        geonamesid: 1176889
        latitude: 27.21168
        longitude: 68.41577
        name: Hingorja
        names_en: ~
        names_es: ~
        population: 22263
        timezone: Asia/Karachi
      - 
        alternate_names: 
          - Ghotki
          - Gotki
        ascii_name: Ghotki
        geonamesid: 1178456
        latitude: 28.00604
        longitude: 69.31608
        name: Ghotki
        names_en: 
          - Ghotki
        names_es: ~
        population: 64295
        timezone: Asia/Karachi
      - 
        alternate_names: 
          - Ghauspur
          - Ghouspur
        ascii_name: Ghauspur
        geonamesid: 1178560
        latitude: 28.13762
        longitude: 69.08316
        name: Ghauspur
        names_en: ~
        names_es: ~
        population: 29767
        timezone: Asia/Karachi
      - 
        alternate_names: 
          - Garho
          - Gharo
          - Ghāro
        ascii_name: Gharo
        geonamesid: 1178587
        latitude: 24.74241
        longitude: 67.58565
        name: Ghāro
        names_en: ~
        names_es: ~
        population: 19524
        timezone: Asia/Karachi
      - 
        alternate_names: 
          - "Garhi Yasin"
          - "Garhi Yāsīn"
          - "Gari Yasin"
          - "Gharhi Yasin"
        ascii_name: "Garhi Yasin"
        geonamesid: 1178843
        latitude: 27.9069
        longitude: 68.51096
        name: "Garhi Yāsīn"
        names_en: ~
        names_es: ~
        population: 14810
        timezone: Asia/Karachi
      - 
        alternate_names: 
          - "Garhi Khairo"
          - "Khaira Garhi"
          - "Khaira Gārhi"
        ascii_name: "Garhi Khairo"
        geonamesid: 1178858
        latitude: 28.061
        longitude: 67.9822
        name: "Garhi Khairo"
        names_en: ~
        names_es: ~
        population: 13666
        timezone: Asia/Karachi
      - 
        alternate_names: 
          - Garelo
          - "Goth Garelo"
        ascii_name: "Goth Garelo"
        geonamesid: 1178902
        latitude: 27.43517
        longitude: 68.0755
        name: "Goth Garelo"
        names_en: ~
        names_es: ~
        population: 6853
        timezone: Asia/Karachi
      - 
        alternate_names: 
          - Gambat
          - Gampat
          - Gumbad
        ascii_name: Gambat
        geonamesid: 1179061
        latitude: 27.35145
        longitude: 68.52051
        name: Gambat
        names_en: ~
        names_es: ~
        population: 34005
        timezone: Asia/Karachi
      - 
        alternate_names: ~
        ascii_name: Dokri
        geonamesid: 1179660
        latitude: 27.37427
        longitude: 68.09673
        name: Dokri
        names_en: ~
        names_es: ~
        population: 14800
        timezone: Asia/Karachi
      - 
        alternate_names: ~
        ascii_name: Diplo
        geonamesid: 1179758
        latitude: 24.46667
        longitude: 69.58401
        name: Diplo
        names_en: ~
        names_es: ~
        population: 11575
        timezone: Asia/Karachi
      - 
        alternate_names: ~
        ascii_name: Digri
        geonamesid: 1179837
        latitude: 25.16667
        longitude: 69.11667
        name: Digri
        names_en: ~
        names_es: ~
        population: 31842
        timezone: Asia/Karachi
      - 
        alternate_names: ~
        ascii_name: "Dhoro Naro"
        geonamesid: 1179902
        latitude: 25.5
        longitude: 69.56667
        name: "Dhoro Nāro"
        names_en: ~
        names_es: ~
        population: 19907
        timezone: Asia/Karachi
      - 
        alternate_names: ~
        ascii_name: Daur
        geonamesid: 1180374
        latitude: 26.45834
        longitude: 68.31915
        name: Daur
        names_en: ~
        names_es: ~
        population: 17577
        timezone: Asia/Karachi
      - 
        alternate_names: 
          - Daulatpur
          - Doulatpur
        ascii_name: Daulatpur
        geonamesid: 1180397
        latitude: 26.50188
        longitude: 67.97242
        name: Daulatpur
        names_en: ~
        names_es: ~
        population: 14574
        timezone: Asia/Karachi
      - 
        alternate_names: 
          - "Darya Khan Mari"
          - "Darya Khan Marri"
          - "Darya Khān Marri"
        ascii_name: "Darya Khan Marri"
        geonamesid: 1180453
        latitude: 26.67748
        longitude: 68.2859
        name: "Darya Khān Marri"
        names_en: ~
        names_es: ~
        population: 8973
        timezone: Asia/Karachi
      - 
        alternate_names: 
          - Daro
          - "Daro Mehar"
          - Durro
          - "Dāro Mehar"
        ascii_name: "Daro Mehar"
        geonamesid: 1180491
        latitude: 24.79463
        longitude: 68.18052
        name: "Dāro Mehar"
        names_en: ~
        names_es: ~
        population: 10869
        timezone: Asia/Karachi
      - 
        alternate_names: ~
        ascii_name: Dadu
        geonamesid: 1180809
        latitude: 26.73333
        longitude: 67.78333
        name: Dādu
        names_en: ~
        names_es: ~
        population: 139784
        timezone: Asia/Karachi
      - 
        alternate_names: 
          - Chhor
          - "Chhor Purano"
          - Chor
        ascii_name: Chor
        geonamesid: 1181022
        latitude: 25.51667
        longitude: 69.76667
        name: Chor
        names_en: ~
        names_es: ~
        population: 16301
        timezone: Asia/Karachi
      - 
        alternate_names: 
          - Chakkar
          - Chambar
        ascii_name: Chambar
        geonamesid: 1181600
        latitude: 25.29313
        longitude: 68.81201
        name: Chambar
        names_en: ~
        names_es: ~
        population: 12746
        timezone: Asia/Karachi
      - 
        alternate_names: ~
        ascii_name: Chak
        geonamesid: 1181910
        latitude: 27.85754
        longitude: 68.83292
        name: Chak
        names_en: ~
        names_es: ~
        population: 14275
        timezone: Asia/Karachi
      - 
        alternate_names: ~
        ascii_name: Bulri
        geonamesid: 1182159
        latitude: 24.86667
        longitude: 68.33333
        name: Bulri
        names_en: ~
        names_es: ~
        population: 4997
        timezone: Asia/Karachi
      - 
        alternate_names: ~
        ascii_name: Bozdar
        geonamesid: 1182295
        latitude: 27.18452
        longitude: 68.63645
        name: Bozdar
        names_en: ~
        names_es: ~
        population: 9175
        timezone: Asia/Karachi
      - 
        alternate_names: 
          - "Bhit Shah"
          - "Bhit Shāh"
        ascii_name: "Bhit Shah"
        geonamesid: 1182607
        latitude: 25.80437
        longitude: 68.49265
        name: "Bhit Shāh"
        names_en: 
          - "Bhit Shāh"
        names_es: ~
        population: 19325
        timezone: Asia/Karachi
      - 
        alternate_names: ~
        ascii_name: Bhiria
        geonamesid: 1182622
        latitude: 26.91222
        longitude: 68.19492
        name: Bhiria
        names_en: ~
        names_es: ~
        population: 12186
        timezone: Asia/Karachi
      - 
        alternate_names: ~
        ascii_name: Bhan
        geonamesid: 1182775
        latitude: 26.55
        longitude: 67.71667
        name: Bhān
        names_en: ~
        names_es: ~
        population: 16961
        timezone: Asia/Karachi
      - 
        alternate_names: ~
        ascii_name: Berani
        geonamesid: 1182953
        latitude: 25.785
        longitude: 68.80686
        name: Berāni
        names_en: ~
        names_es: ~
        population: 9975
        timezone: Asia/Karachi
      - 
        alternate_names: ~
        ascii_name: Bandhi
        geonamesid: 1183511
        latitude: 26.58415
        longitude: 68.30037
        name: Bāndhi
        names_en: ~
        names_es: ~
        population: 8608
        timezone: Asia/Karachi
      - 
        alternate_names: 
          - Bagarji
          - Bagerji
          - Bāgarji
        ascii_name: Bagarji
        geonamesid: 1184008
        latitude: 27.75599
        longitude: 68.75236
        name: Bāgarji
        names_en: ~
        names_es: ~
        population: 8005
        timezone: Asia/Karachi
      - 
        alternate_names: ~
        ascii_name: Badin
        geonamesid: 1184055
        latitude: 24.65
        longitude: 68.83333
        name: Badīn
        names_en: ~
        names_es: ~
        population: 73569
        timezone: Asia/Karachi
      - 
        alternate_names: ~
        ascii_name: "New Badah"
        geonamesid: 1357699
        latitude: 27.34167
        longitude: 68.03194
        name: "New Bādāh"
        names_en: ~
        names_es: ~
        population: 38855
        timezone: Asia/Karachi
      - 
        alternate_names: ~
        ascii_name: "Tando Ghulam Ali"
        geonamesid: 1360491
        latitude: 25.13056
        longitude: 68.86667
        name: "Tando Ghulām Ali"
        names_en: ~
        names_es: ~
        population: 16299
        timezone: Asia/Karachi
      - 
        alternate_names: ~
        ascii_name: "Jam Sahib"
        geonamesid: 1403734
        latitude: 26.29583
        longitude: 68.62917
        name: "Jām Sāhib"
        names_en: ~
        names_es: ~
        population: 6869
        timezone: Asia/Karachi
      - 
        alternate_names: ~
        ascii_name: "Setharja Old"
        geonamesid: 1412008
        latitude: 27.21427
        longitude: 68.46868
        name: "Sethārja Old"
        names_en: ~
        names_es: ~
        population: 32651
        timezone: Asia/Karachi
    geonamesid: 1164807
    name: Sindh
    names_en: ~
    names_es: ~
  - 
    ascii_name: Punjab
    cities: 
      - 
        alternate_names: ~
        ascii_name: "Zahir Pir"
        geonamesid: 1162275
        latitude: 28.81137
        longitude: 70.52172
        name: "Zāhir Pīr"
        names_en: ~
        names_es: ~
        population: 34121
        timezone: Asia/Karachi
      - 
        alternate_names: 
          - Zafarwal
          - Zafarwāl
          - Zaffarwal
        ascii_name: Zafarwal
        geonamesid: 1162285
        latitude: 32.34631
        longitude: 74.89987
        name: Zafarwāl
        names_en: ~
        names_es: ~
        population: 23078
        timezone: Asia/Karachi
      - 
        alternate_names: 
          - Rohotwali
          - Rohotwāli
          - Yazman
          - "Yazman Mandi"
        ascii_name: "Yazman Mandi"
        geonamesid: 1162316
        latitude: 29.12374
        longitude: 71.74436
        name: "Yazmān Mandi"
        names_en: 
          - "Yazmān Mandi"
          - Yazmān
        names_es: ~
        population: 24580
        timezone: Asia/Karachi
      - 
        alternate_names: ~
        ascii_name: Wazirabad
        geonamesid: 1162456
        latitude: 32.44465
        longitude: 74.116
        name: Wazīrābād
        names_en: ~
        names_es: ~
        population: 102444
        timezone: Asia/Karachi
      - 
        alternate_names: 
          - Uorberton
          - Warburton
          - Уорбертон
        ascii_name: Warburton
        geonamesid: 1162572
        latitude: 31.55
        longitude: 73.83333
        name: Warburton
        names_en: ~
        names_es: ~
        population: 24295
        timezone: Asia/Karachi
      - 
        alternate_names: 
          - Vehari
          - Vihari
          - Vihāri
        ascii_name: Vihari
        geonamesid: 1162813
        latitude: 30.03333
        longitude: 72.35
        name: Vihāri
        names_en: 
          - Vehari
        names_es: ~
        population: 112840
        timezone: Asia/Karachi
      - 
        alternate_names: 
          - "Toba Tek Singh"
        ascii_name: "Toba Tek Singh"
        geonamesid: 1163272
        latitude: 30.97459
        longitude: 72.48266
        name: "Toba Tek Singh"
        names_en: ~
        names_es: ~
        population: 69064
        timezone: Asia/Karachi
      - 
        alternate_names: ~
        ascii_name: Taunsa
        geonamesid: 1163724
        latitude: 30.70484
        longitude: 70.65051
        name: Taunsa
        names_en: ~
        names_es: ~
        population: 44869
        timezone: Asia/Karachi
      - 
        alternate_names: ~
        ascii_name: Tandlianwala
        geonamesid: 1163968
        latitude: 31.03333
        longitude: 73.13333
        name: Tāndliānwāla
        names_en: ~
        names_es: ~
        population: 38285
        timezone: Asia/Karachi
      - 
        alternate_names: 
          - Talamba
          - Tolamba
          - "Tulamba Town"
        ascii_name: Talamba
        geonamesid: 1164064
        latitude: 30.52708
        longitude: 72.24011
        name: Talamba
        names_en: ~
        names_es: ~
        population: 28151
        timezone: Asia/Karachi
      - 
        alternate_names: ~
        ascii_name: Talagang
        geonamesid: 1164069
        latitude: 32.92973
        longitude: 72.41583
        name: Talagang
        names_en: ~
        names_es: ~
        population: 44960
        timezone: Asia/Karachi
      - 
        alternate_names: ~
        ascii_name: "Sukheke Mandi"
        geonamesid: 1164419
        latitude: 31.86388
        longitude: 73.51122
        name: "Sukheke Mandi"
        names_en: ~
        names_es: ~
        population: 32836
        timezone: Asia/Karachi
      - 
        alternate_names: 
          - Sodhra
          - Sodlira
          - "Sohdra Town"
        ascii_name: Sodhra
        geonamesid: 1164679
        latitude: 32.46162
        longitude: 74.18234
        name: Sodhra
        names_en: ~
        names_es: ~
        population: 15977
        timezone: Asia/Karachi
      - 
        alternate_names: 
          - Sillanwali
          - Sillānwāli
        ascii_name: Sillanwali
        geonamesid: 1164825
        latitude: 31.82917
        longitude: 72.53944
        name: Sillānwāli
        names_en: ~
        names_es: ~
        population: 27023
        timezone: Asia/Karachi
      - 
        alternate_names: 
          - Sialkot
          - Siālkot
          - Сиалкот
        ascii_name: Sialkot
        geonamesid: 1164909
        latitude: 32.5101
        longitude: 74.54313
        name: Siālkot
        names_en: 
          - Sialkot
        names_es: ~
        population: 477396
        timezone: Asia/Karachi
      - 
        alternate_names: 
          - Shujaabad
          - Shujabad
          - Shujāābād
        ascii_name: Shujaabad
        geonamesid: 1164970
        latitude: 29.87967
        longitude: 71.29313
        name: Shujāābād
        names_en: ~
        names_es: ~
        population: 65952
        timezone: Asia/Karachi
      - 
        alternate_names: 
          - "Qila Sheikhupura"
          - Sheikhupura
          - Shekhupura
          - Shekhūpura
        ascii_name: Sheikhupura
        geonamesid: 1165221
        latitude: 31.71306
        longitude: 73.97833
        name: Sheikhupura
        names_en: ~
        names_es: ~
        population: 361303
        timezone: Asia/Karachi
      - 
        alternate_names: 
          - Sharakpur
          - Shargpur
          - Sharqpur
        ascii_name: Sharqpur
        geonamesid: 1165260
        latitude: 31.46333
        longitude: 74.1
        name: Sharqpur
        names_en: ~
        names_es: ~
        population: 31855
        timezone: Asia/Karachi
      - 
        alternate_names: ~
        ascii_name: Shakargarr
        geonamesid: 1165388
        latitude: 32.26232
        longitude: 75.16682
        name: Shakargarr
        names_en: ~
        names_es: ~
        population: 64304
        timezone: Asia/Karachi
      - 
        alternate_names: ~
        ascii_name: "Shahr Sultan"
        geonamesid: 1165486
        latitude: 29.57646
        longitude: 71.02116
        name: "Shahr Sultān"
        names_en: ~
        names_es: ~
        population: 16166
        timezone: Asia/Karachi
      - 
        alternate_names: ~
        ascii_name: Shahpur
        geonamesid: 1165518
        latitude: 32.26767
        longitude: 72.47334
        name: Shāhpur
        names_en: ~
        names_es: ~
        population: 14153
        timezone: Asia/Karachi
      - 
        alternate_names: 
          - Sargodha
          - Sargodkha
          - Саргодха
        ascii_name: Sargodha
        geonamesid: 1166000
        latitude: 32.08361
        longitude: 72.67111
        name: Sargodha
        names_en: 
          - Sargodha
        names_es: ~
        population: 542603
        timezone: Asia/Karachi
      - 
        alternate_names: ~
        ascii_name: "Sarai Sidhu"
        geonamesid: 1166062
        latitude: 30.59489
        longitude: 71.96977
        name: "Sarāi Sidhu"
        names_en: ~
        names_es: ~
        population: 15632
        timezone: Asia/Karachi
      - 
        alternate_names: 
          - "Sarai Alamgir"
          - "Sarāi Ālamgīr"
        ascii_name: "Sarai Alamgir"
        geonamesid: 1166073
        latitude: 32.90122
        longitude: 73.75591
        name: "Sarāi Ālamgīr"
        names_en: ~
        names_es: ~
        population: 44120
        timezone: Asia/Karachi
      - 
        alternate_names: ~
        ascii_name: Sanjwal
        geonamesid: 1166118
        latitude: 33.76083
        longitude: 72.43361
        name: Sanjwāl
        names_en: ~
        names_es: ~
        population: 10657
        timezone: Asia/Karachi
      - 
        alternate_names: 
          - Sangla
          - "Sangla Hill"
          - Sāngla
        ascii_name: Sangla
        geonamesid: 1166146
        latitude: 31.71667
        longitude: 73.38333
        name: Sāngla
        names_en: ~
        names_es: ~
        population: 57002
        timezone: Asia/Karachi
      - 
        alternate_names: 
          - Sambrial
          - Sambriāl
        ascii_name: Sambrial
        geonamesid: 1166265
        latitude: 32.47455
        longitude: 74.35209
        name: Sambriāl
        names_en: ~
        names_es: ~
        population: 62874
        timezone: Asia/Karachi
      - 
        alternate_names: 
          - Sahiwal
          - Sakhivale
          - Sohiwal
          - Sāhīwāl
        ascii_name: Sahiwal
        geonamesid: 1166547
        latitude: 31.97306
        longitude: 72.32556
        name: Sāhīwāl
        names_en: ~
        names_es: ~
        population: 37186
        timezone: Asia/Karachi
      - 
        alternate_names: 
          - Montgomery
          - Sahiwal
          - Sakhivale
          - Sāhīwāl
        ascii_name: Montgomery
        geonamesid: 1166548
        latitude: 30.66667
        longitude: 73.1
        name: Montgomery
        names_en: ~
        names_es: ~
        population: 235695
        timezone: Asia/Karachi
      - 
        alternate_names: 
          - Sadikabad
          - Sadiqabad
          - Sādikābād
          - Sādiqābād
        ascii_name: Sadiqabad
        geonamesid: 1166652
        latitude: 28.3
        longitude: 70.13333
        name: Sādiqābād
        names_en: ~
        names_es: ~
        population: 189876
        timezone: Asia/Karachi
      - 
        alternate_names: ~
        ascii_name: Rojhan
        geonamesid: 1166819
        latitude: 28.68796
        longitude: 69.9539
        name: Rojhān
        names_en: ~
        names_es: ~
        population: 13031
        timezone: Asia/Karachi
      - 
        alternate_names: 
          - Renala
          - "Renala Khurd"
          - Renāla
          - "Renāla Khurd"
        ascii_name: "Renala Khurd"
        geonamesid: 1166933
        latitude: 30.88333
        longitude: 73.6
        name: "Renāla Khurd"
        names_en: ~
        names_es: ~
        population: 37111
        timezone: Asia/Karachi
      - 
        alternate_names: 
          - Ralalpindi
          - Ravalpindi
          - Ravalpindis
          - Rawalpindi
        ascii_name: Rawalpindi
        geonamesid: 1166993
        latitude: 33.6007
        longitude: 73.0679
        name: Rāwalpindi
        names_en: 
          - Rawalpindi
          - Rāwalpindi
        names_es: 
          - Rawalpindi
        population: 1743101
        timezone: Asia/Karachi
      - 
        alternate_names: 
          - Ramnagar
          - Rasulnagar
          - Rasulnager
          - Rasūlnagar
        ascii_name: Rasulnagar
        geonamesid: 1167064
        latitude: 32.32853
        longitude: 73.78136
        name: Rasūlnagar
        names_en: ~
        names_es: ~
        population: 14392
        timezone: Asia/Karachi
      - 
        alternate_names: ~
        ascii_name: Rajanpur
        geonamesid: 1167380
        latitude: 29.10351
        longitude: 70.32504
        name: Rājanpur
        names_en: ~
        names_es: ~
        population: 50682
        timezone: Asia/Karachi
      - 
        alternate_names: 
          - "Baja Jang"
          - "Raja Jang"
          - "Rāja Jang"
        ascii_name: "Raja Jang"
        geonamesid: 1167386
        latitude: 31.22083
        longitude: 74.25194
        name: "Rāja Jang"
        names_en: ~
        names_es: ~
        population: 24407
        timezone: Asia/Karachi
      - 
        alternate_names: 
          - Raiwind
          - Rāiwind
        ascii_name: Raiwind
        geonamesid: 1167398
        latitude: 31.25444
        longitude: 74.21778
        name: Rāiwind
        names_en: ~
        names_es: ~
        population: 31592
        timezone: Asia/Karachi
      - 
        alternate_names: ~
        ascii_name: "Qadirpur Ran"
        geonamesid: 1167648
        latitude: 30.29238
        longitude: 71.67117
        name: "Qādirpur Rān"
        names_en: ~
        names_es: ~
        population: 20407
        timezone: Asia/Karachi
      - 
        alternate_names: ~
        ascii_name: "Pir Mahal"
        geonamesid: 1167873
        latitude: 30.76667
        longitude: 72.43333
        name: "Pīr Mahal"
        names_en: ~
        names_es: ~
        population: 35343
        timezone: Asia/Karachi
      - 
        alternate_names: ~
        ascii_name: "Pindi Gheb"
        geonamesid: 1168015
        latitude: 33.24024
        longitude: 72.26609
        name: "Pindi Gheb"
        names_en: ~
        names_es: ~
        population: 34301
        timezone: Asia/Karachi
      - 
        alternate_names: 
          - "Pindi Battian"
          - "Pindi Bhatian"
          - "Pindi Bhattian"
          - "Pindi Bhattiān"
        ascii_name: "Pindi Bhattian"
        geonamesid: 1168021
        latitude: 31.89781
        longitude: 73.27302
        name: "Pindi Bhattiān"
        names_en: ~
        names_es: ~
        population: 35088
        timezone: Asia/Karachi
      - 
        alternate_names: 
          - "Pind Dadan Khan"
          - "Pind Dādan Khān"
          - "Pindi Dadan Khan"
        ascii_name: "Pind Dadan Khan"
        geonamesid: 1168036
        latitude: 32.58789
        longitude: 73.04564
        name: "Pind Dādan Khān"
        names_en: ~
        names_es: ~
        population: 22001
        timezone: Asia/Karachi
      - 
        alternate_names: 
          - Phalia
          - Phālia
        ascii_name: Phalia
        geonamesid: 1168166
        latitude: 32.42973
        longitude: 73.57745
        name: Phālia
        names_en: ~
        names_es: ~
        population: 24789
        timezone: Asia/Karachi
      - 
        alternate_names: 
          - "Mandi Pattoki"
          - Pattoki
        ascii_name: Pattoki
        geonamesid: 1168226
        latitude: 31.01667
        longitude: 73.85
        name: Pattoki
        names_en: ~
        names_es: ~
        population: 70436
        timezone: Asia/Karachi
      - 
        alternate_names: 
          - Pasrur
          - Pasrūr
          - Pasur
          - Pasūr
        ascii_name: Pasrur
        geonamesid: 1168307
        latitude: 32.26413
        longitude: 74.66342
        name: Pasrūr
        names_en: ~
        names_es: ~
        population: 53364
        timezone: Asia/Karachi
      - 
        alternate_names: 
          - Pakpattan
          - Pākpattan
        ascii_name: Pakpattan
        geonamesid: 1168555
        latitude: 30.35
        longitude: 73.4
        name: Pākpattan
        names_en: ~
        names_es: ~
        population: 126706
        timezone: Asia/Karachi
      - 
        alternate_names: 
          - Okara
          - Okāra
          - Окара
        ascii_name: Okara
        geonamesid: 1168718
        latitude: 30.80806
        longitude: 73.44583
        name: Okāra
        names_en: ~
        names_es: ~
        population: 223648
        timezone: Asia/Karachi
      - 
        alternate_names: 
          - "Naushahra Virkan"
          - "Naushahra Virkhan"
          - "Naushahra Virkān"
          - "Naushehra Werkan"
        ascii_name: "Naushahra Virkan"
        geonamesid: 1169145
        latitude: 31.96098
        longitude: 73.97309
        name: "Naushahra Virkān"
        names_en: ~
        names_es: ~
        population: 40853
        timezone: Asia/Karachi
      - 
        alternate_names: ~
        ascii_name: Narowal
        geonamesid: 1169278
        latitude: 32.1
        longitude: 74.88333
        name: Nārowāl
        names_en: ~
        names_es: ~
        population: 68291
        timezone: Asia/Karachi
      - 
        alternate_names: 
          - Narang
          - Nārang
          - Наранг
        ascii_name: Narang
        geonamesid: 1169334
        latitude: 31.9132
        longitude: 74.51756
        name: Nārang
        names_en: ~
        names_es: ~
        population: 34778
        timezone: Asia/Karachi
      - 
        alternate_names: 
          - "Nanakana Sahib"
          - "Nankana Municipality"
          - "Nankana Sahib"
          - "Nankāna Sāhib"
        ascii_name: "Nankana Sahib"
        geonamesid: 1169372
        latitude: 31.4475
        longitude: 73.69722
        name: "Nankāna Sāhib"
        names_en: ~
        names_es: ~
        population: 56366
        timezone: Asia/Karachi
      - 
        alternate_names: 
          - Muzaffargar
          - Muzaffargarh
          - Музаффаргар
        ascii_name: Muzaffargarh
        geonamesid: 1169605
        latitude: 30.07537
        longitude: 71.19213
        name: Muzaffargarh
        names_en: 
          - Muzaffargarh
        names_es: 
          - Muzaffargarh
        population: 165192
        timezone: Asia/Karachi
      - 
        alternate_names: ~
        ascii_name: Mustafabad
        geonamesid: 1169620
        latitude: 30.89222
        longitude: 73.49889
        name: Mustafābād
        names_en: ~
        names_es: ~
        population: 45795
        timezone: Asia/Karachi
      - 
        alternate_names: 
          - Murree
        ascii_name: Murree
        geonamesid: 1169684
        latitude: 33.9049
        longitude: 73.3925
        name: Murree
        names_en: 
          - Murree
        names_es: ~
        population: 25247
        timezone: Asia/Karachi
      - 
        alternate_names: ~
        ascii_name: Muridke
        geonamesid: 1169692
        latitude: 31.8025
        longitude: 74.26167
        name: Murīdke
        names_en: ~
        names_es: ~
        population: 164246
        timezone: Asia/Karachi
      - 
        alternate_names: 
          - Multan
          - Multanas
          - Multān
          - "mu er tan"
        ascii_name: Multan
        geonamesid: 1169825
        latitude: 30.19556
        longitude: 71.47528
        name: Multān
        names_en: 
          - Multan
        names_es: 
          - Multan
        population: 1437230
        timezone: Asia/Karachi
      - 
        alternate_names: ~
        ascii_name: "Mitha Tiwana"
        geonamesid: 1170222
        latitude: 32.24861
        longitude: 72.11083
        name: "Mitha Tiwāna"
        names_en: ~
        names_es: ~
        population: 26390
        timezone: Asia/Karachi
      - 
        alternate_names: 
          - Manchinabad
          - Minchinabad
          - Minchinābād
        ascii_name: Minchinabad
        geonamesid: 1170398
        latitude: 30.16667
        longitude: 73.56667
        name: Minchinābād
        names_en: ~
        names_es: ~
        population: 29253
        timezone: Asia/Karachi
      - 
        alternate_names: ~
        ascii_name: Mianwali
        geonamesid: 1170425
        latitude: 32.5741
        longitude: 71.52639
        name: Miānwāli
        names_en: ~
        names_es: ~
        population: 89570
        timezone: Asia/Karachi
      - 
        alternate_names: 
          - "Mian Channu"
          - "Mian Channun"
          - "Miān Channūn"
        ascii_name: "Mian Channun"
        geonamesid: 1170486
        latitude: 30.45
        longitude: 72.36667
        name: "Miān Channūn"
        names_en: 
          - "Mian Channu"
        names_es: ~
        population: 76226
        timezone: Asia/Karachi
      - 
        alternate_names: 
          - Mankera
          - Mankora
        ascii_name: Mankera
        geonamesid: 1170974
        latitude: 31.38656
        longitude: 71.44067
        name: Mankera
        names_en: ~
        names_es: ~
        population: 10819
        timezone: Asia/Karachi
      - 
        alternate_names: ~
        ascii_name: Mangla
        geonamesid: 1171050
        latitude: 31.89306
        longitude: 72.38167
        name: Mangla
        names_en: ~
        names_es: ~
        population: 16264
        timezone: Asia/Karachi
      - 
        alternate_names: 
          - Bahauddin
          - "Mandi Bahauddin"
          - "Mandi Bahāuddīn"
        ascii_name: "Mandi Bahauddin"
        geonamesid: 1171123
        latitude: 32.58339
        longitude: 73.48432
        name: "Mandi Bahāuddīn"
        names_en: ~
        names_es: ~
        population: 129733
        timezone: Asia/Karachi
      - 
        alternate_names: ~
        ascii_name: Mananwala
        geonamesid: 1171165
        latitude: 31.58417
        longitude: 73.68778
        name: Mānānwāla
        names_en: ~
        names_es: ~
        population: 28432
        timezone: Asia/Karachi
      - 
        alternate_names: ~
        ascii_name: "Mamu Kanjan"
        geonamesid: 1171198
        latitude: 30.83333
        longitude: 72.8
        name: "Māmu Kānjan"
        names_en: ~
        names_es: ~
        population: 31914
        timezone: Asia/Karachi
      - 
        alternate_names: 
          - Malakwal
          - Malakwāl
        ascii_name: Malakwal
        geonamesid: 1171376
        latitude: 32.55362
        longitude: 73.21234
        name: Malakwāl
        names_en: ~
        names_es: ~
        population: 34589
        timezone: Asia/Karachi
      - 
        alternate_names: ~
        ascii_name: Mailsi
        geonamesid: 1171502
        latitude: 29.80028
        longitude: 72.17583
        name: Mailsi
        names_en: ~
        names_es: ~
        population: 64545
        timezone: Asia/Karachi
      - 
        alternate_names: 
          - Lodhran
          - Lodhrān
        ascii_name: Lodhran
        geonamesid: 1171965
        latitude: 29.54051
        longitude: 71.63357
        name: Lodhrān
        names_en: ~
        names_es: ~
        population: 97249
        timezone: Asia/Karachi
      - 
        alternate_names: 
          - Laliani
          - Laliāni
          - Lalliani
          - Liliani
        ascii_name: Liliani
        geonamesid: 1171991
        latitude: 32.20651
        longitude: 72.95372
        name: Liliāni
        names_en: ~
        names_es: ~
        population: 12211
        timezone: Asia/Karachi
      - 
        alternate_names: 
          - Leiah
          - Lelah
          - Lerah
        ascii_name: Leiah
        geonamesid: 1172035
        latitude: 30.96128
        longitude: 70.93904
        name: Leiah
        names_en: ~
        names_es: ~
        population: 78954
        timezone: Asia/Karachi
      - 
        alternate_names: 
          - Lalian
          - Lāliān
        ascii_name: Lalian
        geonamesid: 1172295
        latitude: 31.8225
        longitude: 72.79722
        name: Lāliān
        names_en: ~
        names_es: ~
        population: 31355
        timezone: Asia/Karachi
      - 
        alternate_names: ~
        ascii_name: "Lala Musa"
        geonamesid: 1172318
        latitude: 32.69894
        longitude: 73.95896
        name: "Lāla Mūsa"
        names_en: ~
        names_es: ~
        population: 65197
        timezone: Asia/Karachi
      - 
        alternate_names: 
          - Lahaur
          - Lahor
          - Lahoras
          - Lahore
        ascii_name: Lahore
        geonamesid: 1172451
        latitude: 31.54972
        longitude: 74.34361
        name: Lahore
        names_en: 
          - Lahore
        names_es: 
          - Lahore
        population: 6310888
        timezone: Asia/Karachi
      - 
        alternate_names: ~
        ascii_name: "Ladhewala Waraich"
        geonamesid: 1172488
        latitude: 32.15656
        longitude: 74.11701
        name: "Ladhewāla Warāich"
        names_en: ~
        names_es: ~
        population: 39757
        timezone: Asia/Karachi
      - 
        alternate_names: ~
        ascii_name: Kunjah
        geonamesid: 1172663
        latitude: 32.52848
        longitude: 73.97368
        name: Kunjāh
        names_en: ~
        names_es: ~
        population: 28103
        timezone: Asia/Karachi
      - 
        alternate_names: 
          - Kundian
          - "Kundian Pacca"
          - Kundiān
        ascii_name: Kundian
        geonamesid: 1172682
        latitude: 32.45731
        longitude: 71.47956
        name: Kundiān
        names_en: ~
        names_es: ~
        population: 35406
        timezone: Asia/Karachi
      - 
        alternate_names: ~
        ascii_name: "Kot Sultan"
        geonamesid: 1172866
        latitude: 30.7737
        longitude: 70.93125
        name: "Kot Sultan"
        names_en: ~
        names_es: ~
        population: 10000
        timezone: Asia/Karachi
      - 
        alternate_names: ~
        ascii_name: "Kot Samaba"
        geonamesid: 1172888
        latitude: 28.5522
        longitude: 70.46837
        name: "Kot Samāba"
        names_en: ~
        names_es: ~
        population: 22953
        timezone: Asia/Karachi
      - 
        alternate_names: ~
        ascii_name: "Kot Radha Kishan"
        geonamesid: 1172915
        latitude: 31.1725
        longitude: 74.09972
        name: "Kot Rādha Kishan"
        names_en: ~
        names_es: ~
        population: 45938
        timezone: Asia/Karachi
      - 
        alternate_names: 
          - "Kot Mamin"
          - "Kot Mumin"
          - "Kot Mūmin"
          - Kot-Moman
        ascii_name: "Kot Mumin"
        geonamesid: 1172964
        latitude: 32.18954
        longitude: 73.02798
        name: "Kot Mūmin"
        names_en: ~
        names_es: ~
        population: 38355
        timezone: Asia/Karachi
      - 
        alternate_names: ~
        ascii_name: "Kotli Loharan"
        geonamesid: 1173025
        latitude: 32.5883
        longitude: 74.49321
        name: "Kotli Lohārān"
        names_en: ~
        names_es: ~
        population: 21463
        timezone: Asia/Karachi
      - 
        alternate_names: ~
        ascii_name: "Kot Ghulam Muhammad"
        geonamesid: 1173272
        latitude: 32.33298
        longitude: 74.54798
        name: "Kot Ghulām Muhammad"
        names_en: ~
        names_es: ~
        population: 20897
        timezone: Asia/Karachi
      - 
        alternate_names: 
          - "Kot Addu"
          - Kot-Adu
        ascii_name: "Kot Addu"
        geonamesid: 1173378
        latitude: 30.4692
        longitude: 70.96714
        name: "Kot Addu"
        names_en: 
          - "Kot Addu"
        names_es: ~
        population: 104217
        timezone: Asia/Karachi
      - 
        alternate_names: 
          - Khushab
          - Khushah
          - Khushāb
        ascii_name: Khushab
        geonamesid: 1173687
        latitude: 32.29667
        longitude: 72.3525
        name: Khushāb
        names_en: ~
        names_es: ~
        population: 102793
        timezone: Asia/Karachi
      - 
        alternate_names: 
          - Khurianwala
          - Khurrianwala
          - Khurriānwāla
          - Kurrianwala
        ascii_name: Khurrianwala
        geonamesid: 1173692
        latitude: 31.50056
        longitude: 73.26667
        name: Khurriānwāla
        names_en: ~
        names_es: ~
        population: 35292
        timezone: Asia/Karachi
      - 
        alternate_names: ~
        ascii_name: Khewra
        geonamesid: 1173920
        latitude: 32.64793
        longitude: 73.01058
        name: Khewra
        names_en: ~
        names_es: ~
        population: 32620
        timezone: Asia/Karachi
      - 
        alternate_names: ~
        ascii_name: Kharian
        geonamesid: 1174042
        latitude: 32.81493
        longitude: 73.86359
        name: Khāriān
        names_en: ~
        names_es: ~
        population: 81435
        timezone: Asia/Karachi
      - 
        alternate_names: ~
        ascii_name: Khanpur
        geonamesid: 1174167
        latitude: 28.65
        longitude: 70.65
        name: Khānpur
        names_en: ~
        names_es: ~
        population: 142426
        timezone: Asia/Karachi
      - 
        alternate_names: ~
        ascii_name: Khangarh
        geonamesid: 1174211
        latitude: 29.9173
        longitude: 71.16184
        name: Khāngarh
        names_en: ~
        names_es: ~
        population: 19698
        timezone: Asia/Karachi
      - 
        alternate_names: 
          - "Khanga Dogran"
          - "Khangah Dogran"
          - Khangah-Dogra
          - "Khangan Dogran"
        ascii_name: "Khangah Dogran"
        geonamesid: 1174217
        latitude: 31.83167
        longitude: 73.62306
        name: "Khāngāh Dogrān"
        names_en: ~
        names_es: ~
        population: 30314
        timezone: Asia/Karachi
      - 
        alternate_names: 
          - Khanewal
          - Khānewāl
        ascii_name: Khanewal
        geonamesid: 1174220
        latitude: 30.3
        longitude: 71.93333
        name: Khānewāl
        names_en: ~
        names_es: ~
        population: 0
        timezone: Asia/Karachi
      - 
        alternate_names: ~
        ascii_name: Khairpur
        geonamesid: 1174355
        latitude: 29.58111
        longitude: 72.23639
        name: Khairpur
        names_en: ~
        names_es: ~
        population: 30967
        timezone: Asia/Karachi
      - 
        alternate_names: 
          - Kansur
          - Kansūr
          - Kasur
          - Kasūr
        ascii_name: Kasur
        geonamesid: 1174625
        latitude: 31.11556
        longitude: 74.44667
        name: Kasūr
        names_en: ~
        names_es: ~
        population: 290643
        timezone: Asia/Karachi
      - 
        alternate_names: 
          - Haror
          - Karor
          - "Karor Lal Isa"
        ascii_name: Karor
        geonamesid: 1174720
        latitude: 31.22741
        longitude: 70.94923
        name: Karor
        names_en: ~
        names_es: ~
        population: 25634
        timezone: Asia/Karachi
      - 
        alternate_names: ~
        ascii_name: Kanganpur
        geonamesid: 1174984
        latitude: 30.76667
        longitude: 74.13333
        name: Kanganpur
        names_en: ~
        names_es: ~
        population: 21788
        timezone: Asia/Karachi
      - 
        alternate_names: 
          - Kamara
          - Kamra
          - Kāmra
        ascii_name: Kamra
        geonamesid: 1175082
        latitude: 33.74734
        longitude: 73.51107
        name: Kāmra
        names_en: ~
        names_es: ~
        population: 43779
        timezone: Asia/Karachi
      - 
        alternate_names: 
          - Kamoke
          - Kamoki
          - Kāmoke
          - Kāmoki
        ascii_name: Kamoke
        geonamesid: 1175088
        latitude: 31.97444
        longitude: 74.22444
        name: Kamoke
        names_en: ~
        names_es: ~
        population: 199531
        timezone: Asia/Karachi
      - 
        alternate_names: ~
        ascii_name: Kamir
        geonamesid: 1175098
        latitude: 30.43333
        longitude: 73.05
        name: Kamīr
        names_en: ~
        names_es: ~
        population: 24053
        timezone: Asia/Karachi
      - 
        alternate_names: 
          - "Kamar Mushani"
          - "Kamar Mushāni"
        ascii_name: "Kamar Mushani"
        geonamesid: 1175125
        latitude: 32.84389
        longitude: 71.36694
        name: "Kamar Mushāni"
        names_en: ~
        names_es: ~
        population: 15867
        timezone: Asia/Karachi
      - 
        alternate_names: ~
        ascii_name: Kamalia
        geonamesid: 1175156
        latitude: 30.73333
        longitude: 72.65
        name: Kamālia
        names_en: ~
        names_es: ~
        population: 112426
        timezone: Asia/Karachi
      - 
        alternate_names: 
          - "Kallur Kot Town"
          - "Kalur Kot"
          - "Kalūr Kot"
        ascii_name: "Kalur Kot"
        geonamesid: 1175180
        latitude: 32.15639
        longitude: 71.25944
        name: "Kalūr Kot"
        names_en: ~
        names_es: ~
        population: 25574
        timezone: Asia/Karachi
      - 
        alternate_names: 
          - "Kalar Kahar"
          - "Kallar Kahar"
          - "Kallar Kahār"
        ascii_name: "Kallar Kahar"
        geonamesid: 1175232
        latitude: 32.78333
        longitude: 72.7
        name: "Kallar Kahār"
        names_en: ~
        names_es: ~
        population: 15800
        timezone: Asia/Karachi
      - 
        alternate_names: 
          - "Kaleke Mandi"
          - "Kāleke Mandi"
          - "Mandi Kaleke"
        ascii_name: "Kaleke Mandi"
        geonamesid: 1175283
        latitude: 31.97718
        longitude: 73.60259
        name: "Kāleke Mandi"
        names_en: ~
        names_es: ~
        population: 16361
        timezone: Asia/Karachi
      - 
        alternate_names: ~
        ascii_name: Kalaswala
        geonamesid: 1175297
        latitude: 32.20093
        longitude: 74.64914
        name: Kalāswāla
        names_en: ~
        names_es: ~
        population: 12576
        timezone: Asia/Karachi
      - 
        alternate_names: 
          - Kalabagh
          - Kālābāgh
        ascii_name: Kalabagh
        geonamesid: 1175365
        latitude: 32.965
        longitude: 71.55697
        name: Kālābāgh
        names_en: ~
        names_es: ~
        population: 15976
        timezone: Asia/Karachi
      - 
        alternate_names: 
          - Kahuta
          - Kahūta
          - Kakhute
          - Кахуте
        ascii_name: Kahuta
        geonamesid: 1175436
        latitude: 33.59355
        longitude: 73.38647
        name: Kahūta
        names_en: ~
        names_es: ~
        population: 22551
        timezone: Asia/Karachi
      - 
        alternate_names: 
          - Kahror
          - "Kehror Pakka Town"
          - Kharor
          - "Kohror Pakka"
        ascii_name: "Kohror Pakka"
        geonamesid: 1175446
        latitude: 29.62382
        longitude: 71.91673
        name: "Kohror Pakka"
        names_en: ~
        names_es: ~
        population: 69743
        timezone: Asia/Karachi
      - 
        alternate_names: 
          - Kahna
          - "Kahna Nau"
          - Khana
          - Khāna
        ascii_name: Kahna
        geonamesid: 1175453
        latitude: 31.36917
        longitude: 74.36528
        name: Kāhna
        names_en: ~
        names_es: ~
        population: 45888
        timezone: Asia/Karachi
      - 
        alternate_names: ~
        ascii_name: Kabirwala
        geonamesid: 1175560
        latitude: 30.4043
        longitude: 71.86657
        name: Kabīrwāla
        names_en: ~
        names_es: ~
        population: 60782
        timezone: Asia/Karachi
      - 
        alternate_names: 
          - "Chak Jhumra"
          - "Chak Jumra"
          - Jhumra
        ascii_name: Jhumra
        geonamesid: 1175748
        latitude: 31.56781
        longitude: 73.18347
        name: Jhumra
        names_en: ~
        names_es: ~
        population: 37214
        timezone: Asia/Karachi
      - 
        alternate_names: 
          - Dzhelam
          - Jhelum
          - Джелам
        ascii_name: Jhelum
        geonamesid: 1175864
        latitude: 32.93313
        longitude: 73.72637
        name: Jhelum
        names_en: ~
        names_es: ~
        population: 164080
        timezone: Asia/Karachi
      - 
        alternate_names: ~
        ascii_name: Jhawarian
        geonamesid: 1175870
        latitude: 32.36139
        longitude: 72.62278
        name: Jhawāriān
        names_en: ~
        names_es: ~
        population: 27893
        timezone: Asia/Karachi
      - 
        alternate_names: 
          - "Jhang Marghiana"
          - "Jhang Marghiānā"
          - "Jhang Sadar"
          - "Jhang Sadr"
        ascii_name: "Jhang Sadr"
        geonamesid: 1175892
        latitude: 31.27396
        longitude: 72.31604
        name: "Jhang Sadr"
        names_en: ~
        names_es: ~
        population: 341210
        timezone: Asia/Karachi
      - 
        alternate_names: 
          - Jauharabad
          - Jauharābād
          - Joharabad
        ascii_name: Jauharabad
        geonamesid: 1176022
        latitude: 32.28417
        longitude: 72.27861
        name: Jauharābād
        names_en: ~
        names_es: ~
        population: 46545
        timezone: Asia/Karachi
      - 
        alternate_names: 
          - "Jatoi Shimali"
          - "Jatoi Shimāli"
          - "Jatoi Shumali"
        ascii_name: "Jatoi Shimali"
        geonamesid: 1176035
        latitude: 29.51654
        longitude: 70.85032
        name: "Jatoi Shimāli"
        names_en: ~
        names_es: ~
        population: 47144
        timezone: Asia/Karachi
      - 
        alternate_names: ~
        ascii_name: Jaranwala
        geonamesid: 1176106
        latitude: 31.33333
        longitude: 73.43333
        name: Jarānwāla
        names_en: ~
        names_es: ~
        population: 119785
        timezone: Asia/Karachi
      - 
        alternate_names: ~
        ascii_name: "Jandiala Sher Khan"
        geonamesid: 1176206
        latitude: 31.81986
        longitude: 73.91812
        name: "Jāndiāla Sher Khān"
        names_en: ~
        names_es: ~
        population: 10985
        timezone: Asia/Karachi
      - 
        alternate_names: ~
        ascii_name: Jand
        geonamesid: 1176218
        latitude: 33.42889
        longitude: 72.02
        name: Jand
        names_en: ~
        names_es: ~
        population: 18170
        timezone: Asia/Karachi
      - 
        alternate_names: ~
        ascii_name: Jampur
        geonamesid: 1176241
        latitude: 29.64414
        longitude: 70.59544
        name: Jāmpur
        names_en: ~
        names_es: ~
        population: 63791
        timezone: Asia/Karachi
      - 
        alternate_names: 
          - Jalalpur
          - "Jalalpur Pirwala"
          - "Jalālpur Pīrwāla"
        ascii_name: "Jalalpur Pirwala"
        geonamesid: 1176358
        latitude: 29.50687
        longitude: 71.21917
        name: "Jalālpur Pīrwāla"
        names_en: ~
        names_es: ~
        population: 37393
        timezone: Asia/Karachi
      - 
        alternate_names: 
          - Jalalpur
          - "Jalalpur Jattan"
          - Jalālpur
        ascii_name: Jalalpur
        geonamesid: 1176368
        latitude: 32.64068
        longitude: 74.21612
        name: Jalālpur
        names_en: ~
        names_es: ~
        population: 93883
        timezone: Asia/Karachi
      - 
        alternate_names: ~
        ascii_name: "Jahanian Shah"
        geonamesid: 1176444
        latitude: 31.80528
        longitude: 72.27722
        name: "Jahāniān Shāh"
        names_en: ~
        names_es: ~
        population: 29095
        timezone: Asia/Karachi
      - 
        alternate_names: ~
        ascii_name: Hujra
        geonamesid: 1176800
        latitude: 30.73333
        longitude: 73.81667
        name: Hujra
        names_en: ~
        names_es: ~
        population: 61546
        timezone: Asia/Karachi
      - 
        alternate_names: ~
        ascii_name: Hazro
        geonamesid: 1176948
        latitude: 33.90972
        longitude: 72.49278
        name: Hazro
        names_en: ~
        names_es: ~
        population: 26309
        timezone: Asia/Karachi
      - 
        alternate_names: ~
        ascii_name: Haveli
        geonamesid: 1176997
        latitude: 30.45
        longitude: 73.7
        name: Haveli
        names_en: ~
        names_es: ~
        population: 65289
        timezone: Asia/Karachi
      - 
        alternate_names: 
          - Hasilpur
          - Hasipur
          - Hāsilpur
          - Hāsipur
        ascii_name: Hasilpur
        geonamesid: 1177042
        latitude: 29.71222
        longitude: 72.55528
        name: Hāsilpur
        names_en: ~
        names_es: ~
        population: 88031
        timezone: Asia/Karachi
      - 
        alternate_names: ~
        ascii_name: "Hasan Abdal"
        geonamesid: 1177064
        latitude: 30.43333
        longitude: 72.7
        name: "Hasan Abdāl"
        names_en: ~
        names_es: ~
        population: 45665
        timezone: Asia/Karachi
      - 
        alternate_names: 
          - "Badruwala Mandi"
          - "Badruwāla Mandi"
          - "Haroonabad Municipality"
          - "Haru Zbad"
        ascii_name: "Haru Zbad"
        geonamesid: 1177073
        latitude: 29.61333
        longitude: 73.13889
        name: "Haru Zbad"
        names_en: ~
        names_es: ~
        population: 72432
        timezone: Asia/Karachi
      - 
        alternate_names: 
          - Haranoli
          - Harnoli
        ascii_name: Harnoli
        geonamesid: 1177089
        latitude: 32.27917
        longitude: 71.55389
        name: Harnoli
        names_en: ~
        names_es: ~
        population: 15669
        timezone: Asia/Karachi
      - 
        alternate_names: ~
        ascii_name: Hafizabad
        geonamesid: 1177384
        latitude: 32.06786
        longitude: 73.68545
        name: Hāfizābād
        names_en: ~
        names_es: ~
        population: 153656
        timezone: Asia/Karachi
      - 
        alternate_names: ~
        ascii_name: Hadali
        geonamesid: 1177397
        latitude: 32.64132
        longitude: 74.56904
        name: Hadāli
        names_en: ~
        names_es: ~
        population: 49663
        timezone: Asia/Karachi
      - 
        alternate_names: 
          - Gudzharat
          - Gujrat
          - Gujrāt
          - gjrat
        ascii_name: Gujrat
        geonamesid: 1177654
        latitude: 32.57276
        longitude: 74.08959
        name: Gujrāt
        names_en: 
          - Gujrat
        names_es: ~
        population: 301506
        timezone: Asia/Karachi
      - 
        alternate_names: 
          - Gajranvala
          - Gujranwala
          - Gujrānwāla
          - Гайранвала
        ascii_name: Gujranwala
        geonamesid: 1177662
        latitude: 32.16167
        longitude: 74.18831
        name: Gujrānwāla
        names_en: 
          - Gujranwala
        names_es: ~
        population: 1384471
        timezone: Asia/Karachi
      - 
        alternate_names: ~
        ascii_name: "Gujar Khan"
        geonamesid: 1177682
        latitude: 33.25355
        longitude: 73.30419
        name: "Gūjar Khān"
        names_en: ~
        names_es: ~
        population: 69374
        timezone: Asia/Karachi
      - 
        alternate_names: ~
        ascii_name: Gojra
        geonamesid: 1178231
        latitude: 31.14874
        longitude: 72.68656
        name: Gojra
        names_en: ~
        names_es: ~
        population: 139726
        timezone: Asia/Karachi
      - 
        alternate_names: ~
        ascii_name: "Garh Maharaja"
        geonamesid: 1178841
        latitude: 30.83388
        longitude: 71.90529
        name: "Garh Mahārāja"
        names_en: ~
        names_es: ~
        population: 29153
        timezone: Asia/Karachi
      - 
        alternate_names: 
          - Abbas
          - "Fort Abbas"
          - "Fort Abbās"
          - Mandi
        ascii_name: "Fort Abbas"
        geonamesid: 1179223
        latitude: 29.1925
        longitude: 72.85361
        name: "Fort Abbās"
        names_en: ~
        names_es: ~
        population: 40626
        timezone: Asia/Karachi
      - 
        alternate_names: ~
        ascii_name: Fazalpur
        geonamesid: 1179255
        latitude: 32.18333
        longitude: 75.06667
        name: Fazalpur
        names_en: ~
        names_es: ~
        population: 28213
        timezone: Asia/Karachi
      - 
        alternate_names: 
          - "Chak Two Hundred Forty-Nine TDA"
          - Fatehpur
        ascii_name: "Chak Two Hundred Forty-Nine TDA"
        geonamesid: 1179305
        latitude: 31.17959
        longitude: 71.20946
        name: "Chak Two Hundred Forty-Nine TDA"
        names_en: ~
        names_es: ~
        population: 18126
        timezone: Asia/Karachi
      - 
        alternate_names: 
          - Farooka
          - Faruka
        ascii_name: Faruka
        geonamesid: 1179346
        latitude: 31.88833
        longitude: 72.41083
        name: Faruka
        names_en: ~
        names_es: ~
        population: 21747
        timezone: Asia/Karachi
      - 
        alternate_names: 
          - Fagirwali
          - Fagīrwāli
          - Faqirwala
          - Faqirwali
        ascii_name: Faqirwali
        geonamesid: 1179377
        latitude: 29.46944
        longitude: 73.03111
        name: Faqīrwāli
        names_en: ~
        names_es: ~
        population: 25186
        timezone: Asia/Karachi
      - 
        alternate_names: 
          - Faisalabad
          - Faisalābād
          - Feisalabada
          - Feisalabadas
        ascii_name: Faisalabad
        geonamesid: 1179400
        latitude: 31.41667
        longitude: 73.08333
        name: Faisalābād
        names_en: 
          - Faisalabad
        names_es: ~
        population: 2506595
        timezone: Asia/Karachi
      - 
        alternate_names: 
          - Eminabad
          - Eminābād
        ascii_name: Eminabad
        geonamesid: 1179406
        latitude: 32.04361
        longitude: 74.262
        name: Eminābād
        names_en: ~
        names_es: ~
        population: 22679
        timezone: Asia/Karachi
      - 
        alternate_names: ~
        ascii_name: Dunyapur
        geonamesid: 1179450
        latitude: 29.7995
        longitude: 71.71958
        name: Dunyāpur
        names_en: ~
        names_es: ~
        population: 34044
        timezone: Asia/Karachi
      - 
        alternate_names: ~
        ascii_name: "Dunga Bunga"
        geonamesid: 1179463
        latitude: 29.75
        longitude: 73.25
        name: "Dunga Bunga"
        names_en: ~
        names_es: ~
        population: 25893
        timezone: Asia/Karachi
      - 
        alternate_names: 
          - Dull-wali
          - Dullewala
          - Dullewali
          - Dullewāla
        ascii_name: Dullewala
        geonamesid: 1179496
        latitude: 31.83587
        longitude: 71.43625
        name: Dullewāla
        names_en: ~
        names_es: ~
        population: 48682
        timezone: Asia/Karachi
      - 
        alternate_names: 
          - Dipalpur
          - Dīpālpur
        ascii_name: Dipalpur
        geonamesid: 1179760
        latitude: 30.66667
        longitude: 73.65
        name: Dīpālpur
        names_en: ~
        names_es: ~
        population: 74640
        timezone: Asia/Karachi
      - 
        alternate_names: ~
        ascii_name: Dinga
        geonamesid: 1179790
        latitude: 32.63976
        longitude: 73.72202
        name: Dinga
        names_en: ~
        names_es: ~
        population: 39784
        timezone: Asia/Karachi
      - 
        alternate_names: ~
        ascii_name: Dijkot
        geonamesid: 1179834
        latitude: 31.21667
        longitude: 72.98333
        name: Dijkot
        names_en: ~
        names_es: ~
        population: 27469
        timezone: Asia/Karachi
      - 
        alternate_names: 
          - Dhaonkal
          - Dhaunkal
        ascii_name: Dhaunkal
        geonamesid: 1180071
        latitude: 32.40543
        longitude: 74.13732
        name: Dhaunkal
        names_en: ~
        names_es: ~
        population: 12117
        timezone: Asia/Karachi
      - 
        alternate_names: ~
        ascii_name: Dhanot
        geonamesid: 1180133
        latitude: 29.57991
        longitude: 71.75213
        name: Dhanot
        names_en: ~
        names_es: ~
        population: 18729
        timezone: Asia/Karachi
      - 
        alternate_names: 
          - "Dera Ghazi Khan"
          - "Dera Ghoz Khan"
          - "Dera Ghāzi Khān"
          - "Deri-Ghazi Khan"
        ascii_name: "Dera Ghazi Khan"
        geonamesid: 1180289
        latitude: 30.05614
        longitude: 70.63477
        name: "Dera Ghāzi Khān"
        names_en: ~
        names_es: ~
        population: 236093
        timezone: Asia/Karachi
      - 
        alternate_names: ~
        ascii_name: Daultala
        geonamesid: 1180379
        latitude: 33.19121
        longitude: 73.14102
        name: Daultāla
        names_en: ~
        names_es: ~
        population: 11814
        timezone: Asia/Karachi
      - 
        alternate_names: ~
        ascii_name: "Daud Khel"
        geonamesid: 1180419
        latitude: 32.87498
        longitude: 71.57012
        name: "Dāūd Khel"
        names_en: ~
        names_es: ~
        population: 26395
        timezone: Asia/Karachi
      - 
        alternate_names: ~
        ascii_name: Daska
        geonamesid: 1180436
        latitude: 32.32426
        longitude: 74.34974
        name: Daska
        names_en: ~
        names_es: ~
        population: 126924
        timezone: Asia/Karachi
      - 
        alternate_names: 
          - "Darva Khan"
          - "Darva Khān"
          - "Darya Khan"
          - "Darya Khan Daggar"
        ascii_name: "Darya Khan"
        geonamesid: 1180454
        latitude: 31.79123
        longitude: 71.10394
        name: "Darya Khān"
        names_en: ~
        names_es: ~
        population: 15048
        timezone: Asia/Karachi
      - 
        alternate_names: ~
        ascii_name: Dajal
        geonamesid: 1180752
        latitude: 29.55767
        longitude: 70.37615
        name: Dājal
        names_en: ~
        names_es: ~
        population: 17630
        timezone: Asia/Karachi
      - 
        alternate_names: 
          - "Daira Din Panah"
          - "Daira Din Pannah Mustaqil"
          - "Dāira Dīn Panāh"
        ascii_name: "Daira Din Panah"
        geonamesid: 1180757
        latitude: 30.5702
        longitude: 70.93611
        name: "Dāira Dīn Panāh"
        names_en: ~
        names_es: ~
        population: 14878
        timezone: Asia/Karachi
      - 
        alternate_names: 
          - Chunian
          - Chūniān
        ascii_name: Chunian
        geonamesid: 1180942
        latitude: 30.96667
        longitude: 73.98333
        name: Chūniān
        names_en: ~
        names_es: ~
        population: 57312
        timezone: Asia/Karachi
      - 
        alternate_names: 
          - "Chuchar-kana Mandi"
          - "Chuhar Kana"
          - "Chuhar Kand"
          - "Chūhar Kāna"
        ascii_name: "Chuhar Kana"
        geonamesid: 1180983
        latitude: 31.75
        longitude: 73.8
        name: "Chūhar Kāna"
        names_en: ~
        names_es: ~
        population: 69321
        timezone: Asia/Karachi
      - 
        alternate_names: 
          - "Choa Saidan Shah"
          - "Choa Saidān Shāh"
          - "Saidan Shah"
          - "Saidān Shāh"
        ascii_name: "Choa Saidan Shah"
        geonamesid: 1181053
        latitude: 32.72006
        longitude: 72.98486
        name: "Choa Saidān Shāh"
        names_en: ~
        names_es: ~
        population: 15344
        timezone: Asia/Karachi
      - 
        alternate_names: 
          - "Chishtian Mandi"
          - "Chishtiān Mandi"
          - Chistian
        ascii_name: "Chishtian Mandi"
        geonamesid: 1181073
        latitude: 29.8
        longitude: 72.86667
        name: "Chishtiān Mandi"
        names_en: ~
        names_es: ~
        population: 122199
        timezone: Asia/Karachi
      - 
        alternate_names: 
          - Chaniot
          - Chiniot
          - Chinot
          - Чиниот
        ascii_name: Chiniot
        geonamesid: 1181096
        latitude: 31.72
        longitude: 72.97889
        name: Chiniot
        names_en: ~
        names_es: ~
        population: 201781
        timezone: Asia/Karachi
      - 
        alternate_names: 
          - Chichawatni
          - Chīchāwatni
        ascii_name: Chichawatni
        geonamesid: 1181163
        latitude: 30.53333
        longitude: 72.7
        name: Chīchāwatni
        names_en: ~
        names_es: ~
        population: 82762
        timezone: Asia/Karachi
      - 
        alternate_names: ~
        ascii_name: Chawinda
        geonamesid: 1181352
        latitude: 32.34692
        longitude: 74.70612
        name: Chawinda
        names_en: ~
        names_es: ~
        population: 23599
        timezone: Asia/Karachi
      - 
        alternate_names: 
          - Chakwal
          - Chakwāl
        ascii_name: Chakwal
        geonamesid: 1181636
        latitude: 32.93333
        longitude: 72.86667
        name: Chakwāl
        names_en: ~
        names_es: ~
        population: 101200
        timezone: Asia/Karachi
      - 
        alternate_names: 
          - "Chak Azam Saffo"
          - "Chak Azam Saho"
          - "Chak Azam Sahu"
          - "Chak Āzam Saffo"
        ascii_name: "Chak Azam Saffo"
        geonamesid: 1181887
        latitude: 30.75
        longitude: 73.03333
        name: "Chak Āzam Saffo"
        names_en: ~
        names_es: ~
        population: 38216
        timezone: Asia/Karachi
      - 
        alternate_names: ~
        ascii_name: Burewala
        geonamesid: 1182092
        latitude: 30.16667
        longitude: 72.65
        name: Būrewāla
        names_en: ~
        names_es: ~
        population: 183915
        timezone: Asia/Karachi
      - 
        alternate_names: ~
        ascii_name: Bhopalwala
        geonamesid: 1182577
        latitude: 32.42888
        longitude: 74.3633
        name: Bhopālwāla
        names_en: ~
        names_es: ~
        population: 17341
        timezone: Asia/Karachi
      - 
        alternate_names: 
          - Bhera
          - Bwera
        ascii_name: Bhera
        geonamesid: 1182665
        latitude: 32.48318
        longitude: 72.9097
        name: Bhera
        names_en: ~
        names_es: ~
        population: 31781
        timezone: Asia/Karachi
      - 
        alternate_names: 
          - Bawana
          - Bhawana
          - Bhawāna
          - Bhowana
        ascii_name: Bhawana
        geonamesid: 1182682
        latitude: 31.56918
        longitude: 72.64899
        name: Bhawāna
        names_en: ~
        names_es: ~
        population: 16218
        timezone: Asia/Karachi
      - 
        alternate_names: ~
        ascii_name: Bhalwal
        geonamesid: 1182787
        latitude: 32.27204
        longitude: 72.90425
        name: Bhalwāl
        names_en: ~
        names_es: ~
        population: 74744
        timezone: Asia/Karachi
      - 
        alternate_names: 
          - Bhakkar
        ascii_name: Bhakkar
        geonamesid: 1182815
        latitude: 31.62525
        longitude: 71.06574
        name: Bhakkar
        names_en: 
          - Bhakkar
        names_es: ~
        population: 81950
        timezone: Asia/Karachi
      - 
        alternate_names: 
          - "Bhai Pheru"
          - "Bhar Pheru"
          - "Bhāi Pheru"
          - Mian-ki-Maur
        ascii_name: "Bhai Pheru"
        geonamesid: 1182829
        latitude: 31.2
        longitude: 73.95
        name: "Bhāi Pheru"
        names_en: ~
        names_es: ~
        population: 86900
        timezone: Asia/Karachi
      - 
        alternate_names: 
          - Begawala
          - Begowala
          - Begowāla
        ascii_name: Begowala
        geonamesid: 1183018
        latitude: 32.43759
        longitude: 74.26824
        name: Begowāla
        names_en: ~
        names_es: ~
        population: 9259
        timezone: Asia/Karachi
      - 
        alternate_names: ~
        ascii_name: Basirpur
        geonamesid: 1183224
        latitude: 30.58333
        longitude: 73.83333
        name: Basīrpur
        names_en: ~
        names_es: ~
        population: 41617
        timezone: Asia/Karachi
      - 
        alternate_names: ~
        ascii_name: "Bakhri Ahmad Khan"
        geonamesid: 1183749
        latitude: 30.73586
        longitude: 70.83796
        name: "Bakhri Ahmad Khan"
        names_en: ~
        names_es: ~
        population: 2000
        timezone: Asia/Karachi
      - 
        alternate_names: 
          - Bahawalpur
          - Bahāwalpur
          - Bakhavalpura
          - Бахавалпура
        ascii_name: Bahawalpur
        geonamesid: 1183880
        latitude: 29.4
        longitude: 71.68333
        name: Bahāwalpur
        names_en: 
          - Bahāwalpur
        names_es: ~
        population: 552607
        timezone: Asia/Karachi
      - 
        alternate_names: 
          - Bahawalnagar
          - Bahawalpur
          - Bahawatnagar
          - Bahawâlpur
        ascii_name: Bahawalnagar
        geonamesid: 1183883
        latitude: 29.98333
        longitude: 73.26667
        name: Bahāwalnagar
        names_en: 
          - Bahawalpur
        names_es: 
          - Bahawalpur
        population: 126617
        timezone: Asia/Karachi
      - 
        alternate_names: ~
        ascii_name: Baddomalhi
        geonamesid: 1184075
        latitude: 31.99283
        longitude: 74.66834
        name: Baddomalhi
        names_en: ~
        names_es: ~
        population: 18435
        timezone: Asia/Karachi
      - 
        alternate_names: 
          - "Attock City"
          - Campbellpore
          - Campbellpur
        ascii_name: "Attock City"
        geonamesid: 1184249
        latitude: 33.77222
        longitude: 72.36833
        name: "Attock City"
        names_en: ~
        names_es: ~
        population: 85479
        timezone: Asia/Karachi
      - 
        alternate_names: 
          - Arifwala
          - Ārifwāla
        ascii_name: Arifwala
        geonamesid: 1184370
        latitude: 30.28333
        longitude: 73.06667
        name: Ārifwāla
        names_en: ~
        names_es: ~
        population: 87360
        timezone: Asia/Karachi
      - 
        alternate_names: ~
        ascii_name: Alipur
        geonamesid: 1184655
        latitude: 29.38464
        longitude: 70.91157
        name: Alīpur
        names_en: ~
        names_es: ~
        population: 33601
        timezone: Asia/Karachi
      - 
        alternate_names: 
          - Ahmadpur
          - "Ahmadpur East"
          - "Ahmedpur East"
          - "Ahmedpur East Municipality"
        ascii_name: "Ahmadpur East"
        geonamesid: 1184845
        latitude: 29.14462
        longitude: 71.26084
        name: "Ahmadpur East"
        names_en: 
          - "Ahmadpur East"
        names_es: ~
        population: 116579
        timezone: Asia/Karachi
      - 
        alternate_names: 
          - Jhang
          - "Jhang City"
        ascii_name: "Jhang City"
        geonamesid: 1330335
        latitude: 31.30677
        longitude: 72.32814
        name: "Jhang City"
        names_en: ~
        names_es: ~
        population: 0
        timezone: Asia/Karachi
      - 
        alternate_names: 
          - Bahawalnagar
          - Bahāwalnagar
        ascii_name: Bahawalnagar
        geonamesid: 1332083
        latitude: 30.55083
        longitude: 73.39083
        name: Bahāwalnagar
        names_en: ~
        names_es: ~
        population: 126700
        timezone: Asia/Karachi
      - 
        alternate_names: ~
        ascii_name: "Ahmadpur Sial"
        geonamesid: 1356491
        latitude: 30.67519
        longitude: 71.74905
        name: "Ahmadpur Siāl"
        names_en: ~
        names_es: ~
        population: 24889
        timezone: Asia/Karachi
      - 
        alternate_names: ~
        ascii_name: "Malakwal City"
        geonamesid: 6457378
        latitude: 32.55492
        longitude: 73.2122
        name: "Malakwal City"
        names_en: ~
        names_es: ~
        population: 35000
        timezone: Asia/Karachi
      - 
        alternate_names: ~
        ascii_name: "Basti Dosa"
        geonamesid: 6949083
        latitude: 30.78769
        longitude: 70.86853
        name: "Basti Dosa"
        names_en: ~
        names_es: ~
        population: 2000
        timezone: Asia/Karachi
      - 
        alternate_names: ~
        ascii_name: "Moza Shahwala"
        geonamesid: 6949140
        latitude: 30.80563
        longitude: 70.84911
        name: "Moza Shahwala"
        names_en: ~
        names_es: ~
        population: 1200
        timezone: Asia/Karachi
      - 
        alternate_names: ~
        ascii_name: "Nazir Town"
        geonamesid: 7649128
        latitude: 33.30614
        longitude: 73.4833
        name: "Nazir Town"
        names_en: ~
        names_es: ~
        population: 6750
        timezone: Asia/Karachi
    geonamesid: 1167710
    name: Punjab
    names_en: 
      - Punjab
    names_es: ~
  - 
    ascii_name: "North West Frontier Province"
    cities: 
      - 
        alternate_names: 
          - Timugara
          - Timurgara
          - Tīmurgara
        ascii_name: Timurgara
        geonamesid: 1111188
        latitude: 34.82639
        longitude: 71.84278
        name: Tīmurgara
        names_en: 
          - Tīmurgara
        names_es: ~
        population: 0
        timezone: Asia/Karachi
      - 
        alternate_names: 
          - Zaida
        ascii_name: Zaida
        geonamesid: 1162261
        latitude: 34.06028
        longitude: 72.46778
        name: Zaida
        names_en: 
          - Zaida
        names_es: ~
        population: 26787
        timezone: Asia/Karachi
      - 
        alternate_names: 
          - Utmanzai
          - Utmānzai
          - Uttamanza
          - Uttmanzai
        ascii_name: Utmanzai
        geonamesid: 1162855
        latitude: 34.18583
        longitude: 71.76333
        name: Utmānzai
        names_en: 
          - Utmānzai
        names_es: ~
        population: 29423
        timezone: Asia/Karachi
      - 
        alternate_names: 
          - Topi
          - Топи
        ascii_name: Topi
        geonamesid: 1163224
        latitude: 34.06889
        longitude: 72.62444
        name: Topi
        names_en: ~
        names_es: ~
        population: 36340
        timezone: Asia/Karachi
      - 
        alternate_names: ~
        ascii_name: Tank
        geonamesid: 1163905
        latitude: 32.22168
        longitude: 70.37928
        name: Tānk
        names_en: ~
        names_es: ~
        population: 38488
        timezone: Asia/Karachi
      - 
        alternate_names: 
          - Tangi
        ascii_name: Tangi
        geonamesid: 1163927
        latitude: 34.30056
        longitude: 71.65361
        name: Tangi
        names_en: 
          - Tangi
        names_es: ~
        population: 29444
        timezone: Asia/Karachi
      - 
        alternate_names: 
          - Tal
          - Tal'
          - Thal
          - Tāl
        ascii_name: Tal
        geonamesid: 1164076
        latitude: 35.4867
        longitude: 72.2343
        name: Tāl
        names_en: ~
        names_es: ~
        population: 29331
        timezone: Asia/Karachi
      - 
        alternate_names: 
          - Swabi
          - Swābi
        ascii_name: Swabi
