--- 
geonamesid: 6254930
iso: PS
name: "Palestinian Territory"
names_en: 
  - "Palestinian Territory"
  - Palestine
names_es: 
  - Palestina
regions: 
  - 
    ascii_name: "Gaza Strip"
    cities: 
      - 
        alternate_names: 
          - "Er Rafa"
          - Rafa
          - Rafaa
          - Rafah
        ascii_name: Rafah
        geonamesid: 281102
        latitude: 31.287
        longitude: 34.25952
        name: Rafaḩ
        names_en: 
          - Rafah
        names_es: ~
        population: 126305
        timezone: Asia/Gaza
      - 
        alternate_names: 
          - "Hanut Yona"
          - "Hanūt Yōnā"
          - "Jan Yunis"
          - "Jan Yunís"
        ascii_name: "Khan Yunis"
        geonamesid: 281124
        latitude: 31.34018
        longitude: 34.30627
        name: "Khān Yūnis"
        names_en: 
          - "Khan Yunis"
        names_es: 
          - "Jan Yunís"
          - "Jan Yunis"
        population: 173183
        timezone: Asia/Gaza
      - 
        alternate_names: 
          - Dzhabalija
          - Jabalia
          - Jabaliya
          - Jabalya
        ascii_name: Jabalya
        geonamesid: 281129
        latitude: 31.52722
        longitude: 34.48634
        name: Jabālyā
        names_en: 
          - Jabalia
        names_es: ~
        population: 168568
        timezone: Asia/Gaza
      - 
        alternate_names: 
          - Azzah
          - Gaza
          - "Gaza City"
          - Ghazah
        ascii_name: Gaza
        geonamesid: 281133
        latitude: 31.5
        longitude: 34.46667
        name: Gaza
        names_en: 
          - "Gaza City"
          - Gaza
        names_es: 
          - Gaza
        population: 410000
        timezone: Asia/Gaza
      - 
        alternate_names: 
          - Belar
          - "Dayr al Balah"
          - "Dayr al Balaḩ"
          - "Deir el-Balah"
        ascii_name: "Dayr al Balah"
        geonamesid: 281141
        latitude: 31.41655
        longitude: 34.34525
        name: "Dayr al Balaḩ"
        names_en: 
          - "Deir el-Balah"
        names_es: ~
        population: 59504
        timezone: Asia/Gaza
      - 
        alternate_names: 
          - "Bayt La'iya"
          - "Bayt Lahiya"
          - "Bayt Lahiyah"
          - "Bayt Lāhiya"
        ascii_name: "Bayt La'iya"
        geonamesid: 281145
        latitude: 31.5464
        longitude: 34.49514
        name: "Bayt Lā’īyā"
        names_en: 
          - "Beit Lahia"
        names_es: ~
        population: 56919
        timezone: Asia/Gaza
      - 
        alternate_names: 
          - "Al Burayj"
          - Al-Bureij
          - "El Bureij"
        ascii_name: "Al Burayj"
        geonamesid: 281161
        latitude: 31.43944
        longitude: 34.40306
        name: "Al Burayj"
        names_en: ~
        names_es: ~
        population: 34951
        timezone: Asia/Gaza
    geonamesid: 281132
    name: "Gaza Strip"
    names_en: 
      - "Gaza Strip"
    names_es: 
      - "Franja de Gaza"
  - 
    ascii_name: "West Bank"
    cities: 
      - 
        alternate_names: 
          - Zububah
          - Zubūbah
        ascii_name: Zububa
        geonamesid: 281207
        latitude: 32.54556
        longitude: 35.22417
        name: Zubūbā
        names_en: ~
        names_es: ~
        population: 2063
        timezone: Asia/Gaza
      - 
        alternate_names: 
          - Zayta
          - Zaytā
          - Zeita
          - Zeitā
        ascii_name: Zayta
        geonamesid: 281226
        latitude: 32.38444
        longitude: 35.04972
        name: Zaytā
        names_en: ~
        names_es: ~
        population: 3052
        timezone: Asia/Gaza
      - 
        alternate_names: 
          - Jatta
          - Yatta
          - Yattah
          - Yaţţah
        ascii_name: Yattah
        geonamesid: 281292
        latitude: 31.45
        longitude: 35.08333
        name: Yaţţah
        names_en: ~
        names_es: ~
        population: 41425
        timezone: Asia/Gaza
      - 
        alternate_names: ~
        ascii_name: Yatma
        geonamesid: 281293
        latitude: 32.10694
        longitude: 35.26556
        name: Yatmā
        names_en: ~
        names_es: ~
        population: 2897
        timezone: Asia/Gaza
      - 
        alternate_names: ~
        ascii_name: Yasid
        geonamesid: 281297
        latitude: 32.29444
        longitude: 35.27694
        name: Yāşīd
        names_en: ~
        names_es: ~
        population: 2226
        timezone: Asia/Gaza
      - 
        alternate_names: 
          - Keram
          - Toelkarem
          - "Tul Kerem"
          - Tul'karm
        ascii_name: Tulkarm
        geonamesid: 281577
        latitude: 32.31083
        longitude: 35.02583
        name: Ţūlkarm
        names_en: 
          - Tulkarm
        names_es: ~
        population: 44169
        timezone: Asia/Gaza
      - 
        alternate_names: 
          - Tubas
          - Ţūbās
        ascii_name: Tubas
        geonamesid: 281581
        latitude: 32.32139
        longitude: 35.36917
        name: Ţūbās
        names_en: ~
        names_es: ~
        population: 15591
        timezone: Asia/Gaza
      - 
        alternate_names: ~
        ascii_name: Tayasir
        geonamesid: 281623
        latitude: 32.33806
        longitude: 35.39556
        name: Tayāsīr
        names_en: ~
        names_es: ~
        population: 2323
        timezone: Asia/Gaza
      - 
        alternate_names: 
          - Tarqumiya
          - Tarqumiyah
          - Tarqumye
          - Tarqūmiya
        ascii_name: Tarqumiyah
        geonamesid: 281637
        latitude: 31.58333
        longitude: 35.01667
        name: Tarqūmiyah
        names_en: ~
        names_es: ~
        population: 14202
        timezone: Asia/Gaza
      - 
        alternate_names: ~
        ascii_name: Tammun
        geonamesid: 281657
        latitude: 32.2825
        longitude: 35.38361
        name: Ţammūn
        names_en: ~
        names_es: ~
        population: 10119
        timezone: Asia/Gaza
      - 
        alternate_names: 
          - Talluza
          - Talluzah
          - Ţallūzah
          - Ţallūzā
        ascii_name: Talluza
        geonamesid: 281662
        latitude: 32.27194
        longitude: 35.29389
        name: Ţallūzā
        names_en: ~
        names_es: ~
        population: 2604
        timezone: Asia/Gaza
      - 
        alternate_names: 
          - Tall
          - Tell
          - Til
          - Tīl
        ascii_name: Tall
        geonamesid: 281674
        latitude: 32.2
        longitude: 35.20917
        name: Tall
        names_en: ~
        names_es: ~
        population: 4605
        timezone: Asia/Gaza
      - 
        alternate_names: 
          - Talfit
          - Talfīt
          - Tilfit
          - Tilfīt
        ascii_name: Talfit
        geonamesid: 281675
        latitude: 32.08417
        longitude: 35.28972
        name: Talfīt
        names_en: ~
        names_es: ~
        population: 2906
        timezone: Asia/Gaza
      - 
        alternate_names: ~
        ascii_name: Taffuh
        geonamesid: 281690
        latitude: 31.53333
        longitude: 35.05
        name: Taffūḩ
        names_en: ~
        names_es: ~
        population: 9480
        timezone: Asia/Gaza
      - 
        alternate_names: ~
        ascii_name: Surif
        geonamesid: 281715
        latitude: 31.65
        longitude: 35.06667
        name: Şūrīf
        names_en: ~
        names_es: ~
        population: 12992
        timezone: Asia/Gaza
      - 
        alternate_names: ~
        ascii_name: Siris
        geonamesid: 281764
        latitude: 32.32944
        longitude: 35.28972
        name: Sīrīs
        names_en: ~
        names_es: ~
        population: 4898
        timezone: Asia/Gaza
      - 
        alternate_names: 
          - "Saint Gilles"
          - Sindjil
          - Sinjil
        ascii_name: Sinjil
        geonamesid: 281778
        latitude: 32.03333
        longitude: 35.26667
        name: Sinjil
        names_en: ~
        names_es: ~
        population: 5371
        timezone: Asia/Gaza
      - 
        alternate_names: ~
        ascii_name: Silwad
        geonamesid: 281789
        latitude: 31.98333
        longitude: 35.26667
        name: Silwād
        names_en: ~
        names_es: ~
        population: 7006
        timezone: Asia/Gaza
      - 
        alternate_names: 
          - "Saylat ad Dahr"
          - "Saylat aḑ Ḑahr"
          - "Silat adh Dhahr"
          - "Silat az Zahr"
        ascii_name: "Silat az Zahr"
        geonamesid: 281790
        latitude: 32.31889
        longitude: 35.18361
        name: "Sīlat az̧ Z̧ahr"
        names_en: ~
        names_es: ~
        population: 6079
        timezone: Asia/Gaza
      - 
        alternate_names: 
          - "Silat al Harithiya"
          - "Silat al Harithiyah"
          - "Silat el Harithiya"
          - "Sīlat al Ḩārithīyah"
        ascii_name: "Silat al Harithiyah"
        geonamesid: 281791
        latitude: 32.50806
        longitude: 35.22778
        name: "Sīlat al Ḩārithīyah"
        names_en: ~
        names_es: ~
        population: 9557
        timezone: Asia/Gaza
      - 
        alternate_names: 
          - Shuqba
          - Shuqbah
          - Shuqbā
        ascii_name: Shuqba
        geonamesid: 281808
        latitude: 31.98333
        longitude: 35.03333
        name: Shuqbā
        names_en: ~
        names_es: ~
        population: 4188
        timezone: Asia/Gaza
      - 
        alternate_names: 
          - "Khirbat Saydah"
          - "Khirbat Şaydāh"
          - Sayda
          - Seida
        ascii_name: Sayda
        geonamesid: 281965
        latitude: 32.38528
        longitude: 35.11972
        name: Şaydā
        names_en: ~
        names_es: ~
        population: 2988
        timezone: Asia/Gaza
      - 
        alternate_names: 
          - Sarta
          - Sartah
          - Şarţah
        ascii_name: Sartah
        geonamesid: 281979
        latitude: 32.1025
        longitude: 35.08917
        name: Şarţah
        names_en: ~
        names_es: ~
        population: 2528
        timezone: Asia/Gaza
      - 
        alternate_names: 
          - Sarra
          - Sarrah
          - Şarrah
          - Ṣarra
        ascii_name: Sarrah
        geonamesid: 281982
        latitude: 32.21139
        longitude: 35.19222
        name: Şarrah
        names_en: ~
        names_es: ~
        population: 2810
        timezone: Asia/Gaza
      - 
        alternate_names: ~
        ascii_name: Sanur
        geonamesid: 281997
        latitude: 32.35611
        longitude: 35.24694
        name: Şānūr
        names_en: ~
        names_es: ~
        population: 4141
        timezone: Asia/Gaza
      - 
        alternate_names: 
          - Samiriyyah
          - Sanirah
          - Sanireh
          - Sanniriya
        ascii_name: Sanniriyah
        geonamesid: 281998
        latitude: 32.12861
        longitude: 35.04722
        name: Sannīrīyah
        names_en: ~
        names_es: ~
        population: 2887
        timezone: Asia/Gaza
      - 
        alternate_names: 
          - Salem
          - Salim
          - Sālem
          - Sālim
        ascii_name: Salim
        geonamesid: 282034
        latitude: 32.20917
        longitude: 35.32778
        name: Sālim
        names_en: ~
        names_es: ~
        population: 4940
        timezone: Asia/Gaza
      - 
        alternate_names: 
          - Salfit
          - Salfīt
        ascii_name: Salfit
        geonamesid: 282039
        latitude: 32.08083
        longitude: 35.17611
        name: Salfīt
        names_en: ~
        names_es: ~
        population: 9452
        timezone: Asia/Gaza
      - 
        alternate_names: ~
        ascii_name: Saffa
        geonamesid: 282069
        latitude: 31.9
        longitude: 35.06667
        name: Şaffā
        names_en: ~
        names_es: ~
        population: 3904
        timezone: Asia/Gaza
      - 
        alternate_names: 
          - Sabastiya
          - Sabastiyah
          - Sabasţīyah
          - Sabatiyah
        ascii_name: Sabastiyah
        geonamesid: 282108
        latitude: 32.27639
        longitude: 35.195
        name: Sabasţīyah
        names_en: ~
        names_es: ~
        population: 2823
        timezone: Asia/Gaza
      - 
        alternate_names: 
          - Rummana
          - Rummanah
          - Rummāna
          - Rummānah
        ascii_name: Rummanah
        geonamesid: 282119
        latitude: 32.52333
        longitude: 35.20556
        name: Rummānah
        names_en: ~
        names_es: ~
        population: 3275
        timezone: Asia/Gaza
      - 
        alternate_names: 
          - Rujayb
          - Rujeib
          - Rūjayb
        ascii_name: Rujayb
        geonamesid: 282140
        latitude: 32.18333
        longitude: 35.3
        name: Rūjayb
        names_en: ~
        names_es: ~
        population: 3805
        timezone: Asia/Gaza
      - 
        alternate_names: ~
        ascii_name: Rantis
        geonamesid: 282230
        latitude: 32.025
        longitude: 35.0175
        name: Rantīs
        names_en: ~
        names_es: ~
        population: 2795
        timezone: Asia/Gaza
      - 
        alternate_names: 
          - Rammun
          - Rammūn
          - Rimmon
        ascii_name: Rammun
        geonamesid: 282234
        latitude: 31.93333
        longitude: 35.3
        name: Rammūn
        names_en: ~
        names_es: ~
        population: 3101
        timezone: Asia/Gaza
      - 
        alternate_names: ~
        ascii_name: Ramin
        geonamesid: 282237
        latitude: 32.28361
        longitude: 35.14917
        name: Rāmīn
        names_en: ~
        names_es: ~
        population: 2040
        timezone: Asia/Gaza
      - 
        alternate_names: 
          - "Rahm Alla"
          - "Ram Allah"
          - Ramala
          - Ramalla
        ascii_name: Ramallah
        geonamesid: 282239
        latitude: 31.9
        longitude: 35.2
        name: Ramallah
        names_en: 
          - Ramallah
        names_es: 
          - Ramala
        population: 24599
        timezone: Asia/Gaza
      - 
        alternate_names: ~
        ascii_name: Rafat
        geonamesid: 282264
        latitude: 32.07806
        longitude: 35.04417
        name: Rāfāt
        names_en: ~
        names_es: ~
        population: 1952
        timezone: Asia/Gaza
      - 
        alternate_names: ~
        ascii_name: Rafat
        geonamesid: 282265
        latitude: 31.86667
        longitude: 35.2
        name: Rāfāt
        names_en: ~
        names_es: ~
        population: 2061
        timezone: Asia/Gaza
      - 
        alternate_names: ~
        ascii_name: Raba
        geonamesid: 282278
        latitude: 32.38583
        longitude: 35.38194
        name: Rābā
        names_en: ~
        names_es: ~
        population: 2951
        timezone: Asia/Gaza
      - 
        alternate_names: 
          - Kusrah
          - Qusra
          - Qusrah
          - Quşrah
        ascii_name: Qusrah
        geonamesid: 282283
        latitude: 32.08333
        longitude: 35.33333
        name: Quşrah
        names_en: ~
        names_es: ~
        population: 4316
        timezone: Asia/Gaza
      - 
        alternate_names: 
          - Kibbia
          - Qibya
          - Qibyah
          - Qibye
        ascii_name: Qibya
        geonamesid: 282348
        latitude: 31.98333
        longitude: 35.01667
        name: Qibyā
        names_en: ~
        names_es: ~
        population: 4761
        timezone: Asia/Gaza
      - 
        alternate_names: 
          - Katanneh
          - Qatana
          - Qatanna
          - Qatannah
        ascii_name: Qatannah
        geonamesid: 282376
        latitude: 31.83333
        longitude: 35.1
        name: Qaţannah
        names_en: ~
        names_es: ~
        population: 7274
        timezone: Asia/Gaza
      - 
        alternate_names: 
          - Kuriyut
        ascii_name: Qaryut
        geonamesid: 282423
        latitude: 32.06667
        longitude: 35.3
        name: Qaryūt
        names_en: ~
        names_es: ~
        population: 2399
        timezone: Asia/Gaza
      - 
        alternate_names: 
          - "Qarawat Bani Zayd"
          - "Qarawat Bani Zeid"
          - "Qarāwat Banī Zayd"
          - "Quarawat Bani Zeid"
        ascii_name: "Qarawat Bani Zayd"
        geonamesid: 282438
        latitude: 32.05333
        longitude: 35.12667
        name: "Qarāwat Banī Zayd"
        names_en: ~
        names_es: ~
        population: 2673
        timezone: Asia/Gaza
      - 
        alternate_names: 
          - "Kal Kiliya"
          - Kal'kilija
          - Kalkilieh
          - "Kfar Saba"
        ascii_name: Qalqilyah
        geonamesid: 282457
        latitude: 32.18639
        longitude: 34.96306
        name: Qalqīlyah
        names_en: 
          - Qalqilyah
        names_es: ~
        population: 43212
        timezone: Asia/Gaza
      - 
        alternate_names: 
          - Kuffin
          - Qaffin
          - Qaffīn
          - Quffin
        ascii_name: Qaffin
        geonamesid: 282463
        latitude: 32.43139
        longitude: 35.08194
        name: Qaffīn
        names_en: ~
        names_es: ~
        population: 8489
        timezone: Asia/Gaza
      - 
        alternate_names: 
          - Kubatie
          - Kubatiya
          - Qabatiya
          - Qabatiyah
        ascii_name: Qabatiyah
        geonamesid: 282476
        latitude: 32.40861
        longitude: 35.28
        name: Qabāţīyah
        names_en: ~
        names_es: ~
        population: 19127
        timezone: Asia/Gaza
      - 
        alternate_names: 
          - Kubalan
          - Qabalan
          - Qabalān
        ascii_name: Qabalan
        geonamesid: 282477
        latitude: 32.1
        longitude: 35.28333
        name: Qabalān
        names_en: ~
        names_es: ~
        population: 7043
        timezone: Asia/Gaza
      - 
        alternate_names: ~
        ascii_name: Nuba
        geonamesid: 282510
        latitude: 31.6
        longitude: 35.03333
        name: Nūbā
        names_en: ~
        names_es: ~
        population: 4328
        timezone: Asia/Gaza
      - 
        alternate_names: ~
        ascii_name: Nahhalin
        geonamesid: 282593
        latitude: 31.68333
        longitude: 35.11667
        name: Naḩḩālīn
        names_en: ~
        names_es: ~
        population: 6215
        timezone: Asia/Gaza
      - 
        alternate_names: 
          - "Flavia Neapolis"
          - Nablus
          - Nabulus
          - Naplouse
        ascii_name: Nablus
        geonamesid: 282615
        latitude: 32.22111
        longitude: 35.25444
        name: Nablus
        names_en: 
          - Nablus
          - Shechem
        names_es: 
          - Siquem
        population: 130326
        timezone: Asia/Gaza
      - 
        alternate_names: 
          - Misilya
          - Misilyah
          - Misliya
          - Misliyah
        ascii_name: Misilyah
        geonamesid: 282740
        latitude: 32.38333
        longitude: 35.28333
        name: Misilyah
        names_en: ~
        names_es: ~
        population: 2187
        timezone: Asia/Gaza
      - 
        alternate_names: 
          - Maysalun
          - Maysalūn
          - Maythalun
          - Maythalūn
        ascii_name: Maythalun
        geonamesid: 282793
        latitude: 32.35
        longitude: 35.26667
        name: Maythalūn
        names_en: ~
        names_es: ~
        population: 6804
        timezone: Asia/Gaza
      - 
        alternate_names: 
          - Marda
          - Mardah
        ascii_name: Mardah
        geonamesid: 282872
        latitude: 32.11194
        longitude: 35.19167
        name: Mardah
        names_en: ~
        names_es: ~
        population: 2142
        timezone: Asia/Gaza
      - 
        alternate_names: 
          - "Majdal Bani Fadil"
          - "Majdal Bani Fadl"
          - "Majdal Banī Fāḑil"
        ascii_name: "Majdal Bani Fadil"
        geonamesid: 282941
        latitude: 32.08222
        longitude: 35.36222
        name: "Majdal Banī Fāḑil"
        names_en: ~
        names_es: ~
        population: 2122
        timezone: Asia/Gaza
      - 
        alternate_names: 
          - Kufayrat
          - Kufayrāt
          - Kufeirat
          - Kufeirit
        ascii_name: Kufayrat
        geonamesid: 283040
        latitude: 32.44361
        longitude: 35.20139
        name: Kufayrāt
        names_en: ~
        names_es: ~
        population: 2376
        timezone: Asia/Gaza
      - 
        alternate_names: 
          - "Kafr Haris"
          - "Kafr Ḩaris"
          - "Kiel Harith"
          - "Kiel Ḥārith"
        ascii_name: "Kifl Harith"
        geonamesid: 283055
        latitude: 32.11556
        longitude: 35.15417
        name: "Kifl Ḩārith"
        names_en: ~
        names_es: ~
        population: 3132
        timezone: Asia/Gaza
      - 
        alternate_names: 
          - "Burj el Baiyara"
          - "Burj el Baiyāra"
          - "Khirbat al Burj"
          - "Khirbat el Burj"
        ascii_name: "Khirbat al Burj"
        geonamesid: 283176
        latitude: 31.45
        longitude: 34.9
        name: "Khirbat al Burj"
        names_en: ~
        names_es: ~
        population: 2381
        timezone: Asia/Gaza
      - 
        alternate_names: 
          - "Al Jardah"
          - "Khirbat Abu Falah"
          - "Khirbat Abū Falāḩ"
          - "Khirbet Abu Falah"
        ascii_name: "Khirbat Abu Falah"
        geonamesid: 283189
        latitude: 32.01667
        longitude: 35.3
        name: "Khirbat Abū Falāḩ"
        names_en: ~
        names_es: ~
        population: 3961
        timezone: Asia/Gaza
      - 
        alternate_names: ~
        ascii_name: Kharas
        geonamesid: 283246
        latitude: 31.61667
        longitude: 35.03333
        name: Khārās
        names_en: ~
        names_es: ~
        population: 6885
        timezone: Asia/Gaza
      - 
        alternate_names: 
          - Kaubar
          - Kawbar
        ascii_name: Kawbar
        geonamesid: 283316
        latitude: 31.98333
        longitude: 35.16667
        name: Kawbar
        names_en: ~
        names_es: ~
        population: 3546
        timezone: Asia/Gaza
      - 
        alternate_names: ~
        ascii_name: "Kafr Thulth"
        geonamesid: 283351
        latitude: 32.14972
        longitude: 35.04333
        name: "Kafr Thulth"
        names_en: ~
        names_es: ~
        population: 4218
        timezone: Asia/Gaza
      - 
        alternate_names: 
          - "Kafr Qalil"
          - "Kafr Qallil"
          - "Kafr Qallīl"
          - "Kafr Qalīl"
        ascii_name: "Kafr Qallil"
        geonamesid: 283365
        latitude: 32.2
        longitude: 35.28333
        name: "Kafr Qallīl"
        names_en: ~
        names_es: ~
        population: 2421
        timezone: Asia/Gaza
      - 
        alternate_names: 
          - "Allen More"
          - "Alon Moreh"
          - Alon-Morah
          - "Elon Moreh"
        ascii_name: "Kafr Qaddum"
        geonamesid: 283366
        latitude: 32.22139
        longitude: 35.14222
        name: "Kafr Qaddūm"
        names_en: ~
        names_es: ~
        population: 3376
        timezone: Asia/Gaza
      - 
        alternate_names: ~
        ascii_name: "Kafr Malik"
        geonamesid: 283370
        latitude: 31.98333
        longitude: 35.31667
        name: "Kafr Mālik"
        names_en: ~
        names_es: ~
        population: 2903
        timezone: Asia/Gaza
      - 
        alternate_names: ~
        ascii_name: "Kafr Jammal"
        geonamesid: 283373
        latitude: 32.22528
        longitude: 35.04333
        name: "Kafr Jammāl"
        names_en: ~
        names_es: ~
        population: 2481
        timezone: Asia/Gaza
      - 
        alternate_names: ~
        ascii_name: "Kafr Dan"
        geonamesid: 283378
        latitude: 32.47861
        longitude: 35.25389
        name: "Kafr Dān"
        names_en: ~
        names_es: ~
        population: 4967
        timezone: Asia/Gaza
      - 
        alternate_names: 
          - "Kafr al Labad"
          - "Kafr el Labad"
        ascii_name: "Kafr al Labad"
        geonamesid: 283384
        latitude: 32.29722
        longitude: 35.11083
        name: "Kafr al Labad"
        names_en: ~
        names_es: ~
        population: 3915
        timezone: Asia/Gaza
      - 
        alternate_names: 
          - "Kafr ad Dik"
          - "Kafr ad Dīk"
          - "Kafr ed Dik"
          - "Kafr ed Dīk"
        ascii_name: "Kafr ad Dik"
        geonamesid: 283385
        latitude: 32.06472
        longitude: 35.07861
        name: "Kafr ad Dīk"
        names_en: ~
        names_es: ~
        population: 4986
        timezone: Asia/Gaza
      - 
        alternate_names: 
          - Jit
          - Jitt
          - Jīt
          - Jītt
        ascii_name: Jit
        geonamesid: 283449
        latitude: 32.21611
        longitude: 35.16778
        name: Jīt
        names_en: ~
        names_es: ~
        population: 2243
        timezone: Asia/Gaza
      - 
        alternate_names: 
          - Jaiyus
          - Jaiyūs
          - Jayyus
          - Jayyūs
        ascii_name: Jayyus
        geonamesid: 283469
        latitude: 32.20083
        longitude: 35.03528
        name: Jayyūs
        names_en: ~
        names_es: ~
        population: 3196
        timezone: Asia/Gaza
      - 
        alternate_names: 
          - Djenin
          - Dschenin
          - Dzhanin
          - Engannim
        ascii_name: Janin
        geonamesid: 283506
        latitude: 32.45639
        longitude: 35.29583
        name: Janīn
        names_en: 
          - Jenin
        names_es: ~
        population: 34730
        timezone: Asia/Gaza
      - 
        alternate_names: 
          - Djelbon
          - Gilbo`a
          - Gilbo‘a
          - Jalbun
        ascii_name: Jalbun
        geonamesid: 283540
        latitude: 32.45778
        longitude: 35.41444
        name: Jalbūn
        names_en: ~
        names_es: ~
        population: 2421
        timezone: Asia/Gaza
      - 
        alternate_names: 
          - Immatin
          - Immātīn
          - "Um et Tin"
          - "Um et Tīn"
        ascii_name: Immatin
        geonamesid: 283609
        latitude: 32.1925
        longitude: 35.15861
        name: Immātīn
        names_en: ~
        names_es: ~
        population: 2368
        timezone: Asia/Gaza
      - 
        alternate_names: ~
        ascii_name: "`Illar"
        geonamesid: 283612
        latitude: 32.37111
        longitude: 35.10639
        name: ‘Illār
        names_en: ~
        names_es: ~
        population: 6681
        timezone: Asia/Gaza
      - 
        alternate_names: 
          - Iktaba
          - Iktabah
          - Iktābah
        ascii_name: Iktabah
        geonamesid: 283614
        latitude: 32.32583
        longitude: 35.05833
        name: Iktābah
        names_en: ~
        names_es: ~
        population: 1919
        timezone: Asia/Gaza
      - 
        alternate_names: 
          - Huwarah
          - Huwwara
          - Huwwarah
          - Huwwāra
        ascii_name: Huwarah
        geonamesid: 283636
        latitude: 32.14694
        longitude: 35.25667
        name: Ḩūwārah
        names_en: ~
        names_es: ~
        population: 5633
        timezone: Asia/Gaza
      - 
        alternate_names: ~
        ascii_name: Husan
        geonamesid: 283643
        latitude: 31.71667
        longitude: 35.13333
        name: Ḩūsān
        names_en: ~
        names_es: ~
        population: 5535
        timezone: Asia/Gaza
      - 
        alternate_names: 
          - Hizma
          - Hizmah
          - Ḩizmah
          - Ḩizmā
        ascii_name: Hizma
        geonamesid: 283676
        latitude: 31.83333
        longitude: 35.26667
        name: Ḩizmā
        names_en: ~
        names_es: ~
        population: 5916
        timezone: Asia/Gaza
      - 
        alternate_names: ~
        ascii_name: Haris
        geonamesid: 283735
        latitude: 32.11417
        longitude: 35.1425
        name: Ḩāris
        names_en: ~
        names_es: ~
        population: 2967
        timezone: Asia/Gaza
      - 
        alternate_names: ~
        ascii_name: Halhul
        geonamesid: 283806
        latitude: 31.58333
        longitude: 35.11667
        name: Ḩalḩūl
        names_en: ~
        names_es: ~
        population: 21076
        timezone: Asia/Gaza
      - 
        alternate_names: 
          - Hajja
          - Hajjah
          - "Qaryat Hajja"
          - "Qaryat Hajjah"
        ascii_name: Hajjah
        geonamesid: 283812
        latitude: 32.20472
        longitude: 35.13083
        name: Ḩajjah
        names_en: ~
        names_es: ~
        population: 2444
        timezone: Asia/Gaza
      - 
        alternate_names: 
          - Habla
          - Hablah
          - Ḩablah
        ascii_name: Hablah
        geonamesid: 283843
        latitude: 32.16139
        longitude: 34.975
        name: Ḩablah
        names_en: ~
        names_es: ~
        population: 5945
        timezone: Asia/Gaza
      - 
        alternate_names: 
          - Fahma
          - Fahmah
          - Faḥma
          - Faḩmah
        ascii_name: Fahmah
        geonamesid: 283976
        latitude: 32.3825
        longitude: 35.17972
        name: Faḩmah
        names_en: ~
        names_es: ~
        population: 2369
        timezone: Asia/Gaza
      - 
        alternate_names: 
          - Dura
          - Durah
          - Dury
          - Dūrah
        ascii_name: Dura
        geonamesid: 284011
        latitude: 31.5
        longitude: 35.03333
        name: Dūrā
        names_en: ~
        names_es: ~
        population: 20835
        timezone: Asia/Gaza
      - 
        alternate_names: 
          - Doma
          - Domea
          - Duma
          - Dumah
        ascii_name: Domea
        geonamesid: 284013
        latitude: 32.05
        longitude: 35.36667
        name: Domea
        names_en: ~
        names_es: ~
        population: 2157
        timezone: Asia/Gaza
      - 
        alternate_names: 
          - Dannaba
          - Dannabah
          - Dannāba
          - Dannābah
        ascii_name: Dhannabah
        geonamesid: 284046
        latitude: 32.31417
        longitude: 35.04139
        name: Dhannābah
        names_en: ~
        names_es: ~
        population: 8193
        timezone: Asia/Gaza
      - 
        alternate_names: 
          - "Dayr Sharaf"
          - "Deir Sharaf"
        ascii_name: "Dayr Sharaf"
        geonamesid: 284054
        latitude: 32.25389
        longitude: 35.18889
        name: "Dayr Sharaf"
        names_en: ~
        names_es: ~
        population: 2681
        timezone: Asia/Gaza
      - 
        alternate_names: 
          - "Dayr Jarir"
          - "Dayr Jarīr"
          - "Deir Jarir"
          - "Deir Jarīr"
        ascii_name: "Dayr Jarir"
        geonamesid: 284069
        latitude: 31.96667
        longitude: 35.3
        name: "Dayr Jarīr"
        names_en: ~
        names_es: ~
        population: 4156
        timezone: Asia/Gaza
      - 
        alternate_names: 
          - "Dayr Istiya"
          - "Dayr Istiyā"
          - "Dayr Istya"
          - "Dayr Istyā"
        ascii_name: "Dayr Istiya"
        geonamesid: 284071
        latitude: 32.12917
        longitude: 35.13806
        name: "Dayr Istiyā"
        names_en: ~
        names_es: ~
        population: 3730
        timezone: Asia/Gaza
      - 
        alternate_names: 
          - "Dayr Dibwan"
          - "Dayr Dibwān"
          - "Deir Dibwan"
          - "Deir Dibwān"
        ascii_name: "Dayr Dibwan"
        geonamesid: 284078
        latitude: 31.91667
        longitude: 35.26667
        name: "Dayr Dibwān"
        names_en: ~
        names_es: ~
        population: 6692
        timezone: Asia/Gaza
      - 
        alternate_names: 
          - "Dair Balut"
          - "Dayr Ballut"
          - "Dayr Ballūţ"
          - "Deir Ballut"
        ascii_name: "Dayr Ballut"
        geonamesid: 284081
        latitude: 32.06389
        longitude: 35.02333
        name: "Dayr Ballūţ"
        names_en: ~
        names_es: ~
        population: 3566
        timezone: Asia/Gaza
      - 
        alternate_names: 
          - "Dayr as Sudan"
          - "Dayr as Sūdān"
          - "Deir as Sudan"
          - "Deir es Sudan"
        ascii_name: "Dayr as Sudan"
        geonamesid: 284085
        latitude: 32.03389
        longitude: 35.14833
        name: "Dayr as Sūdān"
        names_en: ~
        names_es: ~
        population: 2104
        timezone: Asia/Gaza
      - 
        alternate_names: 
          - "Dayr al Hatab"
          - "Dayr al Ḩaţab"
          - "Deir al Hatab"
          - "Deir el Hatab"
        ascii_name: "Dayr al Hatab"
        geonamesid: 284099
        latitude: 32.21667
        longitude: 35.31667
        name: "Dayr al Ḩaţab"
        names_en: ~
        names_es: ~
        population: 2194
        timezone: Asia/Gaza
      - 
        alternate_names: 
          - "Dayr al Ghusn"
          - "Dayr al Ghusun"
          - "Dayr al Ghuşn"
          - "Dayr al Ghuşūn"
        ascii_name: "Dayr al Ghusun"
        geonamesid: 284100
        latitude: 32.3525
        longitude: 35.07444
        name: "Dayr al Ghuşūn"
        names_en: ~
        names_es: ~
        population: 9187
        timezone: Asia/Gaza
      - 
        alternate_names: 
          - Bruqin
          - Burgin
          - Burgīn
          - Burqayn
        ascii_name: Buruqin
        geonamesid: 284187
        latitude: 32.06917
        longitude: 35.09944
        name: Burūqīn
        names_en: ~
        names_es: ~
        population: 3538
        timezone: Asia/Gaza
      - 
        alternate_names: 
          - Birqin
          - Birqīn
        ascii_name: Burqin
        geonamesid: 284194
        latitude: 32.45306
        longitude: 35.25833
        name: Burqīn
        names_en: ~
        names_es: ~
        population: 5730
        timezone: Asia/Gaza
      - 
        alternate_names: 
          - Burqa
          - Burqah
          - Burqā
        ascii_name: Burqa
        geonamesid: 284197
        latitude: 31.9
        longitude: 35.25
        name: Burqā
        names_en: ~
        names_es: ~
        population: 2238
        timezone: Asia/Gaza
      - 
        alternate_names: ~
        ascii_name: Burin
        geonamesid: 284214
        latitude: 32.18111
        longitude: 35.24861
        name: Būrīn
        names_en: ~
        names_es: ~
        population: 2500
        timezone: Asia/Gaza
      - 
        alternate_names: 
          - "Az Zayt"
          - "Bi'r Zayt"
          - "Bi'r az Zayt"
          - "Bir Zeit"
        ascii_name: "Bi'r Zayt"
        geonamesid: 284237
        latitude: 31.96667
        longitude: 35.2
        name: "Bi’r Zayt"
        names_en: ~
        names_es: ~
        population: 6398
        timezone: Asia/Gaza
      - 
        alternate_names: 
          - Biddu
          - Biddū
          - Bidu
        ascii_name: Biddu
        geonamesid: 284270
        latitude: 31.83333
        longitude: 35.15
        name: Biddū
        names_en: ~
        names_es: ~
        population: 6180
        timezone: Asia/Gaza
      - 
        alternate_names: 
          - Biddiya
          - Biddiyā
          - Biddya
          - Biddyā
        ascii_name: Biddiya
        geonamesid: 284271
        latitude: 32.11306
        longitude: 35.07639
        name: Biddiyā
        names_en: ~
        names_es: ~
        population: 8065
        timezone: Asia/Gaza
      - 
        alternate_names: 
          - Bazariya
          - Bazariyah
          - Bazzariya
          - Bazzariyah
        ascii_name: Bazzariyah
        geonamesid: 284284
        latitude: 32.30694
        longitude: 35.16611
        name: Bazzārīyah
        names_en: ~
        names_es: ~
        population: 2091
        timezone: Asia/Gaza
      - 
        alternate_names: 
          - Baytuniya
          - Baytūniyā
          - Beitunia
          - Beituniya
        ascii_name: Baytuniya
        geonamesid: 284294
        latitude: 31.88333
        longitude: 35.16667
        name: Baytūniyā
        names_en: ~
        names_es: ~
        population: 12822
        timezone: Asia/Gaza
      - 
        alternate_names: 
          - "Bayt Umrin"
          - "Bayt Umrīn"
          - "Beit Umrin"
          - "Beit Umrīn"
        ascii_name: "Bayt Umrin"
        geonamesid: 284295
        latitude: 32.29111
        longitude: 35.21556
        name: "Bayt Umrīn"
        names_en: ~
        names_es: ~
        population: 2794
        timezone: Asia/Gaza
      - 
        alternate_names: 
          - "Bayt Surik"
          - "Bayt Sūrīk"
          - "Beit Surik"
          - "Beit Sūrīk"
        ascii_name: "Bayt Surik"
        geonamesid: 284297
        latitude: 31.83333
        longitude: 35.15
        name: "Bayt Sūrīk"
        names_en: ~
        names_es: ~
        population: 3705
        timezone: Asia/Gaza
      - 
        alternate_names: 
          - "Bayt Sira"
          - "Bayt Sīrā"
          - "Beit Sira"
          - "Beit Sīrā"
        ascii_name: "Bayt Sira"
        geonamesid: 284298
        latitude: 31.88333
        longitude: 35.05
        name: "Bayt Sīrā"
        names_en: ~
        names_es: ~
        population: 2744
        timezone: Asia/Gaza
      - 
        alternate_names: 
          - "Bayt Sahur"
          - "Bayt Sāḩūr"
          - "Beit Sahur"
          - "Beit Saḥūr"
        ascii_name: "Bayt Sahur"
        geonamesid: 284304
        latitude: 31.7
        longitude: 35.21667
        name: "Bayt Sāḩūr"
        names_en: ~
        names_es: ~
        population: 14921
        timezone: Asia/Gaza
      - 
        alternate_names: 
          - "Bayt Liqya"
          - "Bayt Liqyā"
          - "Beit Liqya"
          - "Beit Liqyā"
        ascii_name: "Bayt Liqya"
        geonamesid: 284312
        latitude: 31.86667
        longitude: 35.06667
        name: "Bayt Liqyā"
        names_en: ~
        names_es: ~
        population: 7795
        timezone: Asia/Gaza
      - 
        alternate_names: 
          - "Bayt Lid"
          - "Bayt Līd"
          - "Beit Lid"
          - "Beit Līd"
        ascii_name: "Bayt Lid"
        geonamesid: 284313
        latitude: 32.26
        longitude: 35.13139
        name: "Bayt Līd"
        names_en: ~
        names_es: ~
        population: 5740
        timezone: Asia/Gaza
      - 
        alternate_names: 
          - "Bayt Lahm"
          - "Bayt Laḩm"
          - "Beit Lahm"
          - "Beit Lehem"
        ascii_name: Bethlehem
        geonamesid: 284315
        latitude: 31.71667
        longitude: 35.2
        name: Bethlehem
        names_en: 
          - Bethlehem
        names_es: 
          - Belén
          - "Belén de Judá"
        population: 29019
        timezone: Asia/Gaza
      - 
        alternate_names: 
          - "Bayt Kahil"
          - "Bayt Kāḩil"
          - "Beit Kahil"
          - "Beit Kāḥil"
        ascii_name: "Bayt Kahil"
        geonamesid: 284320
        latitude: 31.56667
        longitude: 35.06667
        name: "Bayt Kāḩil"
        names_en: ~
        names_es: ~
        population: 5663
        timezone: Asia/Gaza
      - 
        alternate_names: 
          - "Bayt Jala"
          - "Bayt Jālā"
          - "Beit Jala"
          - "Beit Jālā"
        ascii_name: "Bayt Jala"
        geonamesid: 284324
        latitude: 31.71667
        longitude: 35.18333
        name: "Bayt Jālā"
        names_en: ~
        names_es: ~
        population: 16183
        timezone: Asia/Gaza
      - 
        alternate_names: 
          - Baytin
          - Baytīn
          - Beitin
          - Beitīn
        ascii_name: Baytin
        geonamesid: 284328
        latitude: 31.93333
        longitude: 35.23333
        name: Baytīn
        names_en: ~
        names_es: ~
        population: 2948
        timezone: Asia/Gaza
      - 
        alternate_names: 
          - "Bayt Immar"
          - "Bayt `Umar"
          - "Bayt ‘Umar"
          - "Beit Immar"
        ascii_name: "Bayt Immar"
        geonamesid: 284329
        latitude: 31.61667
        longitude: 35.1
        name: "Bayt Immar"
        names_en: ~
        names_es: ~
        population: 12238
        timezone: Asia/Gaza
      - 
        alternate_names: 
          - Baytillu
          - Baytillū
          - Beitillu
        ascii_name: Baytillu
        geonamesid: 284330
        latitude: 31.98333
        longitude: 35.11667
        name: Baytillū
        names_en: ~
        names_es: ~
        population: 2978
        timezone: Asia/Gaza
      - 
        alternate_names: 
          - "Bayt Iba"
          - "Bayt Ībā"
          - "Beit Iba"
          - "Beit Ība"
        ascii_name: "Bayt Iba"
        geonamesid: 284334
        latitude: 32.23556
        longitude: 35.20861
        name: "Bayt Ībā"
        names_en: ~
        names_es: ~
        population: 3175
        timezone: Asia/Gaza
      - 
        alternate_names: 
          - "Bayt Furik"
          - "Bayt Fūrīk"
          - "Bayt Nurik"
          - "Bayt Nūrīk"
        ascii_name: "Bayt Furik"
        geonamesid: 284339
        latitude: 32.17667
        longitude: 35.33222
        name: "Bayt Fūrīk"
        names_en: ~
        names_es: ~
        population: 10108
        timezone: Asia/Gaza
      - 
        alternate_names: 
          - "Bayt Fajjar"
          - "Bayt Fajjār"
          - "Beit Fajjar"
          - "Beit Fajjār"
        ascii_name: "Bayt Fajjar"
        geonamesid: 284341
        latitude: 31.61667
        longitude: 35.15
        name: "Bayt Fajjār"
        names_en: ~
        names_es: ~
        population: 10579
        timezone: Asia/Gaza
      - 
        alternate_names: 
          - "Bayt Dajan"
          - "Beit Dajan"
        ascii_name: "Bayt Dajan"
        geonamesid: 284343
        latitude: 32.1925
        longitude: 35.36806
        name: "Bayt Dajan"
        names_en: ~
        names_es: ~
        population: 3487
        timezone: Asia/Gaza
      - 
        alternate_names: 
          - "Bayt Awla"
          - "Bayt Awlā"
          - "Beit Aula"
          - "Beit Aulā"
        ascii_name: "Bayt Awla"
        geonamesid: 284347
        latitude: 31.6
        longitude: 35.03333
        name: "Bayt Awlā"
        names_en: ~
        names_es: ~
        population: 9159
        timezone: Asia/Gaza
      - 
        alternate_names: 
          - "Bayta al Fawqa"
          - "Baytā al Fawqā"
          - "Beita al Fauqa"
          - "Beita el Fauqa"
        ascii_name: "Bayta al Fawqa"
        geonamesid: 284362
        latitude: 32.14167
        longitude: 35.28472
        name: "Baytā al Fawqā"
        names_en: ~
        names_es: ~
        population: 8535
        timezone: Asia/Gaza
      - 
        alternate_names: 
          - Battir
          - Battīr
          - Betar
        ascii_name: Battir
        geonamesid: 284376
        latitude: 31.73333
        longitude: 35.13333
        name: Battīr
        names_en: ~
        names_es: ~
        population: 4092
        timezone: Asia/Gaza
      - 
        alternate_names: 
          - "Baqa ash Sharqiya"
          - "Baqa esh Sharqiya"
          - "Baqah ash Sharqiyah"
          - "Baqat ash Sharqiyah"
        ascii_name: "Baqah ash Sharqiyah"
        geonamesid: 284426
        latitude: 32.41
        longitude: 35.06972
        name: "Bāqah ash Sharqīyah"
        names_en: ~
        names_es: ~
        population: 4165
        timezone: Asia/Gaza
      - 
        alternate_names: 
          - Balata
          - Balatah
          - Balāta
          - Balāţah
        ascii_name: Balatah
        geonamesid: 284446
        latitude: 32.205
        longitude: 35.28472
        name: Balāţah
        names_en: ~
        names_es: ~
        population: 17146
        timezone: Asia/Gaza
      - 
        alternate_names: 
          - "Az Zawiyah"
          - "Az Zāwiyah"
          - "Ez Zawiya"
          - "Ez Zawye"
        ascii_name: "Az Zawiyah"
        geonamesid: 284485
        latitude: 32.09583
        longitude: 35.04028
        name: "Az Zāwiyah"
        names_en: ~
        names_es: ~
        population: 4917
        timezone: Asia/Gaza
      - 
        alternate_names: 
          - "Ad Dahiriyah"
          - "Adh Dhahiriya"
          - "Az Zahiriyah"
          - "Az̧ Z̧āhirīyah"
        ascii_name: "Az Zahiriyah"
        geonamesid: 284486
        latitude: 31.41667
        longitude: 34.96667
        name: "Az̧ Z̧āhirīyah"
        names_en: ~
        names_es: ~
        population: 27616
        timezone: Asia/Gaza
      - 
        alternate_names: 
          - "Az Zababida"
          - "Az Zababidah"
          - "Az Zababide"
          - "Az Zabābidah"
        ascii_name: "Az Zababidah"
        geonamesid: 284487
        latitude: 32.38472
        longitude: 35.3225
        name: "Az Zabābidah"
        names_en: ~
        names_es: ~
        population: 3751
        timezone: Asia/Gaza
      - 
        alternate_names: ~
        ascii_name: "`Attil"
        geonamesid: 284557
        latitude: 32.36917
        longitude: 35.06972
        name: ‘Attīl
        names_en: ~
        names_es: ~
        population: 10100
        timezone: Asia/Gaza
      - 
        alternate_names: 
          - "As Sawiya"
          - "As Sawiyah"
          - "As Sāwiyah"
          - "Es Sawiya"
        ascii_name: "As Sawiyah"
        geonamesid: 284581
        latitude: 32.08333
        longitude: 35.26667
        name: "As Sāwiyah"
        names_en: ~
        names_es: ~
        population: 2236
        timezone: Asia/Gaza
      - 
        alternate_names: 
          - "Ash Shuyukh"
          - "Ash Shuyūkh"
          - "Esh Shuyukh"
          - "Esh Shuyūkh"
        ascii_name: "Ash Shuyukh"
        geonamesid: 284597
        latitude: 31.58333
        longitude: 35.15
        name: "Ash Shuyūkh"
        names_en: ~
        names_es: ~
        population: 8151
        timezone: Asia/Gaza
      - 
        alternate_names: 
          - Artas
          - Artasium
          - Arţās
        ascii_name: Artas
        geonamesid: 284868
        latitude: 31.68333
        longitude: 35.18333
        name: Arţās
        names_en: ~
        names_es: ~
        population: 3552
        timezone: Asia/Gaza
      - 
        alternate_names: 
          - "Ar Rihiya"
          - "Ar Rihiyah"
          - "Ar Rīḩīyah"
          - Barta'a
        ascii_name: "Ar Rihiyah"
        geonamesid: 284881
        latitude: 31.46667
        longitude: 35.08333
        name: "Ar Rīḩīyah"
        names_en: ~
        names_es: ~
        population: 3369
        timezone: Asia/Gaza
      - 
        alternate_names: 
          - "Ar Ram"
          - "Ar Rām"
          - "Er Ram"
          - "Er Rām"
        ascii_name: "Ar Ram"
        geonamesid: 284890
        latitude: 31.85
        longitude: 35.23333
        name: "Ar Rām"
        names_en: ~
        names_es: ~
        population: 24838
        timezone: Asia/Gaza
      - 
        alternate_names: 
          - Arabeh
          - "`Arava"
          - "`Arraba"
          - "`Arrabah"
        ascii_name: "`Arrabah"
        geonamesid: 284893
        latitude: 32.405
        longitude: 35.20194
        name: ‘Arrābah
        names_en: ~
        names_es: ~
        population: 9703
        timezone: Asia/Gaza
      - 
        alternate_names: 
          - Ariha
          - Arīḩā
          - Eriha
          - Erihon
        ascii_name: Jericho
        geonamesid: 284899
        latitude: 31.86667
        longitude: 35.45
        name: Jericho
        names_en: 
          - Jericho
        names_es: 
          - Jericó
        population: 19783
        timezone: Asia/Gaza
      - 
        alternate_names: 
          - "`Aqraba"
          - "`Aqrabah"
          - "`Aqrabe"
          - ‘Aqraba
        ascii_name: "`Aqrabah"
        geonamesid: 284922
        latitude: 32.1275
        longitude: 35.34222
        name: ‘Aqrabah
        names_en: ~
        names_es: ~
        population: 7707
        timezone: Asia/Gaza
      - 
        alternate_names: 
          - "`Anabta"
          - "`Anabtah"
          - "`Anebta"
          - ‘Anabtah
        ascii_name: "`Anabta"
        geonamesid: 284976
        latitude: 32.30806
        longitude: 35.11861
        name: ‘Anabtā
        names_en: ~
        names_es: ~
        population: 7106
        timezone: Asia/Gaza
      - 
        alternate_names: 
          - "Al Yamun"
          - "Al Yāmūn"
          - "El Yamun"
          - "El Yāmūn"
        ascii_name: "Al Yamun"
        geonamesid: 284999
        latitude: 32.4825
        longitude: 35.2275
        name: "Al Yāmūn"
        names_en: ~
        names_es: ~
        population: 16164
        timezone: Asia/Gaza
      - 
        alternate_names: 
          - "Al Qubaybah"
          - "Al Qubeiba"
          - "El Qubeiba"
          - Qubeiba
        ascii_name: "Al Qubaybah"
        geonamesid: 285009
        latitude: 31.83333
        longitude: 35.13333
        name: "Al Qubaybah"
        names_en: ~
        names_es: ~
        population: 2008
        timezone: Asia/Gaza
      - 
        alternate_names: 
          - "Al Mughaiyir"
          - "Al Mughayyir"
          - "El Mughaiyir"
          - Mughaiyir
        ascii_name: "Al Mughayyir"
        geonamesid: 285023
        latitude: 32.41667
        longitude: 35.38333
        name: "Al Mughayyir"
        names_en: ~
        names_es: ~
        population: 2175
        timezone: Asia/Gaza
      - 
        alternate_names: 
          - "Al Mughaiyir"
          - "Al Mughayir"
          - "Al Mughayyir"
          - "El Mughaiyir"
        ascii_name: "Al Mughayyir"
        geonamesid: 285024
        latitude: 32.01972
        longitude: 35.34472
        name: "Al Mughayyir"
        names_en: ~
        names_es: ~
        population: 2328
        timezone: Asia/Gaza
      - 
        alternate_names: 
          - "Al Khadr"
          - "Al Khidr"
          - "Al Khiḑr"
          - "El Khader"
        ascii_name: "Al Khidr"
        geonamesid: 285061
        latitude: 31.7
        longitude: 35.16667
        name: "Al Khiḑr"
        names_en: ~
        names_es: ~
        population: 9003
        timezone: Asia/Gaza
      - 
        alternate_names: 
          - "Al Khalil"
          - "Al Khalīl"
          - "El Khalil"
          - "El Khulil"
        ascii_name: Hebron
        geonamesid: 285066
        latitude: 31.53333
        longitude: 35.1
        name: Hebron
        names_en: 
          - Hebron
        names_es: 
          - Hebrón
        population: 160470
        timezone: Asia/Gaza
      - 
        alternate_names: 
          - "Al Judayrah"
          - Judayrah
          - Judeira
          - Judira
        ascii_name: "Al Judayrah"
        geonamesid: 285069
        latitude: 31.86667
        longitude: 35.2
        name: "Al Judayrah"
        names_en: ~
        names_es: ~
        population: 2059
        timezone: Asia/Gaza
      - 
        alternate_names: 
          - "Al Jib"
          - "Al Jīb"
          - "El Jib"
          - "El Jīb"
        ascii_name: "Al Jib"
        geonamesid: 285070
        latitude: 31.85
        longitude: 35.18333
        name: "Al Jīb"
        names_en: ~
        names_es: ~
        population: 4505
        timezone: Asia/Gaza
      - 
        alternate_names: 
          - "Al Fandaqumiya"
          - "Al Fandaqumiyah"
          - "Al Fandaqūmīyah"
          - "El Fandaqumiya"
        ascii_name: "Al Fandaqumiyah"
        geonamesid: 285103
        latitude: 32.32083
        longitude: 35.20333
        name: "Al Fandaqūmīyah"
        names_en: ~
        names_es: ~
        population: 3266
        timezone: Asia/Gaza
      - 
        alternate_names: 
          - "Al Bira"
          - "Al Birah"
          - "Al Bīrah"
          - Al'-Bira
        ascii_name: "Al Birah"
        geonamesid: 285108
        latitude: 31.9
        longitude: 35.21667
        name: "Al Bīrah"
        names_en: ~
        names_es: ~
        population: 38192
        timezone: Asia/Gaza
      - 
        alternate_names: ~
        ascii_name: "Abu Dis"
        geonamesid: 285279
        latitude: 31.76667
        longitude: 35.26667
        name: "Abū Dīs"
        names_en: ~
        names_es: ~
        population: 11753
        timezone: Asia/Gaza
      - 
        alternate_names: ~
        ascii_name: "Karney Shomron"
        geonamesid: 7535657
        latitude: 32.1714
        longitude: 35.09767
        name: "Karney Shomron"
        names_en: ~
        names_es: ~
        population: 0
        timezone: Asia/Gaza
    geonamesid: 285153
    name: "West Bank"
    names_en: ~
    names_es: ~
