--- 
geonamesid: 3437598
iso: PY
name: Paraguay
names_en: 
  - Paraguay
  - "Republic of Paraguay"
names_es: 
  - "República del Paraguay"
  - Paraguay
regions: 
  - 
    ascii_name: "Departamento de San Pedro"
    cities: 
      - 
        alternate_names: ~
        ascii_name: "Yataity del Norte"
        geonamesid: 3436655
        latitude: -24.83333
        longitude: -56.35
        name: "Yataity del Norte"
        names_en: ~
        names_es: ~
        population: 1392
        timezone: America/Asuncion
      - 
        alternate_names: ~
        ascii_name: Union
        geonamesid: 3436763
        latitude: -24.8
        longitude: -56.55
        name: Unión
        names_en: ~
        names_es: ~
        population: 1653
        timezone: America/Asuncion
      - 
        alternate_names: 
          - Tacuati
          - Tacuaty
          - Tacuatí
        ascii_name: Tacuati
        geonamesid: 3436880
        latitude: -23.45
        longitude: -56.58333
        name: Tacuatí
        names_en: ~
        names_es: ~
        population: 2405
        timezone: America/Asuncion
      - 
        alternate_names: 
          - "San Pedro"
          - "San Pedro de Ycuamandiyu"
          - "San Pedro de Ycuamandiyú"
        ascii_name: "San Pedro de Ycuamandiyu"
        geonamesid: 3437021
        latitude: -24.1
        longitude: -57.08333
        name: "San Pedro de Ycuamandiyú"
        names_en: ~
        names_es: ~
        population: 9360
        timezone: America/Asuncion
      - 
        alternate_names: 
          - "Puerto Rosario"
          - "Puerto Villa del Rosario"
        ascii_name: "Puerto Rosario"
        geonamesid: 3437342
        latitude: -24.45
        longitude: -57.08333
        name: "Puerto Rosario"
        names_en: ~
        names_es: ~
        population: 5123
        timezone: America/Asuncion
      - 
        alternate_names: 
          - "Colonia Nueva Germania"
          - "Nueva Germania"
        ascii_name: "Nueva Germania"
        geonamesid: 3437653
        latitude: -23.9
        longitude: -56.56667
        name: "Nueva Germania"
        names_en: ~
        names_es: ~
        population: 1206
        timezone: America/Asuncion
      - 
        alternate_names: 
          - Itacurabi
          - "Itacurubi del Rosario"
          - "Itacurubí del Rosario"
        ascii_name: "Itacurubi del Rosario"
        geonamesid: 3437935
        latitude: -24.5
        longitude: -56.68333
        name: "Itacurubí del Rosario"
        names_en: ~
        names_es: ~
        population: 3887
        timezone: America/Asuncion
      - 
        alternate_names: ~
        ascii_name: Guayaybi
        geonamesid: 3438034
        latitude: -24.53333
        longitude: -56.43333
        name: Guayaybi
        names_en: ~
        names_es: ~
        population: 2247
        timezone: America/Asuncion
      - 
        alternate_names: 
          - "Colonia General Acuino"
          - "General Aquino"
          - "General Elizardo Aquino"
        ascii_name: "General Elizardo Aquino"
        geonamesid: 3438070
        latitude: -24.43333
        longitude: -56.7
        name: "General Elizardo Aquino"
        names_en: ~
        names_es: ~
        population: 2983
        timezone: America/Asuncion
      - 
        alternate_names: ~
        ascii_name: Capiibary
        geonamesid: 3439208
        latitude: -24.8
        longitude: -56.03333
        name: Capiíbary
        names_en: ~
        names_es: ~
        population: 3537
        timezone: America/Asuncion
      - 
        alternate_names: 
          - Antequera
          - "Colonia Antequera"
          - "Puerto Antequera"
        ascii_name: Antequera
        geonamesid: 3439423
        latitude: -24.13333
        longitude: -57.08333
        name: Antequera
        names_en: ~
        names_es: ~
        population: 2701
        timezone: America/Asuncion
    geonamesid: 3437027
    name: "San Pedro"
    names_en: ~
    names_es: ~
  - 
    ascii_name: "Departamento de Presidente Hayes"
    cities: 
      - 
        alternate_names: ~
        ascii_name: Nanawa
        geonamesid: 3437696
        latitude: -25.26667
        longitude: -57.66667
        name: Nanawa
        names_en: ~
        names_es: ~
        population: 5587
        timezone: America/Asuncion
      - 
        alternate_names: 
          - "Benjamin Aceval"
          - "Benjamín Aceval"
          - "Colonia Aceval"
          - "Colonia Benjamin Aceval"
        ascii_name: "Benjamin Aceval"
        geonamesid: 3439348
        latitude: -24.96667
        longitude: -57.56667
        name: "Benjamín Aceval"
        names_en: ~
        names_es: ~
        population: 7751
        timezone: America/Asuncion
    geonamesid: 3437443
    name: "Presidente Hayes"
    names_en: ~
    names_es: ~
  - 
    ascii_name: "Departamento de Paraguari"
    cities: 
      - 
        alternate_names: 
          - Ibycuy
          - Ybycui
          - Ybycul
          - Ybycuí
        ascii_name: Ybycui
        geonamesid: 3436642
        latitude: -26.01667
        longitude: -57.05
        name: Ybycuí
        names_en: ~
        names_es: ~
        population: 4629
        timezone: America/Asuncion
      - 
        alternate_names: 
          - Yaguaron
          - Yaguarón
          - Yaquaron
        ascii_name: Yaguaron
        geonamesid: 3436674
        latitude: -25.6
        longitude: -57.3
        name: Yaguarón
        names_en: ~
        names_es: ~
        population: 7181
        timezone: America/Asuncion
      - 
        alternate_names: 
          - Sapucai
          - Sapucay
          - Sapucaí
        ascii_name: Sapucai
        geonamesid: 3436927
        latitude: -25.66667
        longitude: -56.91667
        name: Sapucaí
        names_en: ~
        names_es: ~
        population: 1932
        timezone: America/Asuncion
      - 
        alternate_names: 
          - Quiindy
          - Quyyndy
        ascii_name: Quiindy
        geonamesid: 3437215
        latitude: -25.96667
        longitude: -57.26667
        name: Quiindy
        names_en: ~
        names_es: ~
        population: 5137
        timezone: America/Asuncion
      - 
        alternate_names: ~
        ascii_name: Pirayu
        geonamesid: 3437499
        latitude: -25.48333
        longitude: -57.23333
        name: Pirayú
        names_en: ~
        names_es: ~
        population: 4000
        timezone: America/Asuncion
      - 
        alternate_names: 
          - Paraguari
          - Paraguarí
        ascii_name: Paraguari
        geonamesid: 3437600
        latitude: -25.63333
        longitude: -57.15
        name: Paraguarí
        names_en: ~
        names_es: ~
        population: 10079
        timezone: America/Asuncion
      - 
        alternate_names: 
          - Mbuyapey
        ascii_name: Mbuyapey
        geonamesid: 3437744
        latitude: -26.2
        longitude: -56.75
        name: Mbuyapey
        names_en: ~
        names_es: ~
        population: 2201
        timezone: America/Asuncion
      - 
        alternate_names: 
          - "Colonia La Colmena"
          - "La Colmena"
        ascii_name: "La Colmena"
        geonamesid: 3437868
        latitude: -25.88333
        longitude: -56.81667
        name: "La Colmena"
        names_en: ~
        names_es: ~
        population: 2551
        timezone: America/Asuncion
      - 
        alternate_names: ~
        ascii_name: Carapegua
        geonamesid: 3439167
        latitude: -25.8
        longitude: -57.23333
        name: Carapeguá
        names_en: ~
        names_es: ~
        population: 5784
        timezone: America/Asuncion
      - 
        alternate_names: ~
        ascii_name: Caapucu
        geonamesid: 3439304
        latitude: -26.21667
        longitude: -57.2
        name: Caapucú
        names_en: ~
        names_es: ~
        population: 2284
        timezone: America/Asuncion
      - 
        alternate_names: 
          - Acahai
          - Acahay
          - Acahaí
        ascii_name: Acahay
        geonamesid: 3439482
        latitude: -25.91667
        longitude: -57.15
        name: Acahay
        names_en: ~
        names_es: ~
        population: 3205
        timezone: America/Asuncion
    geonamesid: 3437599
    name: Paraguarí
    names_en: ~
    names_es: ~
  - 
    ascii_name: "Departamento de Neembucu"
    cities: 
      - 
        alternate_names: 
          - Pilar
        ascii_name: Pilar
        geonamesid: 3437526
        latitude: -26.86667
        longitude: -58.38333
        name: Pilar
        names_en: ~
        names_es: ~
        population: 28716
        timezone: America/Asuncion
      - 
        alternate_names: 
          - "General Diaz"
          - "General Jose Eduvigis Diaz"
          - "General José Eduvigis Díaz"
          - "Jose Eduvigis Diaz"
        ascii_name: "General Jose Eduvigis Diaz"
        geonamesid: 3438064
        latitude: -27.16667
        longitude: -58.41667
        name: "General José Eduvigis Díaz"
        names_en: ~
        names_es: ~
        population: 1345
        timezone: America/Asuncion
      - 
        alternate_names: 
          - Cerrito
        ascii_name: Cerrito
        geonamesid: 3439133
        latitude: -27.31667
        longitude: -57.66667
        name: Cerrito
        names_en: ~
        names_es: ~
        population: 1036
        timezone: America/Asuncion
    geonamesid: 3437677
    name: Ñeembucú
    names_en: ~
    names_es: ~
  - 
    ascii_name: "Departamento de Misiones"
    cities: 
      - 
        alternate_names: 
          - Florida
          - "Villa Florida"
        ascii_name: "Villa Florida"
        geonamesid: 3436727
        latitude: -26.38333
        longitude: -57.15
        name: "Villa Florida"
        names_en: ~
        names_es: ~
        population: 2305
        timezone: America/Asuncion
      - 
        alternate_names: 
          - Santiago
          - "Santiago De Las Misiones"
        ascii_name: Santiago
        geonamesid: 3436943
        latitude: -27.15
        longitude: -56.78333
        name: Santiago
        names_en: ~
        names_es: ~
        population: 2144
        timezone: America/Asuncion
      - 
        alternate_names: 
          - "Santa Rosa"
          - "Santa Rosa de la Misiones"
        ascii_name: "Santa Rosa"
        geonamesid: 3436959
        latitude: -26.86667
        longitude: -56.85
        name: "Santa Rosa"
        names_en: ~
        names_es: ~
        population: 7257
        timezone: America/Asuncion
      - 
        alternate_names: ~
        ascii_name: "Santa Maria"
        geonamesid: 3436977
        latitude: -26.78333
        longitude: -56.93333
        name: "Santa María"
        names_en: ~
        names_es: ~
        population: 2095
        timezone: America/Asuncion
      - 
        alternate_names: ~
        ascii_name: "San Patricio"
        geonamesid: 3437029
        latitude: -26.96667
        longitude: -56.81667
        name: "San Patricio"
        names_en: ~
        names_es: ~
        population: 1525
        timezone: America/Asuncion
      - 
        alternate_names: ~
        ascii_name: "San Miguel"
        geonamesid: 3437042
        latitude: -26.5
        longitude: -57.05
        name: "San Miguel"
        names_en: ~
        names_es: ~
        population: 1210
        timezone: America/Asuncion
      - 
        alternate_names: 
          - Ayolas
          - "Juan De Ayolas"
        ascii_name: Ayolas
        geonamesid: 3439378
        latitude: -27.4
        longitude: -56.9
        name: Ayolas
        names_en: ~
        names_es: ~
        population: 12061
        timezone: America/Asuncion
    geonamesid: 3437727
    name: Misiones
    names_en: ~
    names_es: ~
  - 
    ascii_name: "Departamento de Itapua"
    cities: 
      - 
        alternate_names: ~
        ascii_name: Trinidad
        geonamesid: 3436776
        latitude: -27.11667
        longitude: -55.78333
        name: Trinidad
        names_en: ~
        names_es: ~
        population: 2837
        timezone: America/Asuncion
      - 
        alternate_names: ~
        ascii_name: "San Pedro del Parana"
        geonamesid: 3437022
        latitude: -26.83333
        longitude: -56.2
        name: "San Pedro del Paraná"
        names_en: ~
        names_es: ~
        population: 5722
        timezone: America/Asuncion
      - 
        alternate_names: ~
        ascii_name: "San Juan del Parana"
        geonamesid: 3437062
        latitude: -27.3
        longitude: -55.96667
        name: "San Juan del Paraná"
        names_en: ~
        names_es: ~
        population: 1492
        timezone: America/Asuncion
      - 
        alternate_names: 
          - "San Cosme"
          - "San Cosme y Damian"
          - "San Cosme y Damián"
        ascii_name: "San Cosme y Damian"
        geonamesid: 3437107
        latitude: -27.31667
        longitude: -56.35
        name: "San Cosme y Damián"
        names_en: ~
        names_es: ~
        population: 2223
        timezone: America/Asuncion
      - 
        alternate_names: ~
        ascii_name: "Puerto Mayor Otano"
        geonamesid: 3437370
        latitude: -26.4
        longitude: -54.7
        name: "Puerto Mayor Otaño"
        names_en: ~
        names_es: ~
        population: 4701
        timezone: America/Asuncion
      - 
        alternate_names: 
          - Pirapo
          - "Puerto Pirapo"
          - "Puerto Pirapó"
        ascii_name: Pirapo
        geonamesid: 3437514
        latitude: -26.85
        longitude: -55.53333
        name: Pirapo
        names_en: ~
        names_es: ~
        population: 1756
        timezone: America/Asuncion
      - 
        alternate_names: 
          - "Colonia Doctor Pastor Obligado"
          - Obligado
        ascii_name: Obligado
        geonamesid: 3437637
        latitude: -27.03333
        longitude: -55.63333
        name: Obligado
        names_en: ~
        names_es: ~
        population: 6350
        timezone: America/Asuncion
      - 
        alternate_names: ~
        ascii_name: Natalio
        geonamesid: 3437681
        latitude: -26.71667
        longitude: -55.08333
        name: Natalio
        names_en: ~
        names_es: ~
        population: 2252
        timezone: America/Asuncion
      - 
        alternate_names: ~
        ascii_name: Jesus
        geonamesid: 3437898
        latitude: -27.05
        longitude: -55.78333
        name: Jesús
        names_en: ~
        names_es: ~
        population: 2530
        timezone: America/Asuncion
      - 
        alternate_names: 
          - "Colonia Hohenau"
          - Hohenau
        ascii_name: Hohenau
        geonamesid: 3437997
        latitude: -27.08333
        longitude: -55.75
        name: Hohenau
        names_en: ~
        names_es: ~
        population: 5306
        timezone: America/Asuncion
      - 
        alternate_names: 
          - "Colonia General Delgado"
          - "General Delgado"
        ascii_name: "General Delgado"
        geonamesid: 3438076
        latitude: -27.16667
        longitude: -56.51667
        name: "General Delgado"
        names_en: ~
        names_es: ~
        population: 1544
        timezone: America/Asuncion
      - 
        alternate_names: 
          - Bobi
          - Bobi-Cango
          - Bobi-Cangó
          - Bobí
        ascii_name: "General Artigas"
        geonamesid: 3438080
        latitude: -26.93333
        longitude: -56.21667
        name: "General Artigas"
        names_en: ~
        names_es: ~
        population: 4073
        timezone: America/Asuncion
      - 
        alternate_names: ~
        ascii_name: Fram
        geonamesid: 3438106
        latitude: -26.98333
        longitude: -55.88333
        name: Fram
        names_en: ~
        names_es: ~
        population: 3916
        timezone: America/Asuncion
      - 
        alternate_names: 
          - Ehnkarnas'on
          - Encarnacion
          - Encarnación
          - Enkarnasjonas
        ascii_name: Encarnacion
        geonamesid: 3438735
        latitude: -27.33333
        longitude: -55.9
        name: Encarnación
        names_en: 
          - Encarnación
        names_es: 
          - Encarnación
        population: 74983
        timezone: America/Asuncion
      - 
        alternate_names: ~
        ascii_name: Edelira
        geonamesid: 3438743
        latitude: -26.75
        longitude: -55.26667
        name: Edelira
        names_en: ~
        names_es: ~
        population: 1698
        timezone: America/Asuncion
      - 
        alternate_names: 
          - Carmen
          - "Carmen del Parana"
          - "Carmen del Paraná"
        ascii_name: "Carmen del Parana"
        geonamesid: 3439156
        latitude: -27.23333
        longitude: -56.21667
        name: "Carmen del Paraná"
        names_en: ~
        names_es: ~
        population: 4196
        timezone: America/Asuncion
      - 
        alternate_names: ~
        ascii_name: "Carlos Antonio Lopez"
        geonamesid: 3439159
        latitude: -26.4
        longitude: -54.76667
        name: "Carlos Antonio López"
        names_en: ~
        names_es: ~
        population: 1496
        timezone: America/Asuncion
      - 
        alternate_names: 
          - "Capitan Miranda"
          - "Capitán Miranda"
          - "Colonia Capitan Miranda"
          - "Colonia Capitán Miranda"
        ascii_name: "Capitan Miranda"
        geonamesid: 3439184
        latitude: -27.2
        longitude: -55.8
        name: "Capitán Miranda"
        names_en: ~
        names_es: ~
        population: 2498
        timezone: America/Asuncion
      - 
        alternate_names: 
          - "Bella Vista"
          - "Bella Vista de Alto Parana"
          - "Bella Vista de Alto Paraná"
          - "Colonia Bella Vista"
        ascii_name: "Bella Vista"
        geonamesid: 3439352
        latitude: -27.05
        longitude: -55.55
        name: "Bella Vista"
        names_en: ~
        names_es: ~
        population: 2334
        timezone: America/Asuncion
      - 
        alternate_names: ~
        ascii_name: "Arquitecto Tomas Romero Pereira"
        geonamesid: 3439402
        latitude: -26.48333
        longitude: -55.25
        name: "Arquitecto Tomás Romero Pereira"
        names_en: ~
        names_es: ~
        population: 5533
        timezone: America/Asuncion
    geonamesid: 3437923
    name: Itapúa
    names_en: ~
    names_es: ~
  - 
    ascii_name: "Departamento del Guaira"
    cities: 
      - 
        alternate_names: 
          - Vil'jarrika
          - Viljarika
          - "Villa Rica"
          - Villarrica
        ascii_name: Villarrica
        geonamesid: 3436714
        latitude: -25.75
        longitude: -56.43333
        name: Villarrica
        names_en: 
          - Villarrica
        names_es: 
          - Villarrica
        population: 41157
        timezone: America/Asuncion
      - 
        alternate_names: 
          - "Colonia Natalicio Talavera"
          - "Natalicio Talavera"
          - "Natalico Talavera"
        ascii_name: "Natalicio Talavera"
        geonamesid: 3437682
        latitude: -25.63333
        longitude: -56.3
        name: "Natalicio Talavera"
        names_en: ~
        names_es: ~
        population: 1809
        timezone: America/Asuncion
      - 
        alternate_names: ~
        ascii_name: Mbocayaty
        geonamesid: 3437763
        latitude: -25.7
        longitude: -56.4
        name: Mbocayaty
        names_en: ~
        names_es: ~
        population: 2296
        timezone: America/Asuncion
      - 
        alternate_names: ~
        ascii_name: Iturbe
        geonamesid: 3437909
        latitude: -26.05
        longitude: -56.48333
        name: Iturbe
        names_en: ~
        names_es: ~
        population: 4475
        timezone: America/Asuncion
      - 
        alternate_names: ~
        ascii_name: Itape
        geonamesid: 3437927
        latitude: -25.85
        longitude: -56.61667
        name: Itapé
        names_en: ~
        names_es: ~
        population: 1641
        timezone: America/Asuncion
      - 
        alternate_names: 
          - "Colonia Independencia"
          - Independencia
        ascii_name: Independencia
        geonamesid: 3437982
        latitude: -25.71667
        longitude: -56.25
        name: Independencia
        names_en: ~
        names_es: ~
        population: 1575
        timezone: America/Asuncion
      - 
        alternate_names: 
          - "Coronel Martinez"
          - "Coronel Martínez"
          - Martinez
        ascii_name: "Coronel Martinez"
        geonamesid: 3438822
        latitude: -25.75
        longitude: -56.61667
        name: "Coronel Martínez"
        names_en: ~
        names_es: ~
        population: 1359
        timezone: America/Asuncion
      - 
        alternate_names: 
          - "Colonia Cosme"
          - "Colonia Mauricio J. Troche"
          - "Colonia Mauricio Jose Troche"
          - "Colonia Mauricio José Troche"
        ascii_name: "Colonia Mauricio Jose Troche"
        geonamesid: 3438991
        latitude: -25.56667
        longitude: -56.28333
        name: "Colonia Mauricio José Troche"
        names_en: ~
        names_es: ~
        population: 2368
        timezone: America/Asuncion
    geonamesid: 3438049
    name: Guairá
    names_en: ~
    names_es: ~
  - 
    ascii_name: "Departamento de la Cordillera"
    cities: 
      - 
        alternate_names: 
          - Tobati
          - Tobaty
          - Tobatí
        ascii_name: Tobati
        geonamesid: 3436812
        latitude: -25.25
        longitude: -57.06667
        name: Tobatí
        names_en: ~
        names_es: ~
        population: 9952
        timezone: America/Asuncion
      - 
        alternate_names: ~
        ascii_name: "Santa Elena"
        geonamesid: 3436987
        latitude: -25.4
        longitude: -56.8
        name: "Santa Elena"
        names_en: ~
        names_es: ~
        population: 1137
        timezone: America/Asuncion
      - 
        alternate_names: 
          - "San Bernardino"
        ascii_name: "San Bernardino"
        geonamesid: 3437120
        latitude: -25.26667
        longitude: -57.31667
        name: "San Bernardino"
        names_en: ~
        names_es: ~
        population: 4651
        timezone: America/Asuncion
      - 
        alternate_names: 
          - Piribebuy
        ascii_name: Piribebuy
        geonamesid: 3437495
        latitude: -25.48333
        longitude: -57.05
        name: Piribebuy
        names_en: ~
        names_es: ~
        population: 10337
        timezone: America/Asuncion
      - 
        alternate_names: 
          - Itacurubi
          - "Itacurubi de la Cordillera"
          - "Itacurubí de la Cordillera"
        ascii_name: "Itacurubi de la Cordillera"
        geonamesid: 3437936
        latitude: -25.45
        longitude: -56.85
        name: "Itacurubí de la Cordillera"
        names_en: ~
        names_es: ~
        population: 3576
        timezone: America/Asuncion
      - 
        alternate_names: ~
        ascii_name: "Isla Pucu"
        geonamesid: 3437962
        latitude: -25.3
        longitude: -56.9
        name: "Isla Pucú"
        names_en: ~
        names_es: ~
        population: 1529
        timezone: America/Asuncion
      - 
        alternate_names: 
          - "Barrero Grande"
          - "Eusebio Ayala"
        ascii_name: "Eusebio Ayala"
        geonamesid: 3438123
        latitude: -25.4
        longitude: -56.96667
        name: "Eusebio Ayala"
        names_en: ~
        names_es: ~
        population: 8253
        timezone: America/Asuncion
      - 
        alternate_names: 
          - Emboscada
        ascii_name: Emboscada
        geonamesid: 3438738
        latitude: -25.15
        longitude: -57.35
        name: Emboscada
        names_en: ~
        names_es: ~
        population: 5911
        timezone: America/Asuncion
      - 
        alternate_names: 
          - Caraguatay
        ascii_name: Caraguatay
        geonamesid: 3439175
        latitude: -25.23333
        longitude: -56.81667
        name: Caraguatay
        names_en: ~
        names_es: ~
        population: 1637
        timezone: America/Asuncion
      - 
        alternate_names: 
          - Caacupe
          - Caacupé
        ascii_name: Caacupe
        geonamesid: 3439320
        latitude: -25.38333
        longitude: -57.15
        name: Caacupé
        names_en: ~
        names_es: ~
        population: 21696
        timezone: America/Asuncion
      - 
        alternate_names: ~
        ascii_name: Atyra
        geonamesid: 3439386
        latitude: -25.25
        longitude: -57.16667
        name: Atyrá
        names_en: ~
        names_es: ~
        population: 4768
        timezone: America/Asuncion
      - 
        alternate_names: ~
        ascii_name: "Arroyos y Esteros"
        geonamesid: 3439395
        latitude: -25.06667
        longitude: -57.1
        name: "Arroyos y Esteros"
        names_en: ~
        names_es: ~
        population: 2455
        timezone: America/Asuncion
      - 
        alternate_names: 
          - Altos
        ascii_name: Altos
        geonamesid: 3439439
        latitude: -25.23333
        longitude: -57.25
        name: Altos
        names_en: ~
        names_es: ~
        population: 4763
        timezone: America/Asuncion
    geonamesid: 3438827
    name: Cordillera
    names_en: ~
    names_es: ~
  - 
    ascii_name: "Departamento de Concepcion"
    cities: 
      - 
        alternate_names: 
          - Concepcion
          - Concepción
          - Konseps'on
          - Konsepsjonas
        ascii_name: Concepcion
        geonamesid: 3438834
        latitude: -23.40639
        longitude: -57.43444
        name: Concepción
        names_en: 
          - Concepción
        names_es: 
          - Concepción
        population: 48123
        timezone: America/Asuncion
      - 
        alternate_names: ~
        ascii_name: Belen
        geonamesid: 3439355
        latitude: -23.46611
        longitude: -57.26194
        name: Belén
        names_en: ~
        names_es: ~
        population: 1621
        timezone: America/Asuncion
      - 
        alternate_names: ~
        ascii_name: Horqueta
        geonamesid: 3480780
        latitude: -23.34278
        longitude: -57.05972
        name: Horqueta
        names_en: ~
        names_es: ~
        population: 10531
        timezone: America/Asuncion
    geonamesid: 3438833
    name: Concepción
    names_en: ~
    names_es: ~
  - 
    ascii_name: "Departamento Central"
    cities: 
      - 
        alternate_names: 
          - Ipacarai
          - Ypacarai
          - Ypacaray
        ascii_name: Ypacarai
        geonamesid: 3436585
        latitude: -25.38333
        longitude: -57.26667
        name: Ypacarai
        names_en: ~
        names_es: ~
        population: 9655
        timezone: America/Asuncion
      - 
        alternate_names: 
          - "Colonia Eliza"
          - "Villa Elisa"
        ascii_name: "Villa Elisa"
        geonamesid: 3436728
        latitude: -25.36667
        longitude: -57.61667
        name: "Villa Elisa"
        names_en: ~
        names_es: ~
        population: 64099
        timezone: America/Asuncion
      - 
        alternate_names: 
          - "San Lorenzo"
          - "San Lorenzo del Campo Grande"
        ascii_name: "San Lorenzo"
        geonamesid: 3437056
        latitude: -25.33333
        longitude: -57.53333
        name: "San Lorenzo"
        names_en: 
          - "San Lorenzo"
        names_es: 
          - "San Lorenzo"
        population: 227876
        timezone: America/Asuncion
      - 
        alternate_names: ~
        ascii_name: "San Antonio"
        geonamesid: 3437127
        latitude: -25.38333
        longitude: -57.63333
        name: "San Antonio"
        names_en: ~
        names_es: ~
        population: 55754
        timezone: America/Asuncion
      - 
        alternate_names: 
          - "Colonia Nueva Italia"
          - "Nueva Italia"
        ascii_name: "Nueva Italia"
        geonamesid: 3437652
        latitude: -25.61667
        longitude: -57.5
        name: "Nueva Italia"
        names_en: ~
        names_es: ~
        population: 2841
        timezone: America/Asuncion
      - 
        alternate_names: 
          - Nemby
          - "San Lorenzo de la Frontera"
        ascii_name: Nemby
        geonamesid: 3437665
        latitude: -25.36667
        longitude: -57.6
        name: Nemby
        names_en: ~
        names_es: ~
        population: 94641
        timezone: America/Asuncion
      - 
        alternate_names: ~
        ascii_name: Limpio
        geonamesid: 3437842
        latitude: -25.18333
        longitude: -57.53333
        name: Limpio
        names_en: ~
        names_es: ~
        population: 96143
        timezone: America/Asuncion
      - 
        alternate_names: 
          - Lambare
          - Lambaré
        ascii_name: Lambare
        geonamesid: 3437863
        latitude: -25.35
        longitude: -57.65
        name: Lambaré
        names_en: 
          - Lambaré
        names_es: ~
        population: 126377
        timezone: America/Asuncion
      - 
        alternate_names: 
          - Itaugua
          - Itauguá
        ascii_name: Itaugua
        geonamesid: 3437918
        latitude: -25.38333
        longitude: -57.33333
        name: Itauguá
        names_en: 
          - Itauguá
        names_es: ~
        population: 64997
        timezone: America/Asuncion
      - 
        alternate_names: ~
        ascii_name: Ita
        geonamesid: 3437954
        latitude: -25.48333
        longitude: -57.35
        name: Itá
        names_en: ~
        names_es: ~
        population: 18459
        timezone: America/Asuncion
      - 
        alternate_names: ~
        ascii_name: Guarambare
        geonamesid: 3438043
        latitude: -25.48333
        longitude: -57.46667
        name: Guarambaré
        names_en: ~
        names_es: ~
        population: 9065
        timezone: America/Asuncion
      - 
        alternate_names: 
          - "Fernando de la Mora"
        ascii_name: "Fernando de la Mora"
        geonamesid: 3438115
        latitude: -25.31667
        longitude: -57.6
        name: "Fernando de la Mora"
        names_en: ~
        names_es: ~
        population: 120167
        timezone: America/Asuncion
      - 
        alternate_names: 
          - "Colonia Mariano Roque Alonso"
          - "Colonia Roque Alonso"
          - "Mariano Roque Alonso"
        ascii_name: "Colonia Mariano Roque Alonso"
        geonamesid: 3438995
        latitude: -25.16667
        longitude: -57.55
        name: "Colonia Mariano Roque Alonso"
        names_en: ~
        names_es: ~
        population: 72008
        timezone: America/Asuncion
      - 
        alternate_names: 
          - Capiata
          - Capiatá
          - Capista
        ascii_name: Capiata
        geonamesid: 3439214
        latitude: -25.35
        longitude: -57.41667
        name: Capiatá
        names_en: 
          - Capiatá
        names_es: ~
        population: 198553
        timezone: America/Asuncion
      - 
        alternate_names: 
          - Aregua
          - Areguá
        ascii_name: Aregua
        geonamesid: 3439403
        latitude: -25.3
        longitude: -57.41667
        name: Areguá
        names_en: ~
        names_es: ~
        population: 11222
        timezone: America/Asuncion
    geonamesid: 3439137
    name: Central
    names_en: ~
    names_es: ~
  - 
    ascii_name: "Departamento de Canindeyu"
    cities: 
      - 
        alternate_names: 
          - Igatimi
          - Igatimí
          - Terecany
          - Terecañy
        ascii_name: Ygatimi
        geonamesid: 3436616
        latitude: -24.08333
        longitude: -55.5
        name: Ygatimí
        names_en: ~
        names_es: ~
        population: 2809
        timezone: America/Asuncion
      - 
        alternate_names: 
          - Curuguaty
          - "San Isidro de Curuguaty"
          - "Villa Curuguaty"
        ascii_name: "San Isidro de Curuguaty"
        geonamesid: 3437088
        latitude: -24.51667
        longitude: -55.7
        name: "San Isidro de Curuguaty"
        names_en: ~
        names_es: ~
        population: 11095
        timezone: America/Asuncion
      - 
        alternate_names: 
          - "Salto del Guaira"
          - "Salto del Guairá"
          - "Saltos de Guaira"
          - "Saltos de Guairá"
        ascii_name: "Salto del Guaira"
        geonamesid: 3437148
        latitude: -24.05
        longitude: -54.35
        name: "Salto del Guairá"
        names_en: ~
        names_es: ~
        population: 7385
        timezone: America/Asuncion
      - 
        alternate_names: ~
        ascii_name: "Las Palomas"
        geonamesid: 3437853
        latitude: -24.08333
        longitude: -54.51667
        name: "Las Palomas"
        names_en: ~
        names_es: ~
        population: 4383
        timezone: America/Asuncion
      - 
        alternate_names: ~
        ascii_name: "Corpus Christi"
        geonamesid: 3438816
        latitude: -24.03333
        longitude: -54.83333
        name: "Corpus Christi"
        names_en: ~
        names_es: ~
        population: 1387
        timezone: America/Asuncion
      - 
        alternate_names: ~
        ascii_name: "Colonia Catuete"
        geonamesid: 3439062
        latitude: -24.13333
        longitude: -54.61667
        name: "Colonia Catuete"
        names_en: ~
        names_es: ~
        population: 4070
        timezone: America/Asuncion
    geonamesid: 3439216
    name: Canindeyú
    names_en: ~
    names_es: ~
  - 
    ascii_name: "Departamento de Caazapa"
    cities: 
      - 
        alternate_names: ~
        ascii_name: Yuty
        geonamesid: 3436547
        latitude: -26.6
        longitude: -56.25
        name: Yuty
        names_en: ~
        names_es: ~
        population: 4774
        timezone: America/Asuncion
      - 
        alternate_names: ~
        ascii_name: Yegros
        geonamesid: 3436617
        latitude: -26.45
        longitude: -56.4
        name: Yegros
        names_en: ~
        names_es: ~
        population: 1140
        timezone: America/Asuncion
      - 
        alternate_names: ~
        ascii_name: "San Juan Nepomuceno"
        geonamesid: 3437059
        latitude: -26.1
        longitude: -55.96667
        name: "San Juan Nepomuceno"
        names_en: ~
        names_es: ~
        population: 7893
        timezone: America/Asuncion
      - 
        alternate_names: 
          - "Colonia General Morinigo"
          - "Colonia General Morínigo"
          - "General Higinio Morinigo"
          - "General Higinio Morínigo"
        ascii_name: "General Higinio Morinigo"
        geonamesid: 3438066
        latitude: -25.95
        longitude: -55.91667
        name: "General Higinio Morínigo"
        names_en: ~
        names_es: ~
        population: 1399
        timezone: America/Asuncion
      - 
        alternate_names: ~
        ascii_name: "Buena Vista"
        geonamesid: 3439325
        latitude: -26.18333
        longitude: -56.08333
        name: "Buena Vista"
        names_en: ~
        names_es: ~
        population: 1580
        timezone: America/Asuncion
      - 
        alternate_names: 
          - Abai
          - Abay
          - Abaí
        ascii_name: Abai
        geonamesid: 3439483
        latitude: -26.03333
        longitude: -55.93333
        name: Abaí
        names_en: ~
        names_es: ~
        population: 3024
        timezone: America/Asuncion
    geonamesid: 3439296
    name: Caazapá
    names_en: ~
    names_es: ~
  - 
    ascii_name: "Departamento de Caaguazu"
    cities: 
      - 
        alternate_names: ~
        ascii_name: Yhu
        geonamesid: 3436595
        latitude: -25.05
        longitude: -55.91667
        name: Yhú
        names_en: ~
        names_es: ~
        population: 2092
        timezone: America/Asuncion
      - 
        alternate_names: 
          - "San Jose"
          - "San Jose de los Arroyos"
          - "San José"
          - "San José de los Arroyos"
        ascii_name: "San Jose"
        geonamesid: 3437074
        latitude: -25.53333
        longitude: -56.73333
        name: "San José"
        names_en: ~
        names_es: ~
        population: 5117
        timezone: America/Asuncion
      - 
        alternate_names: ~
        ascii_name: "San Joaquin"
        geonamesid: 3437086
        latitude: -24.95
        longitude: -56.11667
        name: "San Joaquín"
        names_en: ~
        names_es: ~
        population: 1745
        timezone: America/Asuncion
      - 
        alternate_names: ~
        ascii_name: Repatriacion
        geonamesid: 3437197
        latitude: -25.53333
        longitude: -55.95
        name: Repatriación
        names_en: ~
        names_es: ~
        population: 7085
        timezone: America/Asuncion
      - 
        alternate_names: ~
        ascii_name: Mbutuy
        geonamesid: 3437748
        latitude: -24.96667
        longitude: -56.3
        name: Mbutuy
        names_en: ~
        names_es: ~
        population: 1466
        timezone: America/Asuncion
      - 
        alternate_names: 
          - "Doctor Juan M. Frutos"
          - "Doctor Juan Manuel Frutos"
          - "Juan M. Fruto"
        ascii_name: "Doctor Juan Manuel Frutos"
        geonamesid: 3438753
        latitude: -25.36667
        longitude: -55.8
        name: "Doctor Juan Manuel Frutos"
        names_en: ~
        names_es: ~
        population: 4797
        timezone: America/Asuncion
      - 
        alternate_names: 
          - "Cecilio Baez"
          - "Cecilio Báez"
          - "Doctor Cecilio Baez"
          - "Doctor Cecilio Báez"
        ascii_name: "Doctor Cecilio Baez"
        geonamesid: 3438755
        latitude: -25.05
        longitude: -56.31667
        name: "Doctor Cecilio Báez"
        names_en: ~
        names_es: ~
        population: 1977
        timezone: America/Asuncion
      - 
        alternate_names: 
          - Ajos
          - "Coronel Oviedo"
          - Koronel'-Ov'edo
          - Коронель-Овьедо
        ascii_name: "Coronel Oviedo"
        geonamesid: 3438819
        latitude: -25.41667
        longitude: -56.45
        name: "Coronel Oviedo"
        names_en: ~
        names_es: ~
        population: 51286
        timezone: America/Asuncion
      - 
        alternate_names: ~
        ascii_name: "Colonia General Alfredo Stroessner"
        geonamesid: 3439032
        latitude: -25.36667
        longitude: -55.7
        name: "Colonia General Alfredo Stroessner"
        names_en: ~
        names_es: ~
        population: 11558
        timezone: America/Asuncion
      - 
        alternate_names: ~
        ascii_name: Carayao
        geonamesid: 3439163
        latitude: -25.18333
        longitude: -56.4
        name: Carayaó
        names_en: ~
        names_es: ~
        population: 2473
        timezone: America/Asuncion
      - 
        alternate_names: ~
        ascii_name: Caaguazu
        geonamesid: 3439317
        latitude: -25.45
        longitude: -56.01667
        name: Caaguazú
        names_en: ~
        names_es: ~
        population: 54808
        timezone: America/Asuncion
    geonamesid: 3439312
    name: Caaguazú
    names_en: ~
    names_es: ~
  - 
    ascii_name: "Departamento del Amambay"
    cities: 
      - 
        alternate_names: ~
        ascii_name: "Capitan Bado"
        geonamesid: 3439189
        latitude: -23.26667
        longitude: -55.53333
        name: "Capitán Bado"
        names_en: ~
        names_es: ~
        population: 9114
        timezone: America/Asuncion
      - 
        alternate_names: 
          - "Bella Vista"
        ascii_name: "Bella Vista"
        geonamesid: 3439353
        latitude: -22.13333
        longitude: -56.51667
        name: "Bella Vista"
        names_en: ~
        names_es: ~
        population: 5653
        timezone: America/Asuncion
    geonamesid: 3439433
    name: Amambay
    names_en: ~
    names_es: ~
  - 
    ascii_name: "Departamento del Alto Parana"
    cities: 
      - 
        alternate_names: ~
        ascii_name: "Santa Rita"
        geonamesid: 3436968
        latitude: -25.78333
        longitude: -55.06667
        name: "Santa Rita"
        names_en: ~
        names_es: ~
        population: 11823
        timezone: America/Asuncion
      - 
        alternate_names: ~
        ascii_name: "San Alberto"
        geonamesid: 3437136
        latitude: -24.96667
        longitude: -54.9
        name: "San Alberto"
        names_en: ~
        names_es: ~
        population: 4989
        timezone: America/Asuncion
      - 
        alternate_names: 
          - "Presidente Franco"
          - "Puerto Presidente Franco"
        ascii_name: "Presidente Franco"
        geonamesid: 3437444
        latitude: -25.53333
        longitude: -54.61667
        name: "Presidente Franco"
        names_en: ~
        names_es: ~
        population: 54292
        timezone: America/Asuncion
      - 
        alternate_names: ~
        ascii_name: Naranjal
        geonamesid: 3437689
        latitude: -25.96667
        longitude: -55.18333
        name: Naranjal
        names_en: ~
        names_es: ~
        population: 2151
        timezone: America/Asuncion
      - 
        alternate_names: ~
        ascii_name: "Los Cedrales"
        geonamesid: 3437815
        latitude: -25.65
        longitude: -54.7
        name: "Los Cedrales"
        names_en: ~
        names_es: ~
        population: 2754
        timezone: America/Asuncion
      - 
        alternate_names: 
          - Itaquyry
          - Ytaquyry
        ascii_name: Itaquyry
        geonamesid: 3437920
        latitude: -24.93333
        longitude: -55.21667
        name: Itaquyry
        names_en: ~
        names_es: ~
        population: 3038
        timezone: America/Asuncion
      - 
        alternate_names: 
          - Caarendy
          - "Doctor J. Leon Mallorquin"
          - "Doctor J. León Mallorquín"
          - "Doctor Juan Leon Mallorquin"
        ascii_name: "Doctor Juan Leon Mallorquin"
        geonamesid: 3438754
        latitude: -25.4
        longitude: -55.26667
        name: "Doctor Juan León Mallorquín"
        names_en: ~
        names_es: ~
        population: 7481
        timezone: America/Asuncion
      - 
        alternate_names: ~
        ascii_name: "Colonia Yguazu"
        geonamesid: 3438872
        latitude: -25.45
        longitude: -55.0
        name: "Colonia Yguazú"
        names_en: ~
        names_es: ~
        population: 3363
        timezone: America/Asuncion
      - 
        alternate_names: ~
        ascii_name: "Colonia Minga Pora"
        geonamesid: 3438977
        latitude: -24.86667
        longitude: -54.9
        name: "Colonia Minga Porá"
        names_en: ~
        names_es: ~
        population: 1770
        timezone: America/Asuncion
    geonamesid: 3439440
    name: "Alto Paraná"
    names_en: ~
    names_es: ~
  - 
    ascii_name: "Departamento de Alto Paraguay"
    cities: 
      - 
        alternate_names: 
          - "Capitan Pablo Lagerenza"
          - "Capitán Pablo Lagerenza"
          - "Fortin Ingavi"
          - "Fortín Ingavi"
        ascii_name: "Capitan Pablo Lagerenza"
        geonamesid: 3867427
        latitude: -19.91667
        longitude: -60.78333
        name: "Capitán Pablo Lagerenza"
        names_en: ~
        names_es: ~
        population: 1200
        timezone: America/Asuncion
    geonamesid: 3439441
    name: "Alto Paraguay"
    names_en: ~
    names_es: ~
  - 
    ascii_name: Asuncion
    cities: 
      - 
        alternate_names: 
          - Asounthion
          - Assumptio
          - Assuncao
          - Assunção
        ascii_name: Asuncion
        geonamesid: 3439389
        latitude: -25.30066
        longitude: -57.63591
        name: Asunción
        names_en: 
          - Asunción
        names_es: 
          - Asunción
        population: 1482200
        timezone: America/Asuncion
    geonamesid: 3474570
    name: Asunción
    names_en: ~
    names_es: ~
  - 
    ascii_name: "Departamento de Boqueron"
    cities: 
      - 
        alternate_names: 
          - Olimpo
        ascii_name: "Fuerte Olimpo"
        geonamesid: 3438102
        latitude: -21.04153
        longitude: -57.87377
        name: "Fuerte Olimpo"
        names_en: ~
        names_es: ~
        population: 2475
        timezone: America/Asuncion
      - 
        alternate_names: ~
        ascii_name: "Colonia Menno"
        geonamesid: 3438981
        latitude: -22.36667
        longitude: -59.81667
        name: "Colonia Menno"
        names_en: ~
        names_es: ~
        population: 5615
        timezone: America/Asuncion
      - 
        alternate_names: 
          - "Colonia Filadelfia"
          - Filadelfia
          - Filadelfija
          - Filadelfio
        ascii_name: Filadelfia
        geonamesid: 3867291
        latitude: -22.35
        longitude: -60.03333
        name: Filadelfia
        names_en: 
          - Filadelfia
        names_es: 
          - Filadelfia
        population: 8048
        timezone: America/Asuncion
      - 
        alternate_names: 
          - "Colonia Neuland"
        ascii_name: "Colonia Neuland"
        geonamesid: 3867411
        latitude: -22.66667
        longitude: -60.11667
        name: "Colonia Neuland"
        names_en: ~
        names_es: ~
        population: 2816
        timezone: America/Asuncion
    geonamesid: 3867442
    name: Boquerón
    names_en: ~
    names_es: ~
