--- 
geonamesid: 1694008
iso: PH
name: Philippines
names_en: 
  - Philippines
  - "Republic of the Philippines"
names_es: 
  - Filipinas
regions: 
  - 
    ascii_name: "Autonomous Region in Muslim Mindanao"
    cities: 
      - 
        alternate_names: ~
        ascii_name: Wao
        geonamesid: 1679678
        latitude: 7.68333
        longitude: 124.66667
        name: Wao
        names_en: ~
        names_es: ~
        population: 17845
        timezone: Asia/Manila
      - 
        alternate_names: ~
        ascii_name: Uyaan
        geonamesid: 1680139
        latitude: 7.86306
        longitude: 124.04111
        name: Uyaan
        names_en: ~
        names_es: ~
        population: 2601
        timezone: Asia/Manila
      - 
        alternate_names: 
          - "North Upi"
          - Upi
          - "Upi Nuro"
        ascii_name: Upi
        geonamesid: 1680233
        latitude: 7.02583
        longitude: 124.16667
        name: Upi
        names_en: ~
        names_es: ~
        population: 9358
        timezone: Asia/Manila
      - 
        alternate_names: 
          - Tunggol
          - Tungol
        ascii_name: Tungol
        geonamesid: 1680656
        latitude: 7.08083
        longitude: 124.75306
        name: Tungol
        names_en: ~
        names_es: ~
        population: 3976
        timezone: Asia/Manila
      - 
        alternate_names: 
          - "Leug Tumbagaan"
          - Tumbagaan
        ascii_name: Tumbagaan
        geonamesid: 1680745
        latitude: 5.3656
        longitude: 120.3139
        name: Tumbagaan
        names_en: 
          - Tumbagaan
        names_es: ~
        population: 2261
        timezone: Asia/Manila
      - 
        alternate_names: 
          - Tong-Gusong
          - Tongouson
          - Tungosong
        ascii_name: Tongouson
        geonamesid: 1681464
        latitude: 5.0214
        longitude: 120.1328
        name: Tongouson
        names_en: 
          - Tongouson
        names_es: ~
        population: 6267
        timezone: Asia/Manila
      - 
        alternate_names: ~
        ascii_name: Tinutulan
        geonamesid: 1681759
        latitude: 7.1
        longitude: 124.65
        name: Tinutulan
        names_en: ~
        names_es: ~
        population: 2305
        timezone: Asia/Manila
      - 
        alternate_names: 
          - Tariran
          - Taviran
        ascii_name: Taviran
        geonamesid: 1682699
        latitude: 7.12333
        longitude: 124.31972
        name: Taviran
        names_en: ~
        names_es: ~
        population: 2851
        timezone: Asia/Manila
      - 
        alternate_names: 
          - Taungo
          - Taungon
          - Taungu
        ascii_name: Taungo
        geonamesid: 1682715
        latitude: 4.70694
        longitude: 119.49306
        name: Taungo
        names_en: ~
        names_es: ~
        population: 2375
        timezone: Asia/Manila
      - 
        alternate_names: ~
        ascii_name: Tapikan
        geonamesid: 1682936
        latitude: 6.85194
        longitude: 124.3225
        name: Tapikan
        names_en: ~
        names_es: ~
        population: 2232
        timezone: Asia/Manila
      - 
        alternate_names: ~
        ascii_name: Tapayan
        geonamesid: 1682966
        latitude: 7.29444
        longitude: 124.26611
        name: Tapayan
        names_en: ~
        names_es: ~
        population: 3240
        timezone: Asia/Manila
      - 
        alternate_names: 
          - Tamparan
        ascii_name: Tamparan
        geonamesid: 1683425
        latitude: 7.87917
        longitude: 124.33306
        name: Tamparan
        names_en: ~
        names_es: ~
        population: 2396
        timezone: Asia/Manila
      - 
        alternate_names: 
          - Tampacan
          - Tampakan
        ascii_name: Tampakan
        geonamesid: 1683433
        latitude: 4.92278
        longitude: 119.79389
        name: Tampakan
        names_en: ~
        names_es: ~
        population: 8306
        timezone: Asia/Manila
      - 
        alternate_names: 
          - Talita
          - Talitay
        ascii_name: Talitay
        geonamesid: 1683818
        latitude: 7.03333
        longitude: 124.7
        name: Talitay
        names_en: ~
        names_es: ~
        population: 3983
        timezone: Asia/Manila
      - 
        alternate_names: 
          - Bila"an
          - "Bilaan Constabulary Post"
          - Bila”an
          - "Camp Romandier"
        ascii_name: Talipao
        geonamesid: 1683900
        latitude: 5.97639
        longitude: 121.11611
        name: Talipao
        names_en: ~
        names_es: ~
        population: 0
        timezone: Asia/Manila
      - 
        alternate_names: 
          - Tagaya
          - Tugaya
        ascii_name: Tugaya
        geonamesid: 1684562
        latitude: 7.88277
        longitude: 124.174
        name: Tugaya
        names_en: ~
        names_es: ~
        population: 2501
        timezone: Asia/Manila
      - 
        alternate_names: 
          - Taganak
          - "Turtle Islands"
        ascii_name: Taganak
        geonamesid: 1684606
        latitude: 6.08333
        longitude: 118.3
        name: Taganak
        names_en: ~
        names_es: ~
        population: 2638
        timezone: Asia/Manila
      - 
        alternate_names: 
          - Tabialan
          - Tabiauan
          - Tavialan
        ascii_name: Tabiauan
        geonamesid: 1685006
        latitude: 6.0286
        longitude: 121.8924
        name: Tabiauan
        names_en: ~
        names_es: ~
        population: 2312
        timezone: Asia/Manila
      - 
        alternate_names: 
          - Looy
          - "South Upi"
        ascii_name: "South Upi"
        geonamesid: 1685692
        latitude: 6.83333
        longitude: 124.15
        name: "South Upi"
        names_en: ~
        names_es: ~
        population: 12538
        timezone: Asia/Manila
      - 
        alternate_names: 
          - "Si Tangkay"
          - Sitangkai
          - Sitankai
        ascii_name: Sitangkai
        geonamesid: 1686004
        latitude: 4.66278
        longitude: 119.39278
        name: Sitangkai
        names_en: ~
        names_es: ~
        population: 17200
        timezone: Asia/Manila
      - 
        alternate_names: 
          - Simunul
          - "Tubig Indangan"
        ascii_name: Simunul
        geonamesid: 1686355
        latitude: 4.89833
        longitude: 119.84944
        name: Simunul
        names_en: ~
        names_es: ~
        population: 4671
        timezone: Asia/Manila
      - 
        alternate_names: 
          - Banting
          - Maddas
          - Muddas
          - "Si AseΓÇ¥"
        ascii_name: Siasi
        geonamesid: 1686874
        latitude: 5.5462
        longitude: 120.8145
        name: Siasi
        names_en: 
          - Siasi
        names_es: ~
        population: 12566
        timezone: Asia/Manila
      - 
        alternate_names: ~
        ascii_name: Satan
        geonamesid: 1687132
        latitude: 6.86306
        longitude: 124.40861
        name: Satan
        names_en: ~
        names_es: ~
        population: 4068
        timezone: Asia/Manila
      - 
        alternate_names: 
          - Sapad
          - Sapadun
        ascii_name: Sapadun
        geonamesid: 1687321
        latitude: 7.48333
        longitude: 124.25
        name: Sapadun
        names_en: ~
        names_es: ~
        population: 4376
        timezone: Asia/Manila
      - 
        alternate_names: 
          - Sapa
        ascii_name: Sapa
        geonamesid: 1687343
        latitude: 5.1544
        longitude: 120.3241
        name: Sapa
        names_en: 
          - Sapa
        names_es: ~
        population: 2572
        timezone: Asia/Manila
      - 
        alternate_names: 
          - Sambulawan
          - Sambuluan
        ascii_name: Sambuluan
        geonamesid: 1690607
        latitude: 6.88333
        longitude: 124.7
        name: Sambuluan
        names_en: ~
        names_es: ~
        population: 2679
        timezone: Asia/Manila
      - 
        alternate_names: ~
        ascii_name: Sagasa
        geonamesid: 1691168
        latitude: 6.77389
        longitude: 124.57472
        name: Sagasa
        names_en: ~
        names_es: ~
        population: 3379
        timezone: Asia/Manila
      - 
        alternate_names: ~
        ascii_name: Rominimbang
        geonamesid: 1691530
        latitude: 7.5
        longitude: 124.3
        name: Rominimbang
        names_en: ~
        names_es: ~
        population: 2485
        timezone: Asia/Manila
      - 
        alternate_names: 
          - Rimpes
          - Rimpeso
        ascii_name: Rimpeso
        geonamesid: 1691713
        latitude: 7.02389
        longitude: 124.10028
        name: Rimpeso
        names_en: ~
        names_es: ~
        population: 3494
        timezone: Asia/Manila
      - 
        alternate_names: 
          - Punai
          - Punay
        ascii_name: Punay
        geonamesid: 1692477
        latitude: 5.96139
        longitude: 121.19806
        name: Punay
        names_en: ~
        names_es: ~
        population: 6099
        timezone: Asia/Manila
      - 
        alternate_names: ~
        ascii_name: Polloc
        geonamesid: 1693112
        latitude: 7.35528
        longitude: 124.22083
        name: Polloc
        names_en: ~
        names_es: ~
        population: 3140
        timezone: Asia/Manila
      - 
        alternate_names: 
          - Pitogo
          - Pitugu
        ascii_name: Pitogo
        geonamesid: 1693280
        latitude: 5.88823
        longitude: 121.31215
        name: Pitogo
        names_en: 
          - Pitogo
        names_es: ~
        population: 3493
        timezone: Asia/Manila
      - 
        alternate_names: ~
        ascii_name: Pinaring
        geonamesid: 1693529
        latitude: 7.22889
        longitude: 124.31056
        name: Pinaring
        names_en: ~
        names_es: ~
        population: 2247
        timezone: Asia/Manila
      - 
        alternate_names: 
          - Panadtaban
          - Pinadtaban
        ascii_name: Panadtaban
        geonamesid: 1693721
        latitude: 6.90083
        longitude: 124.64278
        name: Panadtaban
        names_en: ~
        names_es: ~
        population: 2324
        timezone: Asia/Manila
      - 
        alternate_names: ~
        ascii_name: Pigkelegan
        geonamesid: 1693902
        latitude: 7.23111
        longitude: 124.32472
        name: Pigkelegan
        names_en: ~
        names_es: ~
        population: 6083
        timezone: Asia/Manila
      - 
        alternate_names: ~
        ascii_name: Pidsandawan
        geonamesid: 1693927
        latitude: 6.93222
        longitude: 124.59083
        name: Pidsandawan
        names_en: ~
        names_es: ~
        population: 2481
        timezone: Asia/Manila
      - 
        alternate_names: 
          - Pawac
          - Pawak
        ascii_name: Pawak
        geonamesid: 1694250
        latitude: 8.01634
        longitude: 124.25647
        name: Pawak
        names_en: ~
        names_es: ~
        population: 2555
        timezone: Asia/Manila
      - 
        alternate_names: 
          - "Parian Dacula"
          - "Parian Dakula"
        ascii_name: "Parian Dakula"
        geonamesid: 1694680
        latitude: 5.55667
        longitude: 120.77194
        name: "Parian Dakula"
        names_en: ~
        names_es: ~
        population: 4005
        timezone: Asia/Manila
      - 
        alternate_names: ~
        ascii_name: Parangan
        geonamesid: 1694759
        latitude: 5.08389
        longitude: 119.93833
        name: Parangan
        names_en: ~
        names_es: ~
        population: 2432
        timezone: Asia/Manila
      - 
        alternate_names: ~
        ascii_name: Parang
        geonamesid: 1694775
        latitude: 7.37035
        longitude: 124.26973
        name: Parang
        names_en: ~
        names_es: ~
        population: 44930
        timezone: Asia/Manila
      - 
        alternate_names: 
          - Parang
        ascii_name: Parang
        geonamesid: 1694776
        latitude: 5.9137
        longitude: 120.9056
        name: Parang
        names_en: 
          - Parang
        names_es: ~
        population: 9681
        timezone: Asia/Manila
      - 
        alternate_names: 
          - Pangutaran
          - Pangutatan
          - Simbahan
          - Simbanan
        ascii_name: Simbahan
        geonamesid: 1695180
        latitude: 6.3032
        longitude: 120.5836
        name: Simbahan
        names_en: ~
        names_es: ~
        population: 4712
        timezone: Asia/Manila
      - 
        alternate_names: 
          - Pang
        ascii_name: Pang
        geonamesid: 1695444
        latitude: 5.94837
        longitude: 121.2883
        name: Pang
        names_en: 
          - Pang
        names_es: ~
        population: 2563
        timezone: Asia/Manila
      - 
        alternate_names: 
          - "Pandan Niog"
          - Pangdan
        ascii_name: "Pandan Niog"
        geonamesid: 1695506
        latitude: 6.2282
        longitude: 120.5631
        name: "Pandan Niog"
        names_en: 
          - "Pandan Niog"
        names_es: ~
        population: 3192
        timezone: Asia/Manila
      - 
        alternate_names: 
          - Panabuan
        ascii_name: Panabuan
        geonamesid: 1695802
        latitude: 5.9616
        longitude: 120.9627
        name: Panabuan
        names_en: 
          - Panabuan
        names_es: ~
        population: 2528
        timezone: Asia/Manila
      - 
        alternate_names: ~
        ascii_name: Paitan
        geonamesid: 1696437
        latitude: 6.65972
        longitude: 124.87139
        name: Paitan
        names_en: ~
        names_es: ~
        population: 3294
        timezone: Asia/Manila
      - 
        alternate_names: ~
        ascii_name: Pagatin
        geonamesid: 1696652
        latitude: 6.97306
        longitude: 124.47528
        name: Pagatin
        names_en: ~
        names_es: ~
        population: 3079
        timezone: Asia/Manila
      - 
        alternate_names: 
          - Balumis
          - "Balumis Pagalungan"
          - Pagalungan
          - Pagatungan
        ascii_name: Pagalungan
        geonamesid: 1696684
        latitude: 7.05667
        longitude: 124.70083
        name: Pagalungan
        names_en: ~
        names_es: ~
        population: 5932
        timezone: Asia/Manila
      - 
        alternate_names: ~
        ascii_name: "New Batu Batu"
        geonamesid: 1697786
        latitude: 5.06667
        longitude: 119.88333
        name: "New Batu Batu"
        names_en: ~
        names_es: ~
        population: 8881
        timezone: Asia/Manila
      - 
        alternate_names: 
          - Mileb
          - Miteb
        ascii_name: Mileb
        geonamesid: 1699703
        latitude: 6.89861
        longitude: 124.58389
        name: Mileb
        names_en: ~
        names_es: ~
        population: 2758
        timezone: Asia/Manila
      - 
        alternate_names: 
          - Marogong
        ascii_name: Marogong
        geonamesid: 1700847
        latitude: 7.66667
        longitude: 124.15
        name: Marogong
        names_en: ~
        names_es: ~
        population: 3785
        timezone: Asia/Manila
      - 
        alternate_names: 
          - Marantao
        ascii_name: Marantao
        geonamesid: 1701087
        latitude: 7.95
        longitude: 124.23333
        name: Marantao
        names_en: ~
        names_es: ~
        population: 3572
        timezone: Asia/Manila
      - 
        alternate_names: 
          - Lokdatan
          - "Luuk Datan"
          - "Manuk Mangaw"
          - "Manuk Mangkaw"
        ascii_name: "Manuk Mangkaw"
        geonamesid: 1701394
        latitude: 4.8
        longitude: 119.85
        name: "Manuk Mangkaw"
        names_en: ~
        names_es: ~
        population: 4981
        timezone: Asia/Manila
      - 
        alternate_names: 
          - Manubal
          - Manubul
        ascii_name: Manubul
        geonamesid: 1701410
        latitude: 5.4732
        longitude: 120.7986
        name: Manubul
        names_en: 
          - Manubul
        names_es: ~
        population: 4736
        timezone: Asia/Manila
      - 
        alternate_names: 
          - Malabang
        ascii_name: Malabang
        geonamesid: 1703352
        latitude: 7.59028
        longitude: 124.07028
        name: Malabang
        names_en: ~
        names_es: ~
        population: 4354
        timezone: Asia/Manila
      - 
        alternate_names: 
          - Maibun
          - Maimbung
        ascii_name: Maimbung
        geonamesid: 1703539
        latitude: 5.9272
        longitude: 121.02935
        name: Maimbung
        names_en: ~
        names_es: ~
        population: 3779
        timezone: Asia/Manila
      - 
        alternate_names: 
          - Mahaela
          - Mahala
        ascii_name: Mahala
        geonamesid: 1703626
        latitude: 5.91667
        longitude: 121.13333
        name: Mahala
        names_en: ~
        names_es: ~
        population: 2427
        timezone: Asia/Manila
      - 
        alternate_names: 
          - Maganai
          - Maganoy
          - Maganui
          - Maganuy
        ascii_name: Maganoy
        geonamesid: 1704021
        latitude: 6.86472
        longitude: 124.44167
        name: Maganoy
        names_en: ~
        names_es: ~
        population: 17394
        timezone: Asia/Manila
      - 
        alternate_names: 
          - Lokdata
          - Lokdatan
          - "Luuk Datan"
          - "Manuk Mangaw"
        ascii_name: "Luuk Datan"
        geonamesid: 1704876
        latitude: 4.81194
        longitude: 119.84528
        name: "Luuk Datan"
        names_en: ~
        names_es: ~
        population: 2567
        timezone: Asia/Manila
      - 
        alternate_names: 
          - Andres
          - "Camp Andres"
          - Lu-uk
        ascii_name: Lu-uk
        geonamesid: 1704881
        latitude: 5.9684
        longitude: 121.3122
        name: Lu-uk
        names_en: 
          - Lu-uk
        names_es: ~
        population: 9558
        timezone: Asia/Manila
      - 
        alternate_names: 
          - Lutavan
          - Lutayan
        ascii_name: Lutayan
        geonamesid: 1704897
        latitude: 6.62
        longitude: 124.88306
        name: Lutayan
        names_en: ~
        names_es: ~
        population: 13080
        timezone: Asia/Manila
      - 
        alternate_names: 
          - Lugus
        ascii_name: Lugus
        geonamesid: 1705300
        latitude: 5.70361
        longitude: 120.82028
        name: Lugus
        names_en: ~
        names_es: ~
        population: 7167
        timezone: Asia/Manila
      - 
        alternate_names: 
          - Lookan
          - Lookani
          - Luukan
        ascii_name: Lookan
        geonamesid: 1705597
        latitude: 5.037
        longitude: 120.1027
        name: Lookan
        names_en: 
          - Lookan
        names_es: ~
        population: 2758
        timezone: Asia/Manila
      - 
        alternate_names: 
          - Litayan
          - Litayen
        ascii_name: Litayan
        geonamesid: 1705985
        latitude: 7.33583
        longitude: 124.03472
        name: Litayan
        names_en: ~
        names_es: ~
        population: 5294
        timezone: Asia/Manila
      - 
        alternate_names: ~
        ascii_name: Limbo
        geonamesid: 1706349
        latitude: 7.25167
        longitude: 124.24389
        name: Limbo
        names_en: ~
        names_es: ~
        population: 4842
        timezone: Asia/Manila
      - 
        alternate_names: 
          - Ligayan
          - Ligayen
        ascii_name: Ligayan
        geonamesid: 1706466
        latitude: 4.65333
        longitude: 119.47056
        name: Ligayan
        names_en: ~
        names_es: ~
        population: 2319
        timezone: Asia/Manila
      - 
        alternate_names: ~
        ascii_name: Layog
        geonamesid: 1706944
        latitude: 7.07667
        longitude: 124.73056
        name: Layog
        names_en: ~
        names_es: ~
        population: 2588
        timezone: Asia/Manila
      - 
        alternate_names: ~
        ascii_name: Latung
        geonamesid: 1707108
        latitude: 5.5
        longitude: 120.88333
        name: Latung
        names_en: ~
        names_es: ~
        population: 2964
        timezone: Asia/Manila
      - 
        alternate_names: ~
        ascii_name: Larap
        geonamesid: 1707236
        latitude: 4.76139
        longitude: 119.4075
        name: Larap
        names_en: ~
        names_es: ~
        population: 4113
        timezone: Asia/Manila
      - 
        alternate_names: 
          - Languyan
        ascii_name: Languyan
        geonamesid: 1707511
        latitude: 5.2618
        longitude: 120.0807
        name: Languyan
        names_en: 
          - Languyan
        names_es: ~
        population: 8900
        timezone: Asia/Manila
      - 
        alternate_names: 
          - Langpas
        ascii_name: Langpas
        geonamesid: 1707525
        latitude: 5.975
        longitude: 120.949
        name: Langpas
        names_en: 
          - Langpas
        names_es: ~
        population: 2378
        timezone: Asia/Manila
      - 
        alternate_names: 
          - Laminusa
        ascii_name: Laminusa
        geonamesid: 1707770
        latitude: 5.5549
        longitude: 120.9136
        name: Laminusa
        names_en: 
          - Laminusa
        names_es: ~
        population: 8113
        timezone: Asia/Manila
      - 
        alternate_names: ~
        ascii_name: Labungan
        geonamesid: 1708250
        latitude: 7.10306
        longitude: 124.235
        name: Labuñgan
        names_en: ~
        names_es: ~
        population: 2397
        timezone: Asia/Manila
      - 
        alternate_names: 
          - Kulempang
          - Kulumpang
        ascii_name: Kulempang
        geonamesid: 1708442
        latitude: 7.51944
        longitude: 124.38972
        name: Kulempang
        names_en: ~
        names_es: ~
        population: 2384
        timezone: Asia/Manila
      - 
        alternate_names: ~
        ascii_name: Kulay-Kulay
        geonamesid: 1708457
        latitude: 5.94528
        longitude: 121.2325
        name: Kulay-Kulay
        names_en: ~
        names_es: ~
        population: 2783
        timezone: Asia/Manila
      - 
        alternate_names: 
          - Kolape
          - Kularpy
          - Kulop
        ascii_name: Kolape
        geonamesid: 1708553
        latitude: 5.07028
        longitude: 119.89694
        name: Kolape
        names_en: ~
        names_es: ~
        population: 2825
        timezone: Asia/Manila
      - 
        alternate_names: 
          - Kitapak
          - Kitapok
        ascii_name: Kitapak
        geonamesid: 1708602
        latitude: 6.95333
        longitude: 124.42556
        name: Kitapak
        names_en: ~
        names_es: ~
        population: 2924
        timezone: Asia/Manila
      - 
        alternate_names: ~
        ascii_name: Kitango
        geonamesid: 1708608
        latitude: 6.94833
        longitude: 124.44111
        name: Kitango
        names_en: ~
        names_es: ~
        population: 2608
        timezone: Asia/Manila
      - 
        alternate_names: ~
        ascii_name: Kauran
        geonamesid: 1709044
        latitude: 6.78556
        longitude: 124.47333
        name: Kauran
        names_en: ~
        names_es: ~
        population: 5120
        timezone: Asia/Manila
      - 
        alternate_names: ~
        ascii_name: Katuli
        geonamesid: 1709059
        latitude: 7.43333
        longitude: 124.21667
        name: Katuli
        names_en: ~
        names_es: ~
        population: 4732
        timezone: Asia/Manila
      - 
        alternate_names: 
          - Catictuan
          - Catidtuan
          - Katidtuan
        ascii_name: Katidtuan
        geonamesid: 1709098
        latitude: 7.18861
        longitude: 124.31528
        name: Katidtuan
        names_en: ~
        names_es: ~
        population: 4710
        timezone: Asia/Manila
      - 
        alternate_names: 
          - Karungdong
          - Karungdung
        ascii_name: Karungdong
        geonamesid: 1709166
        latitude: 5.8844
        longitude: 121.263
        name: Karungdong
        names_en: ~
        names_es: ~
        population: 7269
        timezone: Asia/Manila
      - 
        alternate_names: 
          - "Kan Sipat"
          - Kansipati
          - Seit
          - Siit
        ascii_name: Kansipati
        geonamesid: 1709322
        latitude: 6.00111
        longitude: 121.23444
        name: Kansipati
        names_en: ~
        names_es: ~
        population: 14552
        timezone: Asia/Manila
      - 
        alternate_names: 
          - Kanlagay
        ascii_name: Kanlagay
        geonamesid: 1709347
        latitude: 5.87568
        longitude: 121.29146
        name: Kanlagay
        names_en: 
          - Kanlagay
        names_es: ~
        population: 2211
        timezone: Asia/Manila
      - 
        alternate_names: 
          - Kambing
        ascii_name: Kambing
        geonamesid: 1709498
        latitude: 5.94646
        longitude: 121.30757
        name: Kambing
        names_en: 
          - Kambing
        names_es: ~
        population: 2373
        timezone: Asia/Manila
      - 
        alternate_names: 
          - Kalbugan
          - Kalbungan
        ascii_name: Kalbugan
        geonamesid: 1709644
        latitude: 6.95972
        longitude: 124.65917
        name: Kalbugan
        names_en: ~
        names_es: ~
        population: 3226
        timezone: Asia/Manila
      - 
        alternate_names: 
          - Kagay
        ascii_name: Kagay
        geonamesid: 1709809
        latitude: 6.0088
        longitude: 120.9074
        name: Kagay
        names_en: 
          - Kagay
        names_es: ~
        population: 2318
        timezone: Asia/Manila
      - 
        alternate_names: ~
        ascii_name: Kabasalan
        geonamesid: 1709955
        latitude: 7.06667
        longitude: 124.65
        name: Kabasalan
        names_en: ~
        names_es: ~
        population: 2190
        timezone: Asia/Manila
      - 
        alternate_names: 
          - Dzholi
          - Jolo
          - Sug
          - Sulu
        ascii_name: Jolo
        geonamesid: 1710141
        latitude: 6.05222
        longitude: 121.00222
        name: Jolo
        names_en: ~
        names_es: ~
        population: 101002
        timezone: Asia/Manila
      - 
        alternate_names: 
          - Idtig
          - Itig
        ascii_name: Idtig
        geonamesid: 1711332
        latitude: 6.79889
        longitude: 124.77278
        name: Idtig
        names_en: ~
        names_es: ~
        population: 3969
        timezone: Asia/Manila
      - 
        alternate_names: ~
        ascii_name: Gang
        geonamesid: 1713259
        latitude: 7.24583
        longitude: 124.26639
        name: Gang
        names_en: ~
        names_es: ~
        population: 3317
        timezone: Asia/Manila
      - 
        alternate_names: 
          - Ganasi
          - Ganassi
        ascii_name: Ganassi
        geonamesid: 1713271
        latitude: 7.82694
        longitude: 124.10344
        name: Ganassi
        names_en: ~
        names_es: ~
        population: 2412
        timezone: Asia/Manila
      - 
        alternate_names: ~
        ascii_name: Gadung
        geonamesid: 1713413
        latitude: 6.8025
        longitude: 124.02
        name: Gadung
        names_en: ~
        names_es: ~
        population: 2456
        timezone: Asia/Manila
      - 
        alternate_names: 
          - "Ebcor Town"
          - Edcor
          - "Gallego Edcor"
        ascii_name: "Ebcor Town"
        geonamesid: 1713960
        latitude: 7.44056
        longitude: 124.39722
        name: "Ebcor Town"
        names_en: ~
        names_es: ~
        population: 2483
        timezone: Asia/Manila
      - 
        alternate_names: 
          - Dinganan
          - Dinganen
        ascii_name: Dinganen
        geonamesid: 1714740
        latitude: 7.32833
        longitude: 124.37833
        name: Dinganen
        names_en: ~
        names_es: ~
        population: 4623
        timezone: Asia/Manila
      - 
        alternate_names: ~
        ascii_name: Digal
        geonamesid: 1714970
        latitude: 6.75306
        longitude: 124.79639
        name: Digal
        names_en: ~
        names_es: ~
        population: 6810
        timezone: Asia/Manila
      - 
        alternate_names: 
          - "Datu Piang"
          - Dulauan
          - Dulawan
        ascii_name: "Datu Piang"
        geonamesid: 1715382
        latitude: 7.02833
        longitude: 124.5025
        name: "Datu Piang"
        names_en: ~
        names_es: ~
        population: 8178
        timezone: Asia/Manila
      - 
        alternate_names: 
          - "Datu Paglas"
        ascii_name: "Datu Paglas"
        geonamesid: 1715384
        latitude: 6.76667
        longitude: 124.85
        name: "Datu Paglas"
        names_en: ~
        names_es: ~
        population: 3851
        timezone: Asia/Manila
      - 
        alternate_names: ~
        ascii_name: Damatulan
        geonamesid: 1715890
        latitude: 7.03889
        longitude: 124.48278
        name: Damatulan
        names_en: ~
        names_es: ~
        population: 3330
        timezone: Asia/Manila
      - 
        alternate_names: ~
        ascii_name: Dalumangcob
        geonamesid: 1715931
        latitude: 7.21667
        longitude: 124.3
        name: Dalumangcob
        names_en: ~
        names_es: ~
        population: 9424
        timezone: Asia/Manila
      - 
        alternate_names: ~
        ascii_name: Dalican
        geonamesid: 1716014
        latitude: 6.96667
        longitude: 124.4
        name: Dalican
        names_en: ~
        names_es: ~
        population: 13918
        timezone: Asia/Manila
      - 
        alternate_names: 
          - Dados
          - Dadus
        ascii_name: Dadus
        geonamesid: 1716294
        latitude: 7.0575
        longitude: 124.32167
        name: Dadus
        names_en: ~
        names_es: ~
        population: 2325
        timezone: Asia/Manila
      - 
        alternate_names: 
          - Catabate
          - Catabato
          - Cotabato
          - "Cotabato City"
        ascii_name: Cotabato
        geonamesid: 1716771
        latitude: 7.22361
        longitude: 124.24639
        name: Cotabato
        names_en: 
          - "Cotabato City"
        names_es: ~
        population: 179433
        timezone: Asia/Manila
      - 
        alternate_names: 
          - Catico
          - Katico
        ascii_name: Katico
        geonamesid: 1717884
        latitude: 6.76167
        longitude: 124.73
        name: Katico
        names_en: ~
        names_es: ~
        population: 3932
        timezone: Asia/Manila
      - 
        alternate_names: 
          - Butig
        ascii_name: Butig
        geonamesid: 1722217
        latitude: 7.72444
        longitude: 124.30083
        name: Butig
        names_en: ~
        names_es: ~
        population: 6016
        timezone: Asia/Manila
      - 
        alternate_names: ~
        ascii_name: Barurao
        geonamesid: 1722357
        latitude: 6.89806
        longitude: 124.5975
        name: Barurao
        names_en: ~
        names_es: ~
        population: 2990
        timezone: Asia/Manila
      - 
        alternate_names: ~
        ascii_name: Buluan
        geonamesid: 1722818
        latitude: 6.72028
        longitude: 124.80194
        name: Buluan
        names_en: ~
        names_es: ~
        population: 28025
        timezone: Asia/Manila
      - 
        alternate_names: 
          - Bulet
          - Bulit
        ascii_name: Bulit
        geonamesid: 1722857
        latitude: 7.11528
        longitude: 124.78944
        name: Bulit
        names_en: ~
        names_es: ~
        population: 2219
        timezone: Asia/Manila
      - 
        alternate_names: 
          - Buliok
          - Buliuk
        ascii_name: Buliok
        geonamesid: 1722868
        latitude: 7.01667
        longitude: 124.7
        name: Buliok
        names_en: ~
        names_es: ~
        population: 3713
        timezone: Asia/Manila
      - 
        alternate_names: 
          - Bugasan
          - "Bugasan Sur"
        ascii_name: Bugasan
        geonamesid: 1723318
        latitude: 7.44083
        longitude: 124.25917
        name: Bugasan
        names_en: ~
        names_es: ~
        population: 7754
        timezone: Asia/Manila
      - 
        alternate_names: ~
        ascii_name: Bualan
        geonamesid: 1723719
        latitude: 7.75
        longitude: 124.26667
        name: Bualan
        names_en: ~
        names_es: ~
        population: 3471
        timezone: Asia/Manila
      - 
        alternate_names: ~
        ascii_name: Bongued
        geonamesid: 1724034
        latitude: 7.11667
        longitude: 124.4
        name: Bongued
        names_en: ~
        names_es: ~
        population: 2684
        timezone: Asia/Manila
      - 
        alternate_names: 
          - Bangaw
          - Bongao
          - "Bongao Poblacion"
          - Bonggao
        ascii_name: Bongao
        geonamesid: 1724088
        latitude: 5.02917
        longitude: 119.77306
        name: Bongao
        names_en: ~
        names_es: ~
        population: 26518
        timezone: Asia/Manila
      - 
        alternate_names: 
          - Bo'an
          - Bo’an
          - Buan
        ascii_name: Buan
        geonamesid: 1724567
        latitude: 5.1608
        longitude: 120.0426
        name: Buan
        names_en: 
          - Buan
        names_es: ~
        population: 2929
        timezone: Asia/Manila
      - 
        alternate_names: 
          - Blensong
          - Blinsung
        ascii_name: Blinsung
        geonamesid: 1724594
        latitude: 7.01806
        longitude: 124.18056
        name: Blinsung
        names_en: ~
        names_es: ~
        population: 4151
        timezone: Asia/Manila
      - 
        alternate_names: 
          - Binidayan
        ascii_name: Binidayan
        geonamesid: 1724983
        latitude: 7.80668
        longitude: 124.16846
        name: Binidayan
        names_en: ~
        names_es: ~
        population: 3848
        timezone: Asia/Manila
      - 
        alternate_names: 
          - Bayang
        ascii_name: Bayang
        geonamesid: 1725844
        latitude: 7.79278
        longitude: 124.19167
        name: Bayang
        names_en: ~
        names_es: ~
        population: 6176
        timezone: Asia/Manila
      - 
        alternate_names: 
          - Bawisan
          - Bawison
        ascii_name: Bawison
        geonamesid: 1725923
        latitude: 5.9375
        longitude: 120.8745
        name: Bawison
        names_en: 
          - Bawison
        names_es: ~
        population: 3461
        timezone: Asia/Manila
      - 
        alternate_names: 
          - "Baunu' Timbangan"
          - Baunu-Timbangan
          - "Bounu Timbagan"
          - Timbangan
        ascii_name: "Baunu' Timbangan"
        geonamesid: 1725947
        latitude: 6.00547
        longitude: 120.99406
        name: Baunu-Timbangan
        names_en: 
          - Baunu-Timbangan
        names_es: ~
        population: 2230
        timezone: Asia/Manila
      - 
        alternate_names: ~
        ascii_name: Barira
        geonamesid: 1726655
        latitude: 7.48722
        longitude: 124.29917
        name: Barira
        names_en: ~
        names_es: ~
        population: 3717
        timezone: Asia/Manila
      - 
        alternate_names: 
          - Bankaw
          - "Tong Bangkaw"
        ascii_name: Bankaw
        geonamesid: 1727148
        latitude: 5.0192
        longitude: 120.0091
        name: Bankaw
        names_en: 
          - Bankaw
        names_es: ~
        population: 3908
        timezone: Asia/Manila
      - 
        alternate_names: ~
        ascii_name: Bangkal
        geonamesid: 1727268
        latitude: 6.06667
        longitude: 121.06667
        name: Bangkal
        names_en: ~
        names_es: ~
        population: 2288
        timezone: Asia/Manila
      - 
        alternate_names: 
          - Balimbing
          - "Panglima Sugala"
        ascii_name: Balimbing
        geonamesid: 1728125
        latitude: 5.0825
        longitude: 119.96583
        name: Balimbing
        names_en: ~
        names_es: ~
        population: 7102
        timezone: Asia/Manila
      - 
        alternate_names: 
          - Balabagan
        ascii_name: Balabagan
        geonamesid: 1728653
        latitude: 7.52639
        longitude: 124.11417
        name: Balabagan
        names_en: ~
        names_es: ~
        population: 2423
        timezone: Asia/Manila
      - 
        alternate_names: 
          - Bakong
          - Bakung
          - "Bakung Bakung"
        ascii_name: Bakung
        geonamesid: 1728688
        latitude: 4.89111
        longitude: 119.79417
        name: Bakung
        names_en: ~
        names_es: ~
        population: 3185
        timezone: Asia/Manila
      - 
        alternate_names: ~
        ascii_name: Baka
        geonamesid: 1728748
        latitude: 7.27611
        longitude: 124.26417
        name: Baka
        names_en: ~
        names_es: ~
        population: 2404
        timezone: Asia/Manila
      - 
        alternate_names: 
          - Baganga
          - Bayanga
        ascii_name: Bayanga
        geonamesid: 1729183
        latitude: 7.52139
        longitude: 124.25222
        name: Bayanga
        names_en: ~
        names_es: ~
        population: 5087
        timezone: Asia/Manila
      - 
        alternate_names: ~
        ascii_name: Bagan
        geonamesid: 1729191
        latitude: 6.92556
        longitude: 124.42028
        name: Bagan
        names_en: ~
        names_es: ~
        population: 2230
        timezone: Asia/Manila
      - 
        alternate_names: 
          - Bacayawan
          - Bakayawan
        ascii_name: Bacayawan
        geonamesid: 1729640
        latitude: 7.76667
        longitude: 124.23333
        name: Bacayawan
        names_en: ~
        names_es: ~
        population: 3234
        timezone: Asia/Manila
      - 
        alternate_names: ~
        ascii_name: Awang
        geonamesid: 1729907
        latitude: 7.15306
        longitude: 124.22111
        name: Awang
        names_en: ~
        names_es: ~
        population: 8417
        timezone: Asia/Manila
      - 
        alternate_names: ~
        ascii_name: Anuling
        geonamesid: 1730468
        latitude: 6.03556
        longitude: 121.00667
        name: Anuling
        names_en: ~
        names_es: ~
        population: 10039
        timezone: Asia/Manila
      - 
        alternate_names: 
          - Ampatuan
          - Ampuan
        ascii_name: Ampatuan
        geonamesid: 1730983
        latitude: 6.86667
        longitude: 124.46667
        name: Ampatuan
        names_en: ~
        names_es: ~
        population: 3962
        timezone: Asia/Manila
      - 
        alternate_names: ~
        ascii_name: Tunggol
        geonamesid: 1957588
        latitude: 5.84458
        longitude: 121.15436
        name: Tunggol
        names_en: ~
        names_es: ~
        population: 3013
        timezone: Asia/Manila
      - 
        alternate_names: ~
        ascii_name: Marsada
        geonamesid: 1957653
        latitude: 5.93139
        longitude: 121.10694
        name: Marsada
        names_en: ~
        names_es: ~
        population: 2571
        timezone: Asia/Manila
      - 
        alternate_names: ~
        ascii_name: Talipaw
        geonamesid: 1957660
        latitude: 5.91
        longitude: 121.09444
        name: Talipaw
        names_en: ~
        names_es: ~
        population: 5977
        timezone: Asia/Manila
      - 
        alternate_names: ~
        ascii_name: Sanga-Sanga
        geonamesid: 1957691
        latitude: 5.0725
        longitude: 119.78528
        name: Sanga-Sanga
        names_en: ~
        names_es: ~
        population: 5295
        timezone: Asia/Manila
      - 
        alternate_names: ~
        ascii_name: Ungus-Ungus
        geonamesid: 1957769
        latitude: 5.05083
        longitude: 119.83972
        name: Ungus-Ungus
        names_en: ~
        names_es: ~
        population: 2344
        timezone: Asia/Manila
      - 
        alternate_names: ~
        ascii_name: Binuang
        geonamesid: 1957775
        latitude: 5.95694
        longitude: 121.06
        name: Binuang
        names_en: ~
        names_es: ~
        population: 3159
        timezone: Asia/Manila
      - 
        alternate_names: ~
        ascii_name: Pandakan
        geonamesid: 1957783
        latitude: 5.98889
        longitude: 121.16583
        name: Pandakan
        names_en: ~
        names_es: ~
        population: 3162
        timezone: Asia/Manila
      - 
        alternate_names: ~
        ascii_name: Mauboh
        geonamesid: 1957809
        latitude: 5.99
        longitude: 121.09361
        name: Mauboh
        names_en: ~
        names_es: ~
        population: 2561
        timezone: Asia/Manila
      - 
        alternate_names: 
          - Kulase
          - Kulasi
        ascii_name: Kulase
        geonamesid: 1957824
        latitude: 5.9052
        longitude: 120.9569
        name: Kulase
        names_en: 
          - Kulase
        names_es: ~
        population: 7148
        timezone: Asia/Manila
      - 
        alternate_names: ~
        ascii_name: Kalang
        geonamesid: 1957866
        latitude: 5.91972
        longitude: 121.36306
        name: Kalang
        names_en: ~
        names_es: ~
        population: 2323
        timezone: Asia/Manila
      - 
        alternate_names: ~
        ascii_name: Andalan
        geonamesid: 1957875
        latitude: 5.95944
        longitude: 121.39028
        name: Andalan
        names_en: ~
        names_es: ~
        population: 2644
        timezone: Asia/Manila
      - 
        alternate_names: 
          - Buansa
          - Buanza
          - Puansa
        ascii_name: Buansa
        geonamesid: 1957913
        latitude: 6.0258
        longitude: 120.9614
        name: Buansa
        names_en: ~
        names_es: ~
        population: 3196
        timezone: Asia/Manila
      - 
        alternate_names: ~
        ascii_name: Kajatian
        geonamesid: 1957914
        latitude: 6.03111
        longitude: 120.99194
        name: Kajatian
        names_en: ~
        names_es: ~
        population: 5436
        timezone: Asia/Manila
      - 
        alternate_names: 
          - "Bata Bata"
          - Bata-Bata
          - "Bato Bato"
          - Bato-Bato
        ascii_name: Bato-Bato
        geonamesid: 1957915
        latitude: 6.0344
        longitude: 120.9463
        name: "Bato Bato"
        names_en: 
          - "Bato Bato"
        names_es: ~
        population: 3735
        timezone: Asia/Manila
      - 
        alternate_names: ~
        ascii_name: Sionogan
        geonamesid: 1957931
        latitude: 6.00528
        longitude: 120.94861
        name: Sionogan
        names_en: ~
        names_es: ~
        population: 2730
        timezone: Asia/Manila
      - 
        alternate_names: ~
        ascii_name: Payuhan
        geonamesid: 1957958
        latitude: 5.94167
        longitude: 120.90111
        name: Payuhan
        names_en: ~
        names_es: ~
        population: 4519
        timezone: Asia/Manila
      - 
        alternate_names: 
          - Buan
        ascii_name: Buan
        geonamesid: 1958098
        latitude: 5.5508
        longitude: 120.8815
        name: Buan
        names_en: 
          - Buan
        names_es: ~
        population: 2646
        timezone: Asia/Manila
      - 
        alternate_names: 
          - Kungtad
        ascii_name: Kungtad
        geonamesid: 1958107
        latitude: 5.5572
        longitude: 120.8472
        name: Kungtad
        names_en: 
          - Kungtad
        names_es: ~
        population: 2464
        timezone: Asia/Manila
      - 
        alternate_names: ~
        ascii_name: Badak
        geonamesid: 1966226
        latitude: 6.84722
        longitude: 124.72056
        name: Badak
        names_en: ~
        names_es: ~
        population: 6653
        timezone: Asia/Manila
      - 
        alternate_names: ~
        ascii_name: Damabalas
        geonamesid: 1978291
        latitude: 7.01556
        longitude: 124.51417
        name: Damabalas
        names_en: ~
        names_es: ~
        population: 3230
        timezone: Asia/Manila
      - 
        alternate_names: ~
        ascii_name: Makir
        geonamesid: 1978438
        latitude: 7.03083
        longitude: 124.30417
        name: Makir
        names_en: ~
        names_es: ~
        population: 2371
        timezone: Asia/Manila
      - 
        alternate_names: ~
        ascii_name: Lumbac
        geonamesid: 1978540
        latitude: 7.73417
        longitude: 124.25278
        name: Lumbac
        names_en: ~
        names_es: ~
        population: 2448
        timezone: Asia/Manila
      - 
        alternate_names: ~
        ascii_name: Dado
        geonamesid: 1978691
        latitude: 7.05
        longitude: 124.45972
        name: Dado
        names_en: ~
        names_es: ~
        population: 5184
        timezone: Asia/Manila
      - 
        alternate_names: ~
        ascii_name: Simuay
        geonamesid: 1978926
        latitude: 7.27722
        longitude: 124.30722
        name: Simuay
        names_en: ~
        names_es: ~
        population: 4666
        timezone: Asia/Manila
      - 
        alternate_names: ~
        ascii_name: Bualan
        geonamesid: 1978987
        latitude: 7.44778
        longitude: 124.2675
        name: Bualan
        names_en: ~
        names_es: ~
        population: 3007
        timezone: Asia/Manila
      - 
        alternate_names: ~
        ascii_name: Mataya
        geonamesid: 1979010
        latitude: 7.47111
        longitude: 124.37194
        name: Mataya
        names_en: ~
        names_es: ~
        population: 3136
        timezone: Asia/Manila
      - 
        alternate_names: ~
        ascii_name: Nuyo
        geonamesid: 1979014
        latitude: 7.41806
        longitude: 124.41083
        name: Nuyo
        names_en: ~
        names_es: ~
        population: 2224
        timezone: Asia/Manila
    geonamesid: 7115989
    name: "Autonomous Region in Muslim Mindanao"
    names_en: ~
    names_es: ~
  - 
    ascii_name: "Northern Mindanao"
    cities: 
      - 
        alternate_names: 
          - Yumbing
        ascii_name: Yumbing
        geonamesid: 1679446
        latitude: 9.2393
        longitude: 124.6578
        name: Yumbing
        names_en: ~
        names_es: ~
        population: 4930
        timezone: Asia/Manila
      - 
        alternate_names: 
          - Villanueva
        ascii_name: Villanueva
        geonamesid: 1679873
        latitude: 8.58889
        longitude: 124.77556
        name: Villanueva
        names_en: ~
        names_es: ~
        population: 7415
        timezone: Asia/Manila
      - 
        alternate_names: 
          - Valencia
          - Valensija
          - Валенсия
        ascii_name: Valencia
        geonamesid: 1680116
        latitude: 7.90639
        longitude: 125.09417
        name: Valencia
        names_en: ~
        names_es: ~
        population: 83591
        timezone: Asia/Manila
      - 
        alternate_names: 
          - Unidos
        ascii_name: Unidos
        geonamesid: 1680275
        latitude: 8.5942
        longitude: 123.668
        name: Unidos
        names_en: 
          - Unidos
        names_es: ~
        population: 2111
        timezone: Asia/Manila
      - 
        alternate_names: 
          - Tupsan
          - "Tupsan Pequeno"
        ascii_name: Tupsan
        geonamesid: 1680604
        latitude: 9.19917
        longitude: 124.77694
        name: Tupsan
        names_en: ~
        names_es: ~
        population: 2370
        timezone: Asia/Manila
      - 
        alternate_names: 
          - Tuod
        ascii_name: Tuod
        geonamesid: 1680636
        latitude: 8.34333
        longitude: 124.35417
        name: Tuod
        names_en: ~
        names_es: ~
        population: 2778
        timezone: Asia/Manila
      - 
        alternate_names: 
          - Tudela
        ascii_name: Tudela
        geonamesid: 1681026
        latitude: 8.2472
        longitude: 123.8424
        name: Tudela
        names_en: 
          - Tudela
        names_es: ~
        population: 3137
        timezone: Asia/Manila
      - 
        alternate_names: 
          - Tubigan
        ascii_name: Tubigan
        geonamesid: 1681217
        latitude: 8.53222
        longitude: 124.31222
        name: Tubigan
        names_en: ~
        names_es: ~
        population: 2629
        timezone: Asia/Manila
      - 
        alternate_names: 
          - Ticala-an
          - Tikalaan
        ascii_name: Ticala-an
        geonamesid: 1682122
        latitude: 8.03528
        longitude: 124.62083
        name: Ticala-an
        names_en: ~
        names_es: ~
        population: 3389
        timezone: Asia/Manila
      - 
        alternate_names: 
          - Taytay
        ascii_name: Taytay
        geonamesid: 1682613
        latitude: 8.54111
        longitude: 124.53972
        name: Taytay
        names_en: ~
        names_es: ~
        population: 2821
        timezone: Asia/Manila
      - 
        alternate_names: 
          - Talacag
          - Talakag
        ascii_name: Talakag
        geonamesid: 1684086
        latitude: 8.23361
        longitude: 124.60028
        name: Talakag
        names_en: ~
        names_es: ~
        population: 7860
        timezone: Asia/Manila
      - 
        alternate_names: 
          - Tagoloan
        ascii_name: Tagoloan
        geonamesid: 1684379
        latitude: 8.53889
        longitude: 124.75694
        name: Tagoloan
        names_en: ~
        names_es: ~
        population: 30390
        timezone: Asia/Manila
      - 
        alternate_names: 
          - Tabo-o
          - Tubao
        ascii_name: Tubao
        geonamesid: 1684867
        latitude: 8.334
        longitude: 123.8547
        name: Tubao
        names_en: ~
        names_es: ~
        population: 2965
        timezone: Asia/Manila
      - 
        alternate_names: ~
        ascii_name: Taboc
        geonamesid: 1684938
        latitude: 8.87833
        longitude: 124.7975
        name: Taboc
        names_en: ~
        names_es: ~
        population: 2107
        timezone: Asia/Manila
      - 
        alternate_names: 
          - Sunga
          - Sungai
          - Sungay
        ascii_name: Sungai
        geonamesid: 1685270
        latitude: 8.45139
        longitude: 124.40278
        name: Sungai
        names_en: ~
        names_es: ~
        population: 2094
        timezone: Asia/Manila
      - 
        alternate_names: 
          - Sumpong
        ascii_name: Sumpong
        geonamesid: 1685286
        latitude: 8.16333
        longitude: 125.11833
        name: Sumpong
        names_en: ~
        names_es: ~
        population: 7399
        timezone: Asia/Manila
      - 
        alternate_names: 
          - Sumilao
        ascii_name: Sumilao
        geonamesid: 1685302
        latitude: 8.28722
        longitude: 124.94556
        name: Sumilao
        names_en: ~
        names_es: ~
        population: 5339
        timezone: Asia/Manila
      - 
        alternate_names: 
          - Sugbongcogon
          - Sugbongkogon
        ascii_name: Sugbongkogon
        geonamesid: 1685506
        latitude: 8.95694
        longitude: 124.79111
        name: Sugbongkogon
        names_en: ~
        names_es: ~
        population: 2494
        timezone: Asia/Manila
      - 
        alternate_names: 
          - Colona
          - Coloña
          - Solana
        ascii_name: Solana
        geonamesid: 1685882
        latitude: 8.62306
        longitude: 124.77056
        name: Solana
        names_en: ~
        names_es: ~
        population: 2984
        timezone: Asia/Manila
      - 
        alternate_names: 
          - Sinonoc
          - Sinonuc
        ascii_name: Sinonoc
        geonamesid: 1686159
        latitude: 8.3096
        longitude: 123.8461
        name: Sinonoc
        names_en: 
          - Sinonoc
        names_es: ~
        population: 2648
        timezone: Asia/Manila
      - 
        alternate_names: 
          - Nacavan
          - Navacan
          - Sinacaban
          - Sinakaban
        ascii_name: Sinacaban
        geonamesid: 1686335
        latitude: 8.2864
        longitude: 123.8399
        name: Sinacaban
        names_en: 
          - Sinacaban
        names_es: ~
        population: 2372
        timezone: Asia/Manila
      - 
        alternate_names: 
          - Silae
          - Siloe
        ascii_name: Silae
        geonamesid: 1686564
        latitude: 8.15889
        longitude: 125.2825
        name: Silae
        names_en: ~
        names_es: ~
        population: 2215
        timezone: Asia/Manila
      - 
        alternate_names: 
          - "Sapang Dalaga"
        ascii_name: "Sapang Dalaga"
        geonamesid: 1687275
        latitude: 8.5399
        longitude: 123.5624
        name: "Sapang Dalaga"
        names_en: 
          - "Sapang Dalaga"
        names_es: ~
        population: 2742
        timezone: Asia/Manila
      - 
        alternate_names: ~
        ascii_name: "San Vicente"
        geonamesid: 1687486
        latitude: 7.65111
        longitude: 125.03444
        name: "San Vicente"
        names_en: ~
        names_es: ~
        population: 2335
        timezone: Asia/Manila
      - 
        alternate_names: 
          - "Santa Fe"
        ascii_name: "Santa Fe"
        geonamesid: 1688175
        latitude: 8.3425
        longitude: 124.78083
        name: "Santa Fe"
        names_en: ~
        names_es: ~
        population: 3380
        timezone: Asia/Manila
      - 
        alternate_names: ~
        ascii_name: "Santa Ana"
        geonamesid: 1688414
        latitude: 8.51667
        longitude: 124.78333
        name: "Santa Ana"
        names_en: ~
        names_es: ~
        population: 5770
        timezone: Asia/Manila
      - 
        alternate_names: 
          - "San Miguel"
        ascii_name: "San Miguel"
        geonamesid: 1689020
        latitude: 8.03
        longitude: 124.75389
        name: "San Miguel"
        names_en: ~
        names_es: ~
        population: 5054
        timezone: Asia/Manila
      - 
        alternate_names: ~
        ascii_name: "San Martin"
        geonamesid: 1689078
        latitude: 8.56111
        longitude: 124.77139
        name: "San Martin"
        names_en: ~
        names_es: ~
        population: 3434
        timezone: Asia/Manila
      - 
        alternate_names: ~
        ascii_name: "San Luis"
        geonamesid: 1689145
        latitude: 8.48333
        longitude: 125.0
        name: "San Luis"
        names_en: ~
        names_es: ~
        population: 6357
        timezone: Asia/Manila
      - 
        alternate_names: 
          - Sankanam
          - Sankanan
        ascii_name: Sankanan
        geonamesid: 1689177
        latitude: 8.31556
        longitude: 124.85806
        name: Sankanan
        names_en: ~
        names_es: ~
        population: 3055
        timezone: Asia/Manila
      - 
        alternate_names: ~
        ascii_name: "San Jose"
        geonamesid: 1689562
        latitude: 7.73667
        longitude: 125.07028
        name: "San Jose"
        names_en: ~
        names_es: ~
        population: 6345
        timezone: Asia/Manila
      - 
        alternate_names: 
          - "San Isidro"
        ascii_name: "San Isidro"
        geonamesid: 1689800
        latitude: 8.25833
        longitude: 124.59306
        name: "San Isidro"
        names_en: ~
        names_es: ~
        population: 4270
        timezone: Asia/Manila
      - 
        alternate_names: ~
        ascii_name: "San Carlos"
        geonamesid: 1690220
        latitude: 7.95972
        longitude: 125.0775
        name: "San Carlos"
        names_en: ~
        names_es: ~
        population: 3186
        timezone: Asia/Manila
      - 
        alternate_names: ~
        ascii_name: Sampagar
        geonamesid: 1690591
        latitude: 7.51389
        longitude: 124.95528
        name: Sampagar
        names_en: ~
        names_es: ~
        population: 2207
        timezone: Asia/Manila
      - 
        alternate_names: 
          - Salimbalan
          - Salimbalon
        ascii_name: Salimbalan
        geonamesid: 1690891
        latitude: 8.27417
        longitude: 124.72194
        name: Salimbalan
        names_en: ~
        names_es: ~
        population: 2746
        timezone: Asia/Manila
      - 
        alternate_names: 
          - Salay
        ascii_name: Salay
        geonamesid: 1690934
        latitude: 8.85917
        longitude: 124.78917
        name: Salay
        names_en: ~
        names_es: ~
        population: 6428
        timezone: Asia/Manila
      - 
        alternate_names: ~
        ascii_name: Salawagan
        geonamesid: 1690937
        latitude: 7.70528
        longitude: 125.115
        name: Salawagan
        names_en: ~
        names_es: ~
        population: 6508
        timezone: Asia/Manila
      - 
        alternate_names: 
          - Sagay
        ascii_name: Sagay
        geonamesid: 1691152
        latitude: 9.1059
        longitude: 124.7243
        name: Sagay
        names_en: ~
        names_es: ~
        population: 3256
        timezone: Asia/Manila
      - 
        alternate_names: 
          - Keson
          - Kiokong
          - Quezon
          - Кесон
        ascii_name: Quezon
        geonamesid: 1692214
        latitude: 7.73028
        longitude: 125.09889
        name: Quezon
        names_en: ~
        names_es: ~
        population: 27212
        timezone: Asia/Manila
      - 
        alternate_names: 
          - Pontian
          - Puntian
        ascii_name: Pontian
        geonamesid: 1692398
        latitude: 8.28111
        longitude: 124.90028
        name: Pontian
        names_en: ~
        names_es: ~
        population: 2312
        timezone: Asia/Manila
      - 
        alternate_names: 
          - "Punta Silum"
        ascii_name: "Punta Silum"
        geonamesid: 1692400
        latitude: 8.38167
        longitude: 124.26944
        name: "Punta Silum"
        names_en: ~
        names_es: ~
        population: 3613
        timezone: Asia/Manila
      - 
        alternate_names: 
          - Pongol
          - Pungol
        ascii_name: Pongol
        geonamesid: 1692460
        latitude: 8.27861
        longitude: 124.74833
        name: Pongol
        names_en: ~
        names_es: ~
        population: 3421
        timezone: Asia/Manila
      - 
        alternate_names: 
          - Plaridel
        ascii_name: Plaridel
        geonamesid: 1693255
        latitude: 8.6214
        longitude: 123.7101
        name: Plaridel
        names_en: 
          - Plaridel
        names_es: ~
        population: 2972
        timezone: Asia/Manila
      - 
        alternate_names: ~
        ascii_name: Pines
        geonamesid: 1693491
        latitude: 8.45222
        longitude: 123.8075
        name: Pines
        names_en: ~
        names_es: ~
        population: 3019
        timezone: Asia/Manila
      - 
        alternate_names: ~
        ascii_name: Patrocinio
        geonamesid: 1694319
        latitude: 8.6125
        longitude: 124.84556
        name: Patrocinio
        names_en: ~
        names_es: ~
        population: 3325
        timezone: Asia/Manila
      - 
        alternate_names: 
          - Panagabuan
          - Pangabuan
        ascii_name: Pangabuan
        geonamesid: 1695438
        latitude: 8.05694
        longitude: 123.69583
        name: Pangabuan
        names_en: ~
        names_es: ~
        population: 2098
        timezone: Asia/Manila
      - 
        alternate_names: 
          - Padan
          - Pandan
        ascii_name: Pandan
        geonamesid: 1695566
        latitude: 9.2388
        longitude: 124.7278
        name: Pandan
        names_en: ~
        names_es: ~
        population: 2332
        timezone: Asia/Manila
      - 
        alternate_names: 
          - Pan-an
          - Pan-ay
        ascii_name: Pan-an
        geonamesid: 1695620
        latitude: 8.21917
        longitude: 123.84028
        name: Pan-an
        names_en: ~
        names_es: ~
        population: 2160
        timezone: Asia/Manila
      - 
        alternate_names: 
          - Opal
          - Opol
        ascii_name: Opol
        geonamesid: 1697072
        latitude: 8.52139
        longitude: 124.57111
        name: Opol
        names_en: ~
        names_es: ~
        population: 3468
        timezone: Asia/Manila
      - 
        alternate_names: ~
        ascii_name: Odiongan
        geonamesid: 1697299
        latitude: 8.84583
        longitude: 125.16639
        name: Odiongan
        names_en: ~
        names_es: ~
        population: 4151
        timezone: Asia/Manila
      - 
        alternate_names: 
          - Natalungan
          - Natulongan
        ascii_name: Natalungan
        geonamesid: 1697942
        latitude: 7.53167
        longitude: 125.02361
        name: Natalungan
        names_en: ~
        names_es: ~
        population: 3165
        timezone: Asia/Manila
      - 
        alternate_names: 
          - Napaliran
          - Napalitan
        ascii_name: Napalitan
        geonamesid: 1698208
        latitude: 8.77528
        longitude: 124.80222
        name: Napalitan
        names_en: ~
        names_es: ~
        population: 2284
        timezone: Asia/Manila
      - 
        alternate_names: 
          - Naauan
          - Naawan
        ascii_name: Naawan
        geonamesid: 1699010
        latitude: 8.43444
        longitude: 124.28889
        name: Naawan
        names_en: ~
        names_es: ~
        population: 3643
        timezone: Asia/Manila
      - 
        alternate_names: 
          - Moog
        ascii_name: Moog
        geonamesid: 1699246
        latitude: 8.60111
        longitude: 124.46583
        name: Moog
        names_en: ~
        names_es: ~
        population: 5197
        timezone: Asia/Manila
      - 
        alternate_names: 
          - Malugan
          - Molugan
        ascii_name: Molugan
        geonamesid: 1699366
        latitude: 8.5375
        longitude: 124.56222
        name: Molugan
        names_en: ~
        names_es: ~
        population: 8043
        timezone: Asia/Manila
      - 
        alternate_names: 
          - Minlagas
          - "San Luis"
        ascii_name: Minlagas
        geonamesid: 1699559
        latitude: 8.87833
        longitude: 125.03889
        name: Minlagas
        names_en: ~
        names_es: ~
        population: 4235
        timezone: Asia/Manila
      - 
        alternate_names: ~
        ascii_name: Miaray
        geonamesid: 1699782
        latitude: 7.57472
        longitude: 125.04444
        name: Miaray
        names_en: ~
        names_es: ~
        population: 3190
        timezone: Asia/Manila
      - 
        alternate_names: 
          - Medina
        ascii_name: Medina
        geonamesid: 1699890
        latitude: 8.91222
        longitude: 125.02444
        name: Medina
        names_en: ~
        names_es: ~
        population: 9201
        timezone: Asia/Manila
      - 
        alternate_names: ~
        ascii_name: Mat-i
        geonamesid: 1700356
        latitude: 8.40194
        longitude: 124.34528
        name: Mat-i
        names_en: ~
        names_es: ~
        population: 3401
        timezone: Asia/Manila
      - 
        alternate_names: 
          - Matangad
        ascii_name: Matangad
        geonamesid: 1700433
        latitude: 8.57694
        longitude: 124.37
        name: Matangad
        names_en: ~
        names_es: ~
        population: 2825
        timezone: Asia/Manila
      - 
        alternate_names: 
          - Maramag
        ascii_name: Maramag
        geonamesid: 1701124
        latitude: 7.76333
        longitude: 125.00528
        name: Maramag
        names_en: ~
        names_es: ~
        population: 33844
        timezone: Asia/Manila
      - 
        alternate_names: 
          - Maputi
        ascii_name: Maputi
        geonamesid: 1701218
        latitude: 8.44972
        longitude: 124.29056
        name: Maputi
        names_en: ~
        names_es: ~
        population: 2304
        timezone: Asia/Manila
      - 
        alternate_names: 
          - Manticao
          - Mantikao
          - Mantikaw
          - Mantikow
        ascii_name: Manticao
        geonamesid: 1701441
        latitude: 8.40417
        longitude: 124.28667
        name: Manticao
        names_en: ~
        names_es: ~
        population: 7956
        timezone: Asia/Manila
      - 
        alternate_names: 
          - "Manolo Fortich"
        ascii_name: "Manolo Fortich"
        geonamesid: 1701537
        latitude: 8.36972
        longitude: 124.86444
        name: "Manolo Fortich"
        names_en: ~
        names_es: ~
        population: 27064
        timezone: Asia/Manila
      - 
        alternate_names: ~
        ascii_name: Mandangoa
        geonamesid: 1701962
        latitude: 8.77278
        longitude: 124.79111
        name: Mandangoa
        names_en: ~
        names_es: ~
        population: 2740
        timezone: Asia/Manila
      - 
        alternate_names: ~
        ascii_name: Mananum
        geonamesid: 1702101
        latitude: 8.83333
        longitude: 124.95
        name: Mananum
        names_en: ~
        names_es: ~
        population: 2185
        timezone: Asia/Manila
      - 
        alternate_names: 
          - Managok
        ascii_name: Managok
        geonamesid: 1702166
        latitude: 8.02889
        longitude: 125.18861
        name: Managok
        names_en: ~
        names_es: ~
        population: 6477
        timezone: Asia/Manila
      - 
        alternate_names: 
          - Mambay-an
          - Mambayaan
        ascii_name: Mambayaan
        geonamesid: 1702318
        latitude: 8.78278
        longitude: 124.78417
        name: Mambayaan
        names_en: ~
        names_es: ~
        population: 2781
        timezone: Asia/Manila
      - 
        alternate_names: ~
        ascii_name: Mambatangan
        geonamesid: 1702322
        latitude: 8.43333
        longitude: 124.83333
        name: Mambatangan
        names_en: ~
        names_es: ~
        population: 2922
        timezone: Asia/Manila
      - 
        alternate_names: 
          - Mamajao
          - Mambajao
        ascii_name: Mambajao
        geonamesid: 1702348
        latitude: 9.2504
        longitude: 124.7156
        name: Mambajao
        names_en: ~
        names_es: ~
        population: 10058
        timezone: Asia/Manila
      - 
        alternate_names: 
          - Maluko
        ascii_name: Maluko
        geonamesid: 1702457
        latitude: 8.375
        longitude: 124.95389
        name: Maluko
        names_en: ~
        names_es: ~
        population: 3278
        timezone: Asia/Manila
      - 
        alternate_names: 
          - Malitbog
        ascii_name: Malitbog
        geonamesid: 1702637
        latitude: 8.53389
        longitude: 124.88306
        name: Malitbog
        names_en: ~
        names_es: ~
        population: 3151
        timezone: Asia/Manila
      - 
        alternate_names: 
          - Malinao
          - Malinaw
        ascii_name: Malinaw
        geonamesid: 1702708
        latitude: 8.825
        longitude: 125.19306
        name: Malinaw
        names_en: ~
        names_es: ~
        population: 3196
        timezone: Asia/Manila
      - 
        alternate_names: ~
        ascii_name: Malaybalay
        geonamesid: 1702934
        latitude: 8.15
        longitude: 125.08333
        name: Malaybalay
        names_en: ~
        names_es: ~
        population: 61524
        timezone: Asia/Manila
      - 
        alternate_names: 
          - Mailag
          - Mailig
        ascii_name: Mailag
        geonamesid: 1703544
        latitude: 7.97028
        longitude: 125.1375
        name: Mailag
        names_en: ~
        names_es: ~
        population: 5388
        timezone: Asia/Manila
      - 
        alternate_names: 
          - Mahinog
          - Mallinog
        ascii_name: Mahinog
        geonamesid: 1703577
        latitude: 9.15778
        longitude: 124.7875
        name: Mahinog
        names_en: ~
        names_es: ~
        population: 2781
        timezone: Asia/Manila
      - 
        alternate_names: 
          - Lambagan
          - Maglamin
          - Miglamin
        ascii_name: Maglamin
        geonamesid: 1703855
        latitude: 8.05194
        longitude: 125.26167
        name: Maglamin
        names_en: ~
        names_es: ~
        population: 2633
        timezone: Asia/Manila
      - 
        alternate_names: ~
        ascii_name: Maanas
        geonamesid: 1704793
        latitude: 8.89389
        longitude: 125.03083
        name: Maanas
        names_en: ~
        names_es: ~
        population: 3477
        timezone: Asia/Manila
      - 
        alternate_names: ~
        ascii_name: Lurugan
        geonamesid: 1704960
        latitude: 8.01667
        longitude: 124.96667
        name: Lurugan
        names_en: ~
        names_es: ~
        population: 7336
        timezone: Asia/Manila
      - 
        alternate_names: 
          - Lapasa
          - Lapasan
          - Lapase
          - Lupasan
        ascii_name: Lapase
        geonamesid: 1704990
        latitude: 8.1924
        longitude: 123.8632
        name: Lapase
        names_en: 
          - Lapase
        names_es: ~
        population: 2573
        timezone: Asia/Manila
      - 
        alternate_names: ~
        ascii_name: Lunao
        geonamesid: 1705089
        latitude: 8.85028
        longitude: 125.05639
        name: Lunao
        names_en: ~
        names_es: ~
        population: 8995
        timezone: Asia/Manila
      - 
        alternate_names: ~
        ascii_name: Lumbayao
        geonamesid: 1705169
        latitude: 8.01667
        longitude: 125.16667
        name: Lumbayao
        names_en: ~
        names_es: ~
        population: 3693
        timezone: Asia/Manila
      - 
        alternate_names: 
          - Lugait
        ascii_name: Lugait
        geonamesid: 1705330
        latitude: 8.34111
        longitude: 124.25917
        name: Lugait
        names_en: ~
        names_es: ~
        population: 7370
        timezone: Asia/Manila
      - 
        alternate_names: 
          - Lourdes
        ascii_name: Lourdes
        geonamesid: 1705516
        latitude: 8.525
        longitude: 124.43222
        name: Lourdes
        names_en: ~
        names_es: ~
        population: 3198
        timezone: Asia/Manila
      - 
        alternate_names: 
          - "Lopez Jaena"
          - Manella
        ascii_name: "Lopez Jaena"
        geonamesid: 1705568
        latitude: 8.5528
        longitude: 123.7615
        name: "Lopez Jaena"
        names_en: 
          - "Lopez Jaena"
        names_es: ~
        population: 3575
        timezone: Asia/Manila
      - 
        alternate_names: 
          - Looc
          - Look
        ascii_name: Looc
        geonamesid: 1705609
        latitude: 8.84333
        longitude: 124.79167
        name: Looc
        names_en: ~
        names_es: ~
        population: 2292
        timezone: Asia/Manila
      - 
        alternate_names: ~
        ascii_name: "Little Baguio"
        geonamesid: 1705975
        latitude: 7.89389
        longitude: 125.27639
        name: "Little Baguio"
        names_en: ~
        names_es: ~
        population: 4926
        timezone: Asia/Manila
      - 
        alternate_names: 
          - Lingion
        ascii_name: Lingion
        geonamesid: 1706173
        latitude: 8.18806
        longitude: 124.60972
        name: Lingion
        names_en: ~
        names_es: ~
        population: 4321
        timezone: Asia/Manila
      - 
        alternate_names: 
          - Lingating
        ascii_name: Lingating
        geonamesid: 1706199
        latitude: 8.33167
        longitude: 124.62889
        name: Lingating
        names_en: ~
        names_es: ~
        population: 3774
        timezone: Asia/Manila
      - 
        alternate_names: 
          - Linabo
        ascii_name: Linabo
        geonamesid: 1706303
        latitude: 8.05417
        longitude: 125.155
        name: Linabo
        names_en: ~
        names_es: ~
        population: 5849
        timezone: Asia/Manila
      - 
        alternate_names: 
          - Liboran
          - Liburan
        ascii_name: Liboran
        geonamesid: 1706599
        latitude: 8.35472
        longitude: 124.64889
        name: Liboran
        names_en: ~
        names_es: ~
        population: 2772
        timezone: Asia/Manila
      - 
        alternate_names: 
          - Libona
        ascii_name: Libona
        geonamesid: 1706607
        latitude: 8.33889
        longitude: 124.73528
        name: Libona
        names_en: ~
        names_es: ~
        population: 5713
        timezone: Asia/Manila
      - 
        alternate_names: 
          - Libertad
        ascii_name: Libertad
        geonamesid: 1706685
        latitude: 8.56111
        longitude: 124.35139
        name: Libertad
        names_en: ~
        names_es: ~
        population: 4516
        timezone: Asia/Manila
      - 
        alternate_names: 
          - Libertad
        ascii_name: Libertad
        geonamesid: 1706687
        latitude: 8.2755
        longitude: 123.8382
        name: Libertad
        names_en: 
          - Libertad
        names_es: ~
        population: 2349
        timezone: Asia/Manila
      - 
        alternate_names: ~
        ascii_name: "La Roxas"
        geonamesid: 1707211
        latitude: 7.86417
        longitude: 124.88694
        name: "La Roxas"
        names_en: ~
        names_es: ~
        population: 2456
        timezone: Asia/Manila
      - 
        alternate_names: ~
        ascii_name: Lantapan
        geonamesid: 1707438
        latitude: 7.99778
        longitude: 125.02778
        name: Lantapan
        names_en: ~
        names_es: ~
        population: 5021
        timezone: Asia/Manila
      - 
        alternate_names: ~
        ascii_name: Langcangan
        geonamesid: 1707574
        latitude: 8.47944
        longitude: 123.75583
        name: Langcangan
        names_en: ~
        names_es: ~
        population: 8707
        timezone: Asia/Manila
      - 
        alternate_names: 
          - Laguitas
        ascii_name: Laguitas
        geonamesid: 1708038
        latitude: 8.08917
        longitude: 125.13056
        name: Laguitas
        names_en: ~
        names_es: ~
        population: 2181
        timezone: Asia/Manila
      - 
        alternate_names: 
          - Lagindingan
          - Laguindingan
        ascii_name: Lagindingan
        geonamesid: 1708051
        latitude: 8.57472
        longitude: 124.44222
        name: Lagindingan
        names_en: ~
        names_es: ~
        population: 3120
        timezone: Asia/Manila
      - 
        alternate_names: 
          - Lagonglong
          - Lagonlong
        ascii_name: Lagonglong
        geonamesid: 1708081
        latitude: 8.80722
        longitude: 124.79028
        name: Lagonglong
        names_en: ~
        names_es: ~
        population: 9043
        timezone: Asia/Manila
      - 
        alternate_names: 
          - "La Fortuna"
        ascii_name: "La Fortuna"
        geonamesid: 1708176
        latitude: 8.27972
        longitude: 125.00139
        name: "La Fortuna"
        names_en: ~
        names_es: ~
        population: 2496
        timezone: Asia/Manila
      - 
        alternate_names: 
          - Kitobo
          - Kitubo
        ascii_name: Kitobo
        geonamesid: 1708595
        latitude: 7.57444
        longitude: 125.105
        name: Kitobo
        names_en: ~
        names_es: ~
        population: 2205
        timezone: Asia/Manila
      - 
        alternate_names: 
          - Kitaotao
          - Kitawtaw
        ascii_name: Kitaotao
        geonamesid: 1708604
        latitude: 7.63972
        longitude: 125.00889
        name: Kitaotao
        names_en: ~
        names_es: ~
        population: 3893
        timezone: Asia/Manila
      - 
        alternate_names: 
          - Kisolon
        ascii_name: Kisolon
        geonamesid: 1708618
        latitude: 8.33
        longitude: 124.97694
        name: Kisolon
        names_en: ~
        names_es: ~
        population: 8105
        timezone: Asia/Manila
      - 
        alternate_names: ~
        ascii_name: Kimaya
        geonamesid: 1708757
        latitude: 8.56472
        longitude: 124.83972
        name: Kimaya
        names_en: ~
        names_es: ~
        population: 3944
        timezone: Asia/Manila
      - 
        alternate_names: 
          - Kimanait
          - Kimanuit
        ascii_name: Kimanuit
        geonamesid: 1708761
        latitude: 7.75778
        longitude: 124.73361
        name: Kimanuit
        names_en: ~
        names_es: ~
        population: 3590
        timezone: Asia/Manila
      - 
        alternate_names: 
          - Kibureao
          - Kibureau
        ascii_name: Kibureau
        geonamesid: 1708836
        latitude: 7.6975
        longitude: 125.2325
        name: Kibureau
        names_en: ~
        names_es: ~
        population: 4781
        timezone: Asia/Manila
      - 
        alternate_names: 
          - Kibongsod
          - Kibonsod
        ascii_name: Kibonsod
        geonamesid: 1708854
        latitude: 9.00694
        longitude: 125.20944
        name: Kibonsod
        names_en: ~
        names_es: ~
        population: 2755
        timezone: Asia/Manila
      - 
        alternate_names: 
          - Kibawe
        ascii_name: Kibawe
        geonamesid: 1708865
        latitude: 7.56861
        longitude: 124.98778
        name: Kibawe
        names_en: ~
        names_es: ~
        population: 5081
        timezone: Asia/Manila
      - 
        alternate_names: 
          - Kibangay
        ascii_name: Kibangay
        geonamesid: 1708872
        latitude: 8.04972
        longitude: 124.89306
        name: Kibangay
        names_en: ~
        names_es: ~
        population: 6539
        timezone: Asia/Manila
      - 
        alternate_names: ~
        ascii_name: Kauswagan
        geonamesid: 1709036
        latitude: 8.78972
        longitude: 124.77556
        name: Kauswagan
        names_en: ~
        names_es: ~
        population: 2268
        timezone: Asia/Manila
      - 
        alternate_names: 
          - Kalugmanan
        ascii_name: Kalugmanan
        geonamesid: 1709577
        latitude: 8.27778
        longitude: 124.85972
        name: Kalugmanan
        names_en: ~
        names_es: ~
        population: 2675
        timezone: Asia/Manila
      - 
        alternate_names: 
          - Kalilangan
        ascii_name: Kalilangan
        geonamesid: 1709627
        latitude: 7.82111
        longitude: 124.73139
        name: Kalilangan
        names_en: ~
        names_es: ~
        population: 14456
        timezone: Asia/Manila
      - 
        alternate_names: 
          - Kadangilan
          - Kadañgilan
          - Kadingelan
          - Kadingilan
        ascii_name: Kadingilan
        geonamesid: 1709828
        latitude: 7.60111
        longitude: 124.90861
        name: Kadingilan
        names_en: ~
        names_es: ~
        population: 7020
        timezone: Asia/Manila
      - 
        alternate_names: 
          - Cabulohan
          - Kabulohan
        ascii_name: Kabulohan
        geonamesid: 1709868
        latitude: 8.04333
        longitude: 125.27667
        name: Kabulohan
        names_en: ~
        names_es: ~
        population: 2637
        timezone: Asia/Manila
      - 
        alternate_names: 
          - Cabalantian
          - Kabalantian
        ascii_name: Kabalantian
        geonamesid: 1709990
        latitude: 8.37083
        longitude: 124.3275
        name: Kabalantian
        names_en: ~
        names_es: ~
        population: 3242
        timezone: Asia/Manila
      - 
        alternate_names: 
          - Jimenez
        ascii_name: Jimenez
        geonamesid: 1710181
        latitude: 8.3365
        longitude: 123.8383
        name: Jimenez
        names_en: 
          - Jimenez
        names_es: ~
        population: 6662
        timezone: Asia/Manila
      - 
        alternate_names: 
          - Hasaan
          - Jasaan
        ascii_name: Jasaan
        geonamesid: 1710258
        latitude: 8.65417
        longitude: 124.75556
        name: Jasaan
        names_en: ~
        names_es: ~
        population: 16435
        timezone: Asia/Manila
      - 
        alternate_names: 
          - Inobulan
          - Inubolan
        ascii_name: Inobulan
        geonamesid: 1710636
        latitude: 8.88639
        longitude: 124.79472
        name: Inobulan
        names_en: ~
        names_es: ~
        population: 2561
        timezone: Asia/Manila
      - 
        alternate_names: 
          - Inatao
          - Initao
        ascii_name: Initao
        geonamesid: 1710705
        latitude: 8.49972
        longitude: 124.30389
        name: Initao
        names_en: ~
        names_es: ~
        population: 9922
        timezone: Asia/Manila
      - 
        alternate_names: 
          - Indulang
        ascii_name: Indulang
        geonamesid: 1710753
        latitude: 8.09028
        longitude: 124.58444
        name: Indulang
        names_en: ~
        names_es: ~
        population: 3387
        timezone: Asia/Manila
      - 
        alternate_names: 
          - Impalutao
          - Impulatao
        ascii_name: Impalutao
        geonamesid: 1710936
        latitude: 8.25778
        longitude: 125.0275
        name: Impalutao
        names_en: ~
        names_es: ~
        population: 2431
        timezone: Asia/Manila
      - 
        alternate_names: 
          - Imbatug
        ascii_name: Imbatug
        geonamesid: 1710962
        latitude: 8.05444
        longitude: 125.28389
        name: Imbatug
        names_en: ~
        names_es: ~
        population: 2480
        timezone: Asia/Manila
      - 
        alternate_names: 
          - Igpit
        ascii_name: Igpit
        geonamesid: 1711201
        latitude: 8.51083
        longitude: 124.58667
        name: Igpit
        names_en: ~
        names_es: ~
        population: 5753
        timezone: Asia/Manila
      - 
        alternate_names: 
          - Hinapalanan
          - Hinaplanan
        ascii_name: Hinapalanan
        geonamesid: 1711663
        latitude: 8.64028
        longitude: 124.87306
        name: Hinapalanan
        names_en: ~
        names_es: ~
        population: 2695
        timezone: Asia/Manila
      - 
        alternate_names: 
          - Gimampang
          - Gimangpang
          - Gumampang
          - Himangpang
        ascii_name: Gimampang
        geonamesid: 1711713
        latitude: 8.47139
        longitude: 124.29667
        name: Gimampang
        names_en: ~
        names_es: ~
        population: 2472
        timezone: Asia/Manila
      - 
        alternate_names: ~
        ascii_name: Halapitan
        geonamesid: 1711958
        latitude: 7.9175
        longitude: 125.33
        name: Halapitan
        names_en: ~
        names_es: ~
        population: 10870
        timezone: Asia/Manila
      - 
        alternate_names: 
          - Ginsiliban
          - Guinciliban
          - Guinisiliban
          - Guinsilban
        ascii_name: Guinisiliban
        geonamesid: 1712297
        latitude: 9.09639
        longitude: 124.78278
        name: Guinisiliban
        names_en: ~
        names_es: ~
        population: 2074
        timezone: Asia/Manila
      - 
        alternate_names: 
          - Gitagum
          - Gitagun
          - Hitagum
        ascii_name: Gitagum
        geonamesid: 1712832
        latitude: 8.59667
        longitude: 124.40639
        name: Gitagum
        names_en: ~
        names_es: ~
        population: 3126
        timezone: Asia/Manila
      - 
        alternate_names: 
          - "El Salvador"
        ascii_name: "El Salvador"
        geonamesid: 1713911
        latitude: 8.56306
        longitude: 124.5225
        name: "El Salvador"
        names_en: ~
        names_es: ~
        population: 6904
        timezone: Asia/Manila
      - 
        alternate_names: 
          - Dumalaguing
        ascii_name: Dumalaguing
        geonamesid: 1714186
        latitude: 8.34694
        longitude: 125.055
        name: Dumalaguing
        names_en: ~
        names_es: ~
        population: 2417
        timezone: Asia/Manila
      - 
        alternate_names: 
          - "Don Carlos"
        ascii_name: "Don Carlos"
        geonamesid: 1714441
        latitude: 7.68
        longitude: 125.005
        name: "Don Carlos"
        names_en: ~
        names_es: ~
        population: 20468
        timezone: Asia/Manila
      - 
        alternate_names: 
          - Dologon
          - Dulogan
          - Dulugon
        ascii_name: Dologon
        geonamesid: 1714519
        latitude: 7.84083
        longitude: 125.04444
        name: Dologon
        names_en: ~
        names_es: ~
        population: 15128
        timezone: Asia/Manila
      - 
        alternate_names: 
          - Dancagan
          - Dangcagan
        ascii_name: Dancagan
        geonamesid: 1715722
        latitude: 7.60917
        longitude: 125.00417
        name: Dancagan
        names_en: ~
        names_es: ~
        population: 4864
        timezone: Asia/Manila
      - 
        alternate_names: 
          - Damolo
          - Damulog
          - Dumulug
          - "New Damulog"
        ascii_name: Damulog
        geonamesid: 1715834
        latitude: 7.48361
        longitude: 124.94306
        name: Damulog
        names_en: ~
        names_es: ~
        population: 8789
        timezone: Asia/Manila
      - 
        alternate_names: 
          - Damilag
          - Damilog
        ascii_name: Damilag
        geonamesid: 1715880
        latitude: 8.35472
        longitude: 124.81222
        name: Damilag
        names_en: ~
        names_es: ~
        population: 11000
        timezone: Asia/Manila
      - 
        alternate_names: 
          - Dalawangan
          - Dalwangan
          - Delauangon
        ascii_name: Dalwangan
        geonamesid: 1715912
        latitude: 8.20056
        longitude: 125.04056
        name: Dalwangan
        names_en: ~
        names_es: ~
        population: 4906
        timezone: Asia/Manila
      - 
        alternate_names: ~
        ascii_name: Dalorong
        geonamesid: 1715940
        latitude: 7.58583
        longitude: 125.13278
        name: Dalorong
        names_en: ~
        names_es: ~
        population: 2641
        timezone: Asia/Manila
      - 
        alternate_names: 
          - Dalirig
          - Dirilig
        ascii_name: Dalirig
        geonamesid: 1715958
        latitude: 8.37722
        longitude: 124.90139
        name: Dalirig
        names_en: ~
        names_es: ~
        population: 3660
        timezone: Asia/Manila
      - 
        alternate_names: 
          - Dagombaan
          - Dagumba-an
        ascii_name: Dagumba-an
        geonamesid: 1716230
        latitude: 8.15306
        longitude: 124.59083
        name: Dagumba-an
        names_en: ~
        names_es: ~
        population: 6635
        timezone: Asia/Manila
      - 
        alternate_names: 
          - Cosina
          - "New Cosina"
        ascii_name: Cosina
        geonamesid: 1716780
        latitude: 8.10611
        longitude: 124.61972
        name: Cosina
        names_en: ~
        names_es: ~
        population: 3117
        timezone: Asia/Manila
      - 
        alternate_names: ~
        ascii_name: Consuelo
        geonamesid: 1716913
        latitude: 8.90167
        longitude: 125.1875
        name: Consuelo
        names_en: ~
        names_es: ~
        population: 3128
        timezone: Asia/Manila
      - 
        alternate_names: ~
        ascii_name: Claveria
        geonamesid: 1717351
        latitude: 8.61
        longitude: 124.89472
        name: Claveria
        names_en: ~
        names_es: ~
        population: 7784
        timezone: Asia/Manila
      - 
        alternate_names: 
          - Clarin
          - Loculan
        ascii_name: Clarin
        geonamesid: 1717364
        latitude: 8.2023
        longitude: 123.8582
        name: Clarin
        names_en: 
          - Clarin
        names_es: ~
        population: 7125
        timezone: Asia/Manila
      - 
        alternate_names: 
          - Catarman
        ascii_name: Catarman
        geonamesid: 1717931
        latitude: 9.12556
        longitude: 124.67556
        name: Catarman
        names_en: ~
        names_es: ~
        population: 2521
        timezone: Asia/Manila
      - 
        alternate_names: 
          - Casisang
        ascii_name: Casisang
        geonamesid: 1718103
        latitude: 8.13806
        longitude: 125.125
        name: Casisang
        names_en: ~
        names_es: ~
        population: 13722
        timezone: Asia/Manila
      - 
        alternate_names: ~
        ascii_name: Candiis
        geonamesid: 1719267
        latitude: 8.97028
        longitude: 125.18417
        name: Candiis
        names_en: ~
        names_es: ~
        population: 2323
        timezone: Asia/Manila
      - 
        alternate_names: 
          - Canayan
        ascii_name: Canayan
        geonamesid: 1719386
        latitude: 8.19556
        longitude: 125.14472
        name: Canayan
        names_en: ~
        names_es: ~
        population: 4639
        timezone: Asia/Manila
      - 
        alternate_names: 
          - Calamba
        ascii_name: Calamba
        geonamesid: 1720684
        latitude: 8.5587
        longitude: 123.6425
        name: Calamba
        names_en: 
          - Calamba
        names_es: ~
        population: 6738
        timezone: Asia/Manila
      - 
        alternate_names: 
          - Calabugao
          - Kalabugao
        ascii_name: Calabugao
        geonamesid: 1720758
        latitude: 8.45639
        longitude: 125.15889
        name: Calabugao
        names_en: ~
        names_es: ~
        population: 5982
        timezone: Asia/Manila
      - 
        alternate_names: 
          - Cabanglasan
        ascii_name: Cabanglasan
        geonamesid: 1721860
        latitude: 8.12139
        longitude: 125.3275
        name: Cabanglasan
        names_en: ~
        names_es: ~
        population: 5423
        timezone: Asia/Manila
      - 
        alternate_names: 
          - Cabangahan
        ascii_name: Cabangahan
        geonamesid: 1721887
        latitude: 8.02278
        longitude: 125.1375
        name: Cabangahan
        names_en: ~
        names_es: ~
        population: 2709
        timezone: Asia/Manila
      - 
        alternate_names: 
          - Busde
          - Busdi
        ascii_name: Busdi
        geonamesid: 1722307
        latitude: 8.27611
        longitude: 125.25139
        name: Busdi
        names_en: ~
        names_es: ~
        population: 2168
        timezone: Asia/Manila
      - 
        alternate_names: 
          - Bugcaon
        ascii_name: Bugcaon
        geonamesid: 1723294
        latitude: 8.04583
        longitude: 125.11278
        name: Bugcaon
        names_en: ~
        names_es: ~
        population: 4218
        timezone: Asia/Manila
      - 
        alternate_names: 
          - "Bolo Bolo"
        ascii_name: "Bolo Bolo"
        geonamesid: 1724272
        latitude: 8.55833
        longitude: 124.53
        name: "Bolo Bolo"
        names_en: ~
        names_es: ~
        population: 2976
        timezone: Asia/Manila
      - 
        alternate_names: ~
        ascii_name: Binuangan
        geonamesid: 1724872
        latitude: 8.91528
        longitude: 124.78833
        name: Binuangan
        names_en: ~
        names_es: ~
        population: 5754
        timezone: Asia/Manila
      - 
        alternate_names: ~
        ascii_name: Binitinan
        geonamesid: 1724964
        latitude: 8.71
        longitude: 124.77556
        name: Binitinan
        names_en: ~
        names_es: ~
        population: 3101
        timezone: Asia/Manila
      - 
        alternate_names: 
          - Biga
        ascii_name: Biga
        geonamesid: 1725411
        latitude: 8.35778
        longitude: 124.25972
        name: Biga
        names_en: ~
        names_es: ~
        population: 2830
        timezone: Asia/Manila
      - 
        alternate_names: 
          - Bato
        ascii_name: Bato
        geonamesid: 1726182
        latitude: 8.6027
        longitude: 123.6449
        name: Bato
        names_en: 
          - Bato
        names_es: ~
        population: 2789
        timezone: Asia/Manila
      - 
        alternate_names: 
          - Basak
        ascii_name: Basak
        geonamesid: 1726493
        latitude: 8.04111
        longitude: 124.86278
        name: Basak
        names_en: ~
        names_es: ~
        population: 2457
        timezone: Asia/Manila
      - 
        alternate_names: 
          - Barra
        ascii_name: Barra
        geonamesid: 1726584
        latitude: 8.51028
        longitude: 124.60444
        name: Barra
        names_en: ~
        names_es: ~
        population: 12442
        timezone: Asia/Manila
      - 
        alternate_names: 
          - Bantoanon
          - Bantuanon
        ascii_name: Bantuanon
        geonamesid: 1726957
        latitude: 8.01528
        longitude: 125.07083
        name: Bantuanon
        names_en: ~
        names_es: ~
        population: 4673
        timezone: Asia/Manila
      - 
        alternate_names: ~
        ascii_name: Bangahan
        geonamesid: 1727358
        latitude: 7.80444
        longitude: 124.72889
        name: Bangahan
        names_en: ~
        names_es: ~
        population: 2728
        timezone: Asia/Manila
      - 
        alternate_names: 
          - Baliuagan
          - Baliwagan
        ascii_name: Baliwagan
        geonamesid: 1727982
        latitude: 8.71861
        longitude: 124.79056
        name: Baliwagan
        names_en: ~
        names_es: ~
        population: 2838
        timezone: Asia/Manila
      - 
        alternate_names: 
          - Balingasag
        ascii_name: Balingasag
        geonamesid: 1728098
        latitude: 8.74417
        longitude: 124.77694
        name: Balingasag
        names_en: ~
        names_es: ~
        population: 9722
        timezone: Asia/Manila
      - 
        alternate_names: 
          - Balila
        ascii_name: Balila
        geonamesid: 1728145
        latitude: 8.00278
        longitude: 125.01306
        name: Balila
        names_en: ~
        names_es: ~
        population: 2511
        timezone: Asia/Manila
      - 
        alternate_names: ~
        ascii_name: Baikingon
        geonamesid: 1728793
        latitude: 8.47222
        longitude: 124.55361
        name: Baikingon
        names_en: ~
        names_es: ~
        population: 2164
        timezone: Asia/Manila
      - 
        alternate_names: 
          - Aumbay
        ascii_name: Aumbay
        geonamesid: 1729941
        latitude: 7.1026
        longitude: 125.7837
        name: Aumbay
        names_en: ~
        names_es: ~
        population: 3397
        timezone: Asia/Manila
      - 
        alternate_names: ~
        ascii_name: Aplaya
        geonamesid: 1730347
        latitude: 8.60861
        longitude: 124.76806
        name: Aplaya
        names_en: ~
        names_es: ~
        population: 3730
        timezone: Asia/Manila
      - 
        alternate_names: 
          - Ani-e
          - Anii
        ascii_name: Ani-e
        geonamesid: 1730669
        latitude: 8.61361
        longitude: 124.87056
        name: Ani-e
        names_en: ~
        names_es: ~
        population: 3324
        timezone: Asia/Manila
      - 
        alternate_names: ~
        ascii_name: Anakan
        geonamesid: 1730898
        latitude: 8.84778
        longitude: 125.15139
        name: Anakan
        names_en: ~
        names_es: ~
        population: 3825
        timezone: Asia/Manila
      - 
        alternate_names: 
          - Alubihid
          - Alubijid
        ascii_name: Alubijid
        geonamesid: 1731254
        latitude: 8.57333
        longitude: 124.47361
        name: Alubijid
        names_en: ~
        names_es: ~
        population: 3320
        timezone: Asia/Manila
      - 
        alternate_names: 
          - Alanib
        ascii_name: Alanib
        geonamesid: 1731661
        latitude: 8.02778
        longitude: 124.98611
        name: Alanib
        names_en: ~
        names_es: ~
        population: 4207
        timezone: Asia/Manila
      - 
        alternate_names: 
          - Alae
          - Alai
        ascii_name: Alae
        geonamesid: 1731726
        latitude: 8.42444
        longitude: 124.81278
        name: Alae
        names_en: ~
        names_es: ~
        population: 5121
        timezone: Asia/Manila
      - 
        alternate_names: 
          - Aglayan
        ascii_name: Aglayan
        geonamesid: 1732050
        latitude: 8.055
        longitude: 125.13417
        name: Aglayan
        names_en: ~
        names_es: ~
        population: 5761
        timezone: Asia/Manila
      - 
        alternate_names: 
          - Adtoyon
          - Adtugan
          - Adtuyon
        ascii_name: Adtugan
        geonamesid: 1732223
        latitude: 7.81194
        longitude: 124.85444
        name: Adtugan
        names_en: ~
        names_es: ~
        population: 3380
        timezone: Asia/Manila
      - 
        alternate_names: ~
        ascii_name: Bonbon
        geonamesid: 1959388
        latitude: 9.10528
        longitude: 124.73389
        name: Bonbon
        names_en: ~
        names_es: ~
        population: 2215
        timezone: Asia/Manila
    geonamesid: 7521295
    name: "Northern Mindanao"
    names_en: ~
    names_es: ~
  - 
    ascii_name: Mimaropa
    cities: 
      - 
        alternate_names: 
          - Yooc
          - Yook
        ascii_name: Yook
        geonamesid: 1679464
        latitude: 13.227
        longitude: 121.9648
        name: Yook
        names_en: ~
        names_es: ~
        population: 2820
        timezone: Asia/Manila
      - 
        alternate_names: 
          - Wawa
        ascii_name: Wawa
        geonamesid: 1679649
        latitude: 13.4632
        longitude: 120.7441
        name: Wawa
        names_en: 
          - Wawa
        names_es: ~
        population: 4881
        timezone: Asia/Manila
      - 
        alternate_names: 
          - Vigo
        ascii_name: Vigo
        geonamesid: 1679964
        latitude: 13.82666
        longitude: 120.17922
        name: Vigo
        names_en: ~
        names_es: ~
        population: 2482
        timezone: Asia/Manila
      - 
