--- 
geonamesid: 2264397
iso: PT
name: Portugal
names_en: 
  - Portugal
  - "Portuguese Republic"
names_es: 
  - Portugal
regions: 
  - 
    ascii_name: "Distrito de Setubal"
    cities: 
      - 
        alternate_names: ~
        ascii_name: Trafaria
        geonamesid: 2262544
        latitude: 38.67222
        longitude: -9.23268
        name: Trafaria
        names_en: ~
        names_es: ~
        population: 5603
        timezone: Europe/Lisbon
      - 
        alternate_names: ~
        ascii_name: Sobreda
        geonamesid: 2262865
        latitude: 38.64961
        longitude: -9.18977
        name: Sobreda
        names_en: ~
        names_es: ~
        population: 11146
        timezone: Europe/Lisbon
      - 
        alternate_names: 
          - Sines
        ascii_name: Sines
        geonamesid: 2262917
        latitude: 37.95
        longitude: -8.86667
        name: Sines
        names_en: ~
        names_es: ~
        population: 12791
        timezone: Europe/Lisbon
      - 
        alternate_names: 
          - Sesimbra
          - Sezimbra
          - Sisimbra
          - Сесимбра
        ascii_name: Sesimbra
        geonamesid: 2262957
        latitude: 38.44451
        longitude: -9.10149
        name: Sesimbra
        names_en: ~
        names_es: ~
        population: 41134
        timezone: Europe/Lisbon
      - 
        alternate_names: 
          - Setoumpal
          - Setubal
          - Setúbal
          - "sai tu ba er"
        ascii_name: Setubal
        geonamesid: 2262963
        latitude: 38.5244
        longitude: -8.8882
        name: Setúbal
        names_en: 
          - Setúbal
        names_es: 
          - Setúbal
        population: 117110
        timezone: Europe/Lisbon
      - 
        alternate_names: ~
        ascii_name: "Santo Antonio da Charneca"
        geonamesid: 2263426
        latitude: 38.62561
        longitude: -9.03043
        name: "Santo António da Charneca"
        names_en: ~
        names_es: ~
        population: 11143
        timezone: Europe/Lisbon
      - 
        alternate_names: ~
        ascii_name: "Santo Andre"
        geonamesid: 2263439
        latitude: 38.05
        longitude: -8.75
        name: "Santo André"
        names_en: ~
        names_es: ~
        population: 10601
        timezone: Europe/Lisbon
      - 
        alternate_names: 
          - "Santiago do Cacem"
          - "Santiago do Cacém"
          - "Sao Tiago de Cacem"
          - "Sao Tiago do Cacem"
        ascii_name: "Santiago do Cacem"
        geonamesid: 2263458
        latitude: 38.01667
        longitude: -8.7
        name: "Santiago do Cacém"
        names_en: ~
        names_es: ~
        population: 7797
        timezone: Europe/Lisbon
      - 
        alternate_names: 
          - "Quinta da Anjo"
          - "Quinta do Anjo"
        ascii_name: "Quinta do Anjo"
        geonamesid: 2264169
        latitude: 38.56753
        longitude: -8.94228
        name: "Quinta do Anjo"
        names_en: ~
        names_es: ~
        population: 9124
        timezone: Europe/Lisbon
      - 
        alternate_names: ~
        ascii_name: Pragal
        geonamesid: 2264341
        latitude: 38.67459
        longitude: -9.16981
        name: Pragal
        names_en: ~
        names_es: ~
        population: 7701
        timezone: Europe/Lisbon
      - 
        alternate_names: 
          - Portu-Kovu
          - Порту-Кову
        ascii_name: "Porto Covo"
        geonamesid: 2264442
        latitude: 37.85256
        longitude: -8.79018
        name: "Porto Covo"
        names_en: ~
        names_es: ~
        population: 1400
        timezone: Europe/Lisbon
      - 
        alternate_names: 
          - "Pinhal Novo"
        ascii_name: "Pinhal Novo"
        geonamesid: 2264718
        latitude: 38.63106
        longitude: -8.91376
        name: "Pinhal Novo"
        names_en: ~
        names_es: ~
        population: 23510
        timezone: Europe/Lisbon
      - 
        alternate_names: 
          - "Cova da Piedade"
          - Piedade
        ascii_name: Piedade
        geonamesid: 2264736
        latitude: 38.66667
        longitude: -9.15
        name: Piedade
        names_en: ~
        names_es: ~
        population: 19472
        timezone: Europe/Lisbon
      - 
        alternate_names: 
          - Palmela
        ascii_name: Palmela
        geonamesid: 2265223
        latitude: 38.56902
        longitude: -8.90126
        name: Palmela
        names_en: 
          - Palmela
        names_es: 
          - Palmela
        population: 16934
        timezone: Europe/Lisbon
      - 
        alternate_names: 
          - Montijo
          - Montikho
          - Монтихо
        ascii_name: Montijo
        geonamesid: 2265788
        latitude: 38.70675
        longitude: -8.97388
        name: Montijo
        names_en: ~
        names_es: ~
        population: 30011
        timezone: Europe/Lisbon
      - 
        alternate_names: ~
        ascii_name: Moita
        geonamesid: 2266319
        latitude: 38.65078
        longitude: -8.99038
        name: Moita
        names_en: ~
        names_es: ~
        population: 17795
        timezone: Europe/Lisbon
      - 
        alternate_names: 
          - Grandola
          - Grândola
        ascii_name: Grandola
        geonamesid: 2267538
        latitude: 38.17718
        longitude: -8.56675
        name: Grândola
        names_en: ~
        names_es: ~
        population: 10737
        timezone: Europe/Lisbon
      - 
        alternate_names: ~
        ascii_name: "Costa de Caparica"
        geonamesid: 2268916
        latitude: 38.64458
        longitude: -9.23556
        name: "Costa de Caparica"
        names_en: ~
        names_es: ~
        population: 14231
        timezone: Europe/Lisbon
      - 
        alternate_names: ~
        ascii_name: Corroios
        geonamesid: 2269041
        latitude: 38.64502
        longitude: -9.14843
        name: Corroios
        names_en: ~
        names_es: ~
        population: 52520
        timezone: Europe/Lisbon
      - 
        alternate_names: 
          - Charneca
          - "Charneca de Caparica"
          - Sharneka
          - Шарнека
        ascii_name: Charneca
        geonamesid: 2269282
        latitude: 38.62059
        longitude: -9.19149
        name: Charneca
        names_en: ~
        names_es: ~
        population: 23714
        timezone: Europe/Lisbon
      - 
        alternate_names: 
          - Cercal
          - "Cercal do Alentejo"
        ascii_name: Cercal
        geonamesid: 2269413
        latitude: 37.8
        longitude: -8.66667
        name: Cercal
        names_en: ~
        names_es: ~
        population: 3772
        timezone: Europe/Lisbon
      - 
        alternate_names: ~
        ascii_name: Caparica
        geonamesid: 2270229
        latitude: 38.66667
        longitude: -9.2
        name: Caparica
        names_en: ~
        names_es: ~
        population: 21167
        timezone: Europe/Lisbon
      - 
        alternate_names: ~
        ascii_name: Cacilhas
        geonamesid: 2270486
        latitude: 38.68773
        longitude: -9.14663
        name: Cacilhas
        names_en: ~
        names_es: ~
        population: 6494
        timezone: Europe/Lisbon
      - 
        alternate_names: 
          - Barreiro
          - Barrejru
          - "ba lei lu"
          - Баррейру
        ascii_name: Barreiro
        geonamesid: 2271071
        latitude: 38.66314
        longitude: -9.0724
        name: Barreiro
        names_en: 
          - Barreiro
        names_es: 
          - Barreiro
        population: 51280
        timezone: Europe/Lisbon
      - 
        alternate_names: 
          - Arrentela
          - Arrentella
          - Аррентела
        ascii_name: Arrentela
        geonamesid: 2271473
        latitude: 38.61667
        longitude: -9.1
        name: Arrentela
        names_en: ~
        names_es: ~
        population: 30156
        timezone: Europe/Lisbon
      - 
        alternate_names: ~
        ascii_name: Amora
        geonamesid: 2271680
        latitude: 38.62961
        longitude: -9.11557
        name: Amora
        names_en: ~
        names_es: ~
        population: 52577
        timezone: Europe/Lisbon
      - 
        alternate_names: 
          - Almada
          - Almanta
          - Αλμάντα
          - Алмада
        ascii_name: Almada
        geonamesid: 2271961
        latitude: 38.67902
        longitude: -9.1569
        name: Almada
        names_en: 
          - Almada
        names_es: 
          - Almada
        population: 34008
        timezone: Europe/Lisbon
      - 
        alternate_names: ~
        ascii_name: "Alhos Vedros"
        geonamesid: 2271970
        latitude: 38.65486
        longitude: -9.02368
        name: "Alhos Vedros"
        names_en: ~
        names_es: ~
        population: 13384
        timezone: Europe/Lisbon
      - 
        alternate_names: 
          - "Aldea de Paio Pires"
          - "Aldeia de Paio Pires"
          - "Paio Pires"
        ascii_name: "Aldeia de Paio Pires"
        geonamesid: 2272091
        latitude: 38.61667
        longitude: -9.08333
        name: "Aldeia de Paio Pires"
        names_en: ~
        names_es: ~
        population: 12179
        timezone: Europe/Lisbon
      - 
        alternate_names: 
          - Alcochete
        ascii_name: Alcochete
        geonamesid: 2272144
        latitude: 38.75534
        longitude: -8.96086
        name: Alcochete
        names_en: ~
        names_es: ~
        population: 9705
        timezone: Europe/Lisbon
      - 
        alternate_names: 
          - "Alcacer da Sal"
          - "Alcacer do Sal"
          - "Alcácer da Sal"
          - "Alcácer do Sal"
        ascii_name: "Alcacer do Sal"
        geonamesid: 2272212
        latitude: 38.37326
        longitude: -8.51444
        name: "Alcácer do Sal"
        names_en: ~
        names_es: ~
        population: 9198
        timezone: Europe/Lisbon
    geonamesid: 2262961
    name: Setúbal
    names_en: ~
    names_es: 
      - Setúbal
  - 
    ascii_name: "Distrito de Santarem"
    cities: 
      - 
        alternate_names: 
          - Tramagal
        ascii_name: Tramagal
        geonamesid: 2262540
        latitude: 39.45
        longitude: -8.25
        name: Tramagal
        names_en: ~
        names_es: ~
        population: 3821
        timezone: Europe/Lisbon
      - 
        alternate_names: 
          - "Torres Novas"
        ascii_name: "Torres Novas"
        geonamesid: 2262582
        latitude: 39.48333
        longitude: -8.53333
        name: "Torres Novas"
        names_en: ~
        names_es: ~
        population: 14526
        timezone: Europe/Lisbon
      - 
        alternate_names: 
          - Tomar
          - Томар
        ascii_name: Tomar
        geonamesid: 2262644
        latitude: 39.6
        longitude: -8.41667
        name: Tomar
        names_en: ~
        names_es: ~
        population: 19168
        timezone: Europe/Lisbon
      - 
        alternate_names: 
          - Santarem
          - Santaren
          - Santarém
          - Scalabis
        ascii_name: Santarem
        geonamesid: 2263480
        latitude: 39.23333
        longitude: -8.68333
        name: Santarém
        names_en: 
          - Santarém
        names_es: 
          - Santarém
        population: 29385
        timezone: Europe/Lisbon
      - 
        alternate_names: ~
        ascii_name: "Samora Correia"
        geonamesid: 2263586
        latitude: 38.93709
        longitude: -8.87178
        name: "Samora Correia"
        names_en: ~
        names_es: ~
        population: 14154
        timezone: Europe/Lisbon
      - 
        alternate_names: ~
        ascii_name: "Salvaterra de Magos"
        geonamesid: 2263596
        latitude: 39.02788
        longitude: -8.7935
        name: "Salvaterra de Magos"
        names_en: ~
        names_es: ~
        population: 5165
        timezone: Europe/Lisbon
      - 
        alternate_names: 
          - "Rio Maior"
        ascii_name: "Rio Maior"
        geonamesid: 2263823
        latitude: 39.33732
        longitude: -8.93906
        name: "Rio Maior"
        names_en: ~
        names_es: ~
        population: 12064
        timezone: Europe/Lisbon
      - 
        alternate_names: ~
        ascii_name: Riachos
        geonamesid: 2263923
        latitude: 39.43333
        longitude: -8.51667
        name: Riachos
        names_en: ~
        names_es: ~
        population: 5463
        timezone: Europe/Lisbon
      - 
        alternate_names: ~
        ascii_name: Pontevel
        geonamesid: 2264527
        latitude: 39.14945
        longitude: -8.8388
        name: Pontével
        names_en: ~
        names_es: ~
        population: 4435
        timezone: Europe/Lisbon
      - 
        alternate_names: ~
        ascii_name: Poceirao
        geonamesid: 2264644
        latitude: 38.83095
        longitude: -8.79365
        name: Poceirão
        names_en: ~
        names_es: ~
        population: 4225
        timezone: Europe/Lisbon
      - 
        alternate_names: 
          - Ourem
          - Ourém
        ascii_name: Ourem
        geonamesid: 2265388
        latitude: 39.63333
        longitude: -8.58333
        name: Ourém
        names_en: ~
        names_es: ~
        population: 12729
        timezone: Europe/Lisbon
      - 
        alternate_names: 
          - Monsanto
          - Монсанто
        ascii_name: Monsanto
        geonamesid: 2266249
        latitude: 39.46667
        longitude: -8.71667
        name: Monsanto
        names_en: 
          - Monsanto
        names_es: ~
        population: 50000
        timezone: Europe/Lisbon
      - 
        alternate_names: 
          - Marinhais
        ascii_name: Marinhais
        geonamesid: 2266702
        latitude: 39.0473
        longitude: -8.70236
        name: Marinhais
        names_en: ~
        names_es: ~
        population: 5788
        timezone: Europe/Lisbon
      - 
        alternate_names: 
          - Golega
          - Golegã
        ascii_name: Golega
        geonamesid: 2267624
        latitude: 39.40474
        longitude: -8.48625
        name: Golegã
        names_en: ~
        names_es: ~
        population: 3830
        timezone: Europe/Lisbon
      - 
        alternate_names: ~
        ascii_name: "Fazendas de Almeirim"
        geonamesid: 2268313
        latitude: 39.17553
        longitude: -8.56927
        name: "Fazendas de Almeirim"
        names_en: ~
        names_es: ~
        population: 6635
        timezone: Europe/Lisbon
      - 
        alternate_names: 
          - Fatima
          - Fátima
          - Phatima
          - fatima
        ascii_name: Fatima
        geonamesid: 2268326
        latitude: 39.61667
        longitude: -8.65
        name: Fátima
        names_en: 
          - Fátima
        names_es: ~
        population: 11798
        timezone: Europe/Lisbon
      - 
        alternate_names: 
          - Entrocamento
          - Entroncamento
        ascii_name: Entroncamento
        geonamesid: 2268575
        latitude: 39.46667
        longitude: -8.46667
        name: Entroncamento
        names_en: ~
        names_es: ~
        population: 19887
        timezone: Europe/Lisbon
      - 
        alternate_names: 
          - Coruche
        ascii_name: Coruche
        geonamesid: 2268946
        latitude: 38.95955
        longitude: -8.52524
        name: Coruche
        names_en: ~
        names_es: ~
        population: 8776
        timezone: Europe/Lisbon
      - 
        alternate_names: ~
        ascii_name: Cartaxo
        geonamesid: 2270023
        latitude: 39.16022
        longitude: -8.78741
        name: Cartaxo
        names_en: ~
        names_es: ~
        population: 10502
        timezone: Europe/Lisbon
      - 
        alternate_names: ~
        ascii_name: Benavente
        geonamesid: 2270940
        latitude: 38.97919
        longitude: -8.80759
        name: Benavente
        names_en: ~
        names_es: ~
        population: 8932
        timezone: Europe/Lisbon
      - 
        alternate_names: 
          - Alpiarca
          - Alpiarça
        ascii_name: Alpiarca
        geonamesid: 2271878
        latitude: 39.25712
        longitude: -8.58187
        name: Alpiarça
        names_en: ~
        names_es: ~
        population: 7946
        timezone: Europe/Lisbon
      - 
        alternate_names: 
          - Almeirim
        ascii_name: Almeirim
        geonamesid: 2271926
        latitude: 39.20903
        longitude: -8.61643
        name: Almeirim
        names_en: ~
        names_es: ~
        population: 11557
        timezone: Europe/Lisbon
      - 
        alternate_names: 
          - Alferrarede
        ascii_name: Alferrarede
        geonamesid: 2272010
        latitude: 39.48333
        longitude: -8.16667
        name: Alferrarede
        names_en: ~
        names_es: ~
        population: 3654
        timezone: Europe/Lisbon
      - 
        alternate_names: 
          - Alcanena
        ascii_name: Alcanena
        geonamesid: 2272189
        latitude: 39.45
        longitude: -8.66667
        name: Alcanena
        names_en: ~
        names_es: ~
        population: 4408
        timezone: Europe/Lisbon
      - 
        alternate_names: ~
        ascii_name: Alcanede
        geonamesid: 2272190
        latitude: 39.41667
        longitude: -8.81667
        name: Alcanede
        names_en: ~
        names_es: ~
        population: 5020
        timezone: Europe/Lisbon
      - 
        alternate_names: 
          - Abrantes
        ascii_name: Abrantes
        geonamesid: 2272447
        latitude: 39.46667
        longitude: -8.2
        name: Abrantes
        names_en: 
          - Abrantes
        names_es: 
          - Abrantes
        population: 13646
        timezone: Europe/Lisbon
    geonamesid: 2263478
    name: Santarém
    names_en: ~
    names_es: 
      - Santarém
  - 
    ascii_name: "Distrito de Portalegre"
    cities: 
      - 
        alternate_names: ~
        ascii_name: "Vale da Amoreira"
        geonamesid: 2262373
        latitude: 39.06969
        longitude: -7.69849
        name: "Vale da Amoreira"
        names_en: ~
        names_es: ~
        population: 10828
        timezone: Europe/Lisbon
      - 
        alternate_names: ~
        ascii_name: "Santo Andre"
        geonamesid: 2263438
        latitude: 39.05532
        longitude: -8.24414
        name: "Santo André"
        names_en: ~
        names_es: ~
        population: 11213
        timezone: Europe/Lisbon
      - 
        alternate_names: 
          - Portalegre
          - Порталегре
        ascii_name: Portalegre
        geonamesid: 2264508
        latitude: 39.29379
        longitude: -7.43122
        name: Portalegre
        names_en: ~
        names_es: ~
        population: 15581
        timezone: Europe/Lisbon
      - 
        alternate_names: 
          - "Ponte de Sor"
        ascii_name: "Ponte de Sor"
        geonamesid: 2264538
        latitude: 39.24964
        longitude: -8.01009
        name: "Ponte de Sor"
        names_en: ~
        names_es: ~
        population: 11062
        timezone: Europe/Lisbon
      - 
        alternate_names: 
          - Marvan
          - Марван
        ascii_name: Marvao
        geonamesid: 2266633
        latitude: 39.39377
        longitude: -7.37663
        name: Marvão
        names_en: ~
        names_es: ~
        population: 3739
        timezone: Europe/Lisbon
      - 
        alternate_names: 
          - Elvas
        ascii_name: Elvas
        geonamesid: 2268615
        latitude: 38.88333
        longitude: -7.16667
        name: Elvas
        names_en: ~
        names_es: ~
        population: 9904
        timezone: Europe/Lisbon
      - 
        alternate_names: 
          - "Castello de Vide"
          - Kashtelu-de-Vide
          - Каштелу-де-Виде
        ascii_name: "Castelo de Vide"
        geonamesid: 2269508
        latitude: 39.41624
        longitude: -7.4568
        name: "Castelo de Vide"
        names_en: ~
        names_es: ~
        population: 3780
        timezone: Europe/Lisbon
      - 
        alternate_names: ~
        ascii_name: "Campo Maior"
        geonamesid: 2270336
        latitude: 39.01667
        longitude: -7.06667
        name: "Campo Maior"
        names_en: ~
        names_es: ~
        population: 8235
        timezone: Europe/Lisbon
      - 
        alternate_names: ~
        ascii_name: "Alter do Chao"
        geonamesid: 2271841
        latitude: 39.19741
        longitude: -7.65893
        name: "Alter do Chão"
        names_en: ~
        names_es: ~
        population: 2600
        timezone: Europe/Lisbon
    geonamesid: 2264507
    name: Portalegre
    names_en: ~
    names_es: 
      - Portalegre
  - 
    ascii_name: Lisbon
    cities: 
      - 
        alternate_names: 
          - "Vila Franca de Xira"
        ascii_name: "Vila Franca de Xira"
        geonamesid: 2261639
        latitude: 38.95525
        longitude: -8.98966
        name: "Vila Franca de Xira"
        names_en: ~
        names_es: ~
        population: 18355
        timezone: Europe/Lisbon
      - 
        alternate_names: ~
        ascii_name: Vialonga
        geonamesid: 2261697
        latitude: 38.87094
        longitude: -9.06823
        name: Vialonga
        names_en: ~
        names_es: ~
        population: 16088
        timezone: Europe/Lisbon
      - 
        alternate_names: ~
        ascii_name: Ventosa
        geonamesid: 2261732
        latitude: 39.12696
        longitude: -9.08424
        name: Ventosa
        names_en: ~
        names_es: ~
        population: 5215
        timezone: Europe/Lisbon
      - 
        alternate_names: ~
        ascii_name: "Venda do Pinheiro"
        geonamesid: 2261760
        latitude: 38.92365
        longitude: -9.23178
        name: "Venda do Pinheiro"
        names_en: ~
        names_es: ~
        population: 4950
        timezone: Europe/Lisbon
      - 
        alternate_names: ~
        ascii_name: Unhos
        geonamesid: 2262465
        latitude: 38.82589
        longitude: -9.12231
        name: Unhos
        names_en: ~
        names_es: ~
        population: 10712
        timezone: Europe/Lisbon
      - 
        alternate_names: 
          - "Torres Vedras"
          - Torresh
          - Торреш
        ascii_name: "Torres Vedras"
        geonamesid: 2262581
        latitude: 39.09109
        longitude: -9.2586
        name: "Torres Vedras"
        names_en: ~
        names_es: ~
        population: 24443
        timezone: Europe/Lisbon
      - 
        alternate_names: ~
        ascii_name: Terrugem
        geonamesid: 2262687
        latitude: 38.70647
        longitude: -9.28693
        name: Terrugem
        names_en: ~
        names_es: ~
        population: 4693
        timezone: Europe/Lisbon
      - 
        alternate_names: ~
        ascii_name: Sobralinho
        geonamesid: 2262867
        latitude: 38.91703
        longitude: -9.02656
        name: Sobralinho
        names_en: ~
        names_es: ~
        population: 4453
        timezone: Europe/Lisbon
      - 
        alternate_names: 
          - Cintra
          - Sintra
          - shintora
          - Σίντρα
        ascii_name: Sintra
        geonamesid: 2262912
        latitude: 38.80097
        longitude: -9.37826
        name: Sintra
        names_en: 
          - Sintra
        names_es: 
          - Sintra
        population: 26193
        timezone: Europe/Lisbon
      - 
        alternate_names: ~
        ascii_name: Silveira
        geonamesid: 2262944
        latitude: 39.1112
        longitude: -9.3643
        name: Silveira
        names_en: ~
        names_es: ~
        population: 6942
        timezone: Europe/Lisbon
      - 
        alternate_names: ~
        ascii_name: "Sao Pedro da Cadeira"
        geonamesid: 2263245
        latitude: 39.06983
        longitude: -9.37174
        name: "São Pedro da Cadeira"
        names_en: ~
        names_es: ~
        population: 4452
        timezone: Europe/Lisbon
      - 
        alternate_names: ~
        ascii_name: "Sao Joao dos Montes"
        geonamesid: 2263322
        latitude: 38.93944
        longitude: -9.01892
        name: "São João dos Montes"
        names_en: ~
        names_es: ~
        population: 4772
        timezone: Europe/Lisbon
      - 
        alternate_names: ~
        ascii_name: "Sao Joao da Talha"
        geonamesid: 2263326
        latitude: 38.82183
        longitude: -9.09079
        name: "São João da Talha"
        names_en: ~
        names_es: ~
        population: 18925
        timezone: Europe/Lisbon
      - 
        alternate_names: ~
        ascii_name: "Sao Joao das Lampas"
        geonamesid: 2263327
        latitude: 38.87376
        longitude: -9.39842
        name: "São João das Lampas"
        names_en: ~
        names_es: ~
        population: 10484
        timezone: Europe/Lisbon
      - 
        alternate_names: 
          - "Domingos De Rana"
          - "Sao Domingos"
          - "Sao Domingos de Rana"
          - "São Domingos"
        ascii_name: "Sao Domingos de Rana"
        geonamesid: 2263352
        latitude: 38.70123
        longitude: -9.3276
        name: "São Domingos de Rana"
        names_en: ~
        names_es: ~
        population: 46718
        timezone: Europe/Lisbon
      - 
        alternate_names: 
          - "Santo Antao"
          - "Santo Antao de Tojal"
          - "Santo Antao do Tojal"
          - "Santo Antão"
        ascii_name: "Santo Antao do Tojal"
        geonamesid: 2263434
        latitude: 38.85151
        longitude: -9.13975
        name: "Santo Antão do Tojal"
        names_en: ~
        names_es: ~
        population: 4156
        timezone: Europe/Lisbon
      - 
        alternate_names: 
          - "Santa Iria"
          - "Santa Iria da Azoia"
          - "Santa Iria da Azóia"
          - "Santa Iria de Azoia"
        ascii_name: "Santa Iria da Azoia"
        geonamesid: 2263523
        latitude: 38.84629
        longitude: -9.08748
        name: "Santa Iria da Azóia"
        names_en: ~
        names_es: ~
        population: 18573
        timezone: Europe/Lisbon
      - 
        alternate_names: ~
        ascii_name: Sacavem
        geonamesid: 2263667
        latitude: 38.79202
        longitude: -9.10801
        name: Sacavém
        names_en: ~
        names_es: ~
        population: 17718
        timezone: Europe/Lisbon
      - 
        alternate_names: ~
        ascii_name: "Rio de Mouro"
        geonamesid: 2263827
        latitude: 38.77457
        longitude: -9.3276
        name: "Rio de Mouro"
        names_en: ~
        names_es: ~
        population: 54695
        timezone: Europe/Lisbon
      - 
        alternate_names: ~
        ascii_name: Ramada
        geonamesid: 2264087
        latitude: 38.80235
        longitude: -9.19216
        name: Ramada
        names_en: ~
        names_es: ~
        population: 17535
        timezone: Europe/Lisbon
      - 
        alternate_names: 
          - Kelush
          - Queluz
          - Келуш
        ascii_name: Queluz
        geonamesid: 2264268
        latitude: 38.75657
        longitude: -9.25451
        name: Queluz
        names_en: 
          - Queluz
        names_es: ~
        population: 103399
        timezone: Europe/Lisbon
      - 
        alternate_names: 
          - Queijas
          - Quejas
        ascii_name: Quejas
        geonamesid: 2264270
        latitude: 38.72236
        longitude: -9.26593
        name: Quejas
        names_en: ~
        names_es: ~
        population: 8828
        timezone: Europe/Lisbon
      - 
        alternate_names: ~
        ascii_name: "Povoa de Santo Adriao"
        geonamesid: 2264357
        latitude: 38.8
        longitude: -9.16667
        name: "Póvoa de Santo Adrião"
        names_en: ~
        names_es: ~
        population: 14897
        timezone: Europe/Lisbon
      - 
        alternate_names: 
          - Povoa
          - "Povoa Santa Iria"
          - "Povoa de Martinho"
          - "Povoa de Santa Iria"
        ascii_name: "Povoa de Santa Iria"
        geonamesid: 2264359
        latitude: 38.86101
        longitude: -9.06453
        name: "Póvoa de Santa Iria"
        names_en: ~
        names_es: ~
        population: 28901
        timezone: Europe/Lisbon
      - 
        alternate_names: ~
        ascii_name: "Porto Salvo"
        geonamesid: 2264403
        latitude: 38.71745
        longitude: -9.29833
        name: "Porto Salvo"
        names_en: ~
        names_es: ~
        population: 13867
        timezone: Europe/Lisbon
      - 
        alternate_names: ~
        ascii_name: Pontinha
        geonamesid: 2264526
        latitude: 38.76771
        longitude: -9.19935
        name: Pontinha
        names_en: ~
        names_es: ~
        population: 23249
        timezone: Europe/Lisbon
      - 
        alternate_names: ~
        ascii_name: "Pero Pinheiro"
        geonamesid: 2264811
        latitude: 38.85783
        longitude: -9.32352
        name: "Pero Pinheiro"
        names_en: ~
        names_es: ~
        population: 4792
        timezone: Europe/Lisbon
      - 
        alternate_names: ~
        ascii_name: Parede
        geonamesid: 2265169
        latitude: 38.69282
        longitude: -9.35412
        name: Parede
        names_en: ~
        names_es: ~
        population: 17212
        timezone: Europe/Lisbon
      - 
        alternate_names: 
          - "Paco d'Arcos"
          - "Paço d'Arcos"
        ascii_name: "Paco de Arcos"
        geonamesid: 2265326
        latitude: 38.69569
        longitude: -9.29143
        name: "Paço de Arcos"
        names_en: ~
        names_es: ~
        population: 25974
        timezone: Europe/Lisbon
      - 
        alternate_names: ~
        ascii_name: "Olival do Basto"
        geonamesid: 2265422
        latitude: 38.79079
        longitude: -9.16621
        name: "Olival do Basto"
        names_en: ~
        names_es: ~
        population: 5959
        timezone: Europe/Lisbon
      - 
        alternate_names: 
          - Odivelas
          - awdywlas
          - اودیولاس
        ascii_name: Odivelas
        geonamesid: 2265467
        latitude: 38.79269
        longitude: -9.1838
        name: Odivelas
        names_en: 
          - Odivelas
        names_es: 
          - Odivelas
        population: 54624
        timezone: Europe/Lisbon
      - 
        alternate_names: ~
        ascii_name: Moscavide
        geonamesid: 2265726
        latitude: 38.77929
        longitude: -9.10222
        name: Moscavide
        names_en: ~
        names_es: ~
        population: 11488
        timezone: Europe/Lisbon
      - 
        alternate_names: ~
        ascii_name: "Monte Estoril"
        geonamesid: 2265927
        latitude: 38.70279
        longitude: -9.41606
        name: "Monte Estoril"
        names_en: ~
        names_es: ~
        population: 23375
        timezone: Europe/Lisbon
      - 
        alternate_names: ~
        ascii_name: Milharado
        geonamesid: 2266411
        latitude: 38.94732
        longitude: -9.19914
        name: Milharado
        names_en: ~
        names_es: ~
        population: 5935
        timezone: Europe/Lisbon
      - 
        alternate_names: ~
        ascii_name: Malveira
        geonamesid: 2266777
        latitude: 38.93213
        longitude: -9.25778
        name: Malveira
        names_en: ~
        names_es: ~
        population: 4747
        timezone: Europe/Lisbon
      - 
        alternate_names: 
          - Mafra
        ascii_name: Mafra
        geonamesid: 2266865
        latitude: 38.93793
        longitude: -9.32756
        name: Mafra
        names_en: ~
        names_es: ~
        population: 12259
        timezone: Europe/Lisbon
      - 
        alternate_names: 
          - Lourinha
          - Lourinhã
        ascii_name: Lourinha
        geonamesid: 2266961
        latitude: 39.23333
        longitude: -9.31667
        name: Lourinhã
        names_en: 
          - Lourinhã
        names_es: 
          - Lourinhã
        population: 9196
        timezone: Europe/Lisbon
      - 
        alternate_names: 
          - Loures
          - Loyres
          - Λόυρες
        ascii_name: Loures
        geonamesid: 2266977
        latitude: 38.83091
        longitude: -9.16845
        name: Loures
        names_en: 
          - Loures
        names_es: 
          - Loures
        population: 66231
        timezone: Europe/Lisbon
      - 
        alternate_names: 
          - "Felicitas Julia"
          - "Felicitas Julia Olissipo"
          - Liospoin
          - Liospóin
        ascii_name: Lisbon
        geonamesid: 2267057
        latitude: 38.71667
        longitude: -9.13333
        name: Lisbon
        names_en: 
          - Lisbon
        names_es: 
          - Lisboa
        population: 517802
        timezone: Europe/Lisbon
      - 
        alternate_names: 
          - "Linda a Velha"
          - Linda-a-Velha
        ascii_name: Linda-a-Velha
        geonamesid: 2267067
        latitude: 38.71446
        longitude: -9.2422
        name: Linda-a-Velha
        names_en: 
          - "Linda a Velha"
        names_es: ~
        population: 20895
        timezone: Europe/Lisbon
      - 
        alternate_names: ~
        ascii_name: Famoes
        geonamesid: 2268358
        latitude: 38.78804
        longitude: -9.21033
        name: Famões
        names_en: ~
        names_es: ~
        population: 9435
        timezone: Europe/Lisbon
      - 
        alternate_names: 
          - Ehshtoril
          - Eshhoril
          - Estoril
          - Estoris
        ascii_name: Estoril
        geonamesid: 2268436
        latitude: 38.70571
        longitude: -9.39773
        name: Estoril
        names_en: 
          - Estoril
        names_es: 
          - Estoril
        population: 23700
        timezone: Europe/Lisbon
      - 
        alternate_names: ~
        ascii_name: Ericeira
        geonamesid: 2268563
        latitude: 38.96275
        longitude: -9.41563
        name: Ericeira
        names_en: ~
        names_es: ~
        population: 7538
        timezone: Europe/Lisbon
      - 
        alternate_names: 
          - Colares
        ascii_name: Colares
        geonamesid: 2269142
        latitude: 38.79922
        longitude: -9.44691
        name: Colares
        names_en: ~
        names_es: ~
        population: 7905
        timezone: Europe/Lisbon
      - 
        alternate_names: 
          - Castanheira
          - "Castanheira do Ribatejo"
        ascii_name: "Castanheira do Ribatejo"
        geonamesid: 2269556
        latitude: 38.99298
        longitude: -8.97346
        name: "Castanheira do Ribatejo"
        names_en: ~
        names_es: ~
        population: 7651
        timezone: Europe/Lisbon
      - 
        alternate_names: 
          - Cascaes
          - Cascais
          - Kashkajsh
          - Kaskais
        ascii_name: Cascais
        geonamesid: 2269594
        latitude: 38.6979
        longitude: -9.42146
        name: Cascais
        names_en: 
          - Cascais
        names_es: 
          - Cascais
        population: 36436
        timezone: Europe/Lisbon
      - 
        alternate_names: 
          - Carregado
        ascii_name: Carregado
        geonamesid: 2270084
        latitude: 39.02362
        longitude: -8.97692
        name: Carregado
        names_en: ~
        names_es: ~
        population: 10474
        timezone: Europe/Lisbon
      - 
        alternate_names: 
          - Carnaxide
          - Karnashide
          - Карнашиде
        ascii_name: Carnaxide
        geonamesid: 2270157
        latitude: 38.72706
        longitude: -9.24671
        name: Carnaxide
        names_en: ~
        names_es: ~
        population: 23698
        timezone: Europe/Lisbon
      - 
        alternate_names: ~
        ascii_name: Carcavelos
        geonamesid: 2270184
        latitude: 38.69105
        longitude: -9.32215
        name: Carcavelos
        names_en: ~
        names_es: ~
        population: 20366
        timezone: Europe/Lisbon
      - 
        alternate_names: ~
        ascii_name: Canecas
        geonamesid: 2270290
        latitude: 38.81321
        longitude: -9.22679
        name: Caneças
        names_en: ~
        names_es: ~
        population: 10978
        timezone: Europe/Lisbon
      - 
        alternate_names: 
          - Camarate
          - Camrate
          - Kamarate
          - Камарате
        ascii_name: Camarate
        geonamesid: 2270377
        latitude: 38.80358
        longitude: -9.12808
        name: Camarate
        names_en: ~
        names_es: ~
        population: 20177
        timezone: Europe/Lisbon
      - 
        alternate_names: ~
        ascii_name: Cacem
        geonamesid: 2270503
        latitude: 38.76698
        longitude: -9.29793
        name: Cacém
        names_en: ~
        names_es: ~
        population: 93982
        timezone: Europe/Lisbon
      - 
        alternate_names: 
          - Bucelas
          - Bucellas
        ascii_name: Bucelas
        geonamesid: 2270649
        latitude: 38.90193
        longitude: -9.11885
        name: Bucelas
        names_en: ~
        names_es: ~
        population: 4614
        timezone: Europe/Lisbon
      - 
        alternate_names: ~
        ascii_name: Bobadela
        geonamesid: 2270813
        latitude: 38.80774
        longitude: -9.09925
        name: Bobadela
        names_en: ~
        names_es: ~
        population: 8399
        timezone: Europe/Lisbon
      - 
        alternate_names: ~
        ascii_name: Belas
        geonamesid: 2270981
        latitude: 38.77721
        longitude: -9.26078
        name: Belas
        names_en: ~
        names_es: ~
        population: 21019
        timezone: Europe/Lisbon
      - 
        alternate_names: ~
        ascii_name: Barcarena
        geonamesid: 2271140
        latitude: 38.73245
        longitude: -9.28
        name: Barcarena
        names_en: ~
        names_es: ~
        population: 11968
        timezone: Europe/Lisbon
      - 
        alternate_names: 
          - Azambuja
        ascii_name: Azambuja
        geonamesid: 2271337
        latitude: 39.07029
        longitude: -8.86822
        name: Azambuja
        names_en: ~
        names_es: ~
        population: 7179
        timezone: Europe/Lisbon
      - 
        alternate_names: 
          - "Aveiras de Cima"
        ascii_name: "Aveiras de Cima"
        geonamesid: 2271350
        latitude: 39.13796
        longitude: -8.89932
        name: "Aveiras de Cima"
        names_en: ~
        names_es: ~
        population: 4615
        timezone: Europe/Lisbon
      - 
        alternate_names: 
          - Arruda
          - "Arruda dos Vinhos"
        ascii_name: "Arruda dos Vinhos"
        geonamesid: 2271438
        latitude: 38.98411
        longitude: -9.07746
        name: "Arruda dos Vinhos"
        names_en: ~
        names_es: ~
        population: 6170
        timezone: Europe/Lisbon
      - 
        alternate_names: ~
        ascii_name: Apelacao
        geonamesid: 2271623
        latitude: 38.81387
        longitude: -9.13225
        name: Apelação
        names_en: ~
        names_es: ~
        population: 7182
        timezone: Europe/Lisbon
      - 
        alternate_names: 
          - Amadora
          - Αμαδόρα
          - Амадора
        ascii_name: Amadora
        geonamesid: 2271772
        latitude: 38.75382
        longitude: -9.23083
        name: Amadora
        names_en: 
          - Amadora
        names_es: 
          - Amadora
        population: 178858
        timezone: Europe/Lisbon
      - 
        alternate_names: 
          - Almargem
          - "Almargem do Bispo"
        ascii_name: Almargem
        geonamesid: 2271945
        latitude: 38.84485
        longitude: -9.27316
        name: Almargem
        names_en: ~
        names_es: ~
        population: 8271
        timezone: Europe/Lisbon
      - 
        alternate_names: ~
        ascii_name: Alhandra
        geonamesid: 2271975
        latitude: 38.92732
        longitude: -9.00864
        name: Alhandra
        names_en: ~
        names_es: ~
        population: 7226
        timezone: Europe/Lisbon
      - 
        alternate_names: 
          - Alges
          - Algés
        ascii_name: Alges
        geonamesid: 2271985
        latitude: 38.70245
        longitude: -9.22936
        name: Algés
        names_en: ~
        names_es: ~
        population: 19327
        timezone: Europe/Lisbon
      - 
        alternate_names: 
          - Alenquer
        ascii_name: Alenquer
        geonamesid: 2272036
        latitude: 39.05315
        longitude: -9.00928
        name: Alenquer
        names_en: ~
        names_es: ~
        population: 9626
        timezone: Europe/Lisbon
      - 
        alternate_names: ~
        ascii_name: Alcoentre
        geonamesid: 2272143
        latitude: 39.20857
        longitude: -8.95953
        name: Alcoentre
        names_en: ~
        names_es: ~
        population: 3923
        timezone: Europe/Lisbon
      - 
        alternate_names: 
          - Alcabideche
          - Alkabideshe
          - Aloabideche
          - Aloabidèche
        ascii_name: Alcabideche
        geonamesid: 2272215
        latitude: 38.73366
        longitude: -9.40928
        name: Alcabideche
        names_en: ~
        names_es: ~
        population: 33315
        timezone: Europe/Lisbon
      - 
        alternate_names: 
          - "A dos Cunhados"
          - "Aldeia dos Cunhados"
        ascii_name: "A dos Cunhados"
        geonamesid: 2272379
        latitude: 39.15237
        longitude: -9.2972
        name: "A dos Cunhados"
        names_en: ~
        names_es: ~
        population: 6594
        timezone: Europe/Lisbon
    geonamesid: 2267056
    name: Lisbon
    names_en: 
      - Lisbon
    names_es: 
      - Lisboa
  - 
    ascii_name: "Distrito de Leiria"
    cities: 
      - 
        alternate_names: 
          - Vieira
          - "Vieira de Leiria"
        ascii_name: "Vieira de Leiria"
        geonamesid: 2261673
        latitude: 39.86667
        longitude: -8.93333
        name: "Vieira de Leiria"
        names_en: ~
        names_es: ~
        population: 5807
        timezone: Europe/Lisbon
      - 
        alternate_names: ~
        ascii_name: Turquel
        geonamesid: 2262478
        latitude: 39.46667
        longitude: -8.98333
        name: Turquel
        names_en: ~
        names_es: ~
        population: 4434
        timezone: Europe/Lisbon
      - 
        alternate_names: 
          - Souto
          - "Souto da Carpalhosa"
        ascii_name: "Souto da Carpalhosa"
        geonamesid: 2262815
        latitude: 39.85
        longitude: -8.81667
        name: "Souto da Carpalhosa"
        names_en: ~
        names_es: ~
        population: 4130
        timezone: Europe/Lisbon
      - 
        alternate_names: 
          - "Santa Catarina"
          - "Santa Catarina da Serra"
          - "Santa Catharina"
          - "Santa Catharina da Serra"
        ascii_name: "Santa Catarina da Serra"
        geonamesid: 2263547
        latitude: 39.66667
        longitude: -8.68333
        name: "Santa Catarina da Serra"
        names_en: ~
        names_es: ~
        population: 4405
        timezone: Europe/Lisbon
      - 
        alternate_names: 
          - "Porto de Mos"
          - "Porto de Mós"
        ascii_name: "Porto de Mos"
        geonamesid: 2264427
        latitude: 39.6
        longitude: -8.81667
        name: "Porto de Mós"
        names_en: ~
        names_es: ~
        population: 6032
        timezone: Europe/Lisbon
      - 
        alternate_names: 
          - Pombal
          - Помбал
        ascii_name: Pombal
        geonamesid: 2264575
        latitude: 39.91667
        longitude: -8.63333
        name: Pombal
        names_en: ~
        names_es: ~
        population: 17355
        timezone: Europe/Lisbon
      - 
        alternate_names: 
          - Peniche
        ascii_name: Peniche
        geonamesid: 2264923
        latitude: 39.3558
        longitude: -9.38112
        name: Peniche
        names_en: 
          - Peniche
        names_es: 
          - Peniche
        population: 15662
        timezone: Europe/Lisbon
      - 
        alternate_names: ~
        ascii_name: Pataias
        geonamesid: 2265120
        latitude: 39.66667
        longitude: -9.0
        name: Pataias
        names_en: ~
        names_es: ~
        population: 5510
        timezone: Europe/Lisbon
      - 
        alternate_names: 
          - Obidos
          - Obidush
          - Óbidos
          - Обидуш
        ascii_name: Obidos
        geonamesid: 2265485
        latitude: 39.36055
        longitude: -9.1567
        name: Óbidos
        names_en: ~
        names_es: ~
        population: 11187
        timezone: Europe/Lisbon
      - 
        alternate_names: 
          - Nazare
          - Nazaré
          - Ναζαρέ
        ascii_name: Nazare
        geonamesid: 2265552
        latitude: 39.6
        longitude: -9.06667
        name: Nazaré
        names_en: 
          - Nazaré
        names_es: 
          - Nazaré
        population: 8993
        timezone: Europe/Lisbon
      - 
        alternate_names: ~
        ascii_name: "Monte Redondo"
        geonamesid: 2265841
        latitude: 39.9
        longitude: -8.83333
        name: "Monte Redondo"
        names_en: ~
        names_es: ~
        population: 4463
        timezone: Europe/Lisbon
      - 
        alternate_names: 
          - "Marinha Grande"
        ascii_name: "Marinha Grande"
        geonamesid: 2266703
        latitude: 39.75
        longitude: -8.93333
        name: "Marinha Grande"
        names_en: ~
        names_es: ~
        population: 28916
        timezone: Europe/Lisbon
      - 
        alternate_names: ~
        ascii_name: Maceira
        geonamesid: 2266914
        latitude: 39.68333
        longitude: -8.88333
        name: Maceira
        names_en: ~
        names_es: ~
        population: 9831
        timezone: Europe/Lisbon
      - 
        alternate_names: ~
        ascii_name: Lourical
        geonamesid: 2266974
        latitude: 40.0
        longitude: -8.73333
        name: Louriçal
        names_en: ~
        names_es: ~
        population: 5085
        timezone: Europe/Lisbon
      - 
        alternate_names: 
          - Leiria
          - Lejrija
          - "Vieira de Leiria"
          - lyyryh
        ascii_name: Leiria
        geonamesid: 2267095
        latitude: 39.74362
        longitude: -8.80705
        name: Leiria
        names_en: 
          - Leiria
        names_es: 
          - Leiria
        population: 45112
        timezone: Europe/Lisbon
      - 
        alternate_names: 
          - Castanheira
          - "Castanheira de Pera"
          - "Castanheira de Pêra"
        ascii_name: "Castanheira de Pera"
        geonamesid: 2269557
        latitude: 40.0
        longitude: -8.21667
        name: "Castanheira de Pêra"
        names_en: ~
        names_es: ~
        population: 3331
        timezone: Europe/Lisbon
      - 
        alternate_names: ~
        ascii_name: Caranguejeira
        geonamesid: 2270211
        latitude: 39.73333
        longitude: -8.71667
        name: Caranguejeira
        names_en: ~
        names_es: ~
        population: 5248
        timezone: Europe/Lisbon
      - 
        alternate_names: 
          - "Caldad da Rainha"
          - "Caldas da Rainha"
        ascii_name: "Caldas da Rainha"
        geonamesid: 2270437
        latitude: 39.4
        longitude: -9.13333
        name: "Caldas da Rainha"
        names_en: ~
        names_es: ~
        population: 26647
        timezone: Europe/Lisbon
      - 
        alternate_names: 
          - Bombarral
          - Rombarral
        ascii_name: Bombarral
        geonamesid: 2270770
        latitude: 39.26723
        longitude: -9.15795
        name: Bombarral
        names_en: 
          - Bombarral
        names_es: 
          - Bombarral
        population: 5852
        timezone: Europe/Lisbon
      - 
        alternate_names: 
          - Benedita
          - Benedito
        ascii_name: Benedita
        geonamesid: 2270935
        latitude: 39.41667
        longitude: -8.98333
        name: Benedita
        names_en: ~
        names_es: ~
        population: 8556
        timezone: Europe/Lisbon
      - 
        alternate_names: 
          - Batalha
          - Mpatalia
          - Μπατάλια
        ascii_name: Batalha
        geonamesid: 2271006
        latitude: 39.65
        longitude: -8.83333
        name: Batalha
        names_en: 
          - Batalha
        names_es: 
          - Batalha
        population: 7910
        timezone: Europe/Lisbon
      - 
        alternate_names: 
          - Atouguia
          - "Atouguia da Baleia"
        ascii_name: "Atouguia da Baleia"
        geonamesid: 2271354
        latitude: 39.33814
        longitude: -9.3263
        name: "Atouguia da Baleia"
        names_en: ~
        names_es: ~
        population: 8313
        timezone: Europe/Lisbon
      - 
        alternate_names: ~
        ascii_name: Amor
        geonamesid: 2271682
        latitude: 39.8
        longitude: -8.86667
        name: Amor
        names_en: ~
        names_es: ~
        population: 4870
        timezone: Europe/Lisbon
      - 
        alternate_names: ~
        ascii_name: Aljubarrota
        geonamesid: 2271966
        latitude: 39.56667
        longitude: -8.93333
        name: Aljubarrota
        names_en: ~
        names_es: ~
        population: 6146
        timezone: Europe/Lisbon
      - 
        alternate_names: 
          - Alcobaca
          - Alcobaça
        ascii_name: Alcobaca
        geonamesid: 2272147
        latitude: 39.55
        longitude: -8.98333
        name: Alcobaça
        names_en: ~
        names_es: ~
        population: 5051
        timezone: Europe/Lisbon
    geonamesid: 2267094
    name: Leiria
    names_en: ~
    names_es: 
      - Leiria
  - 
    ascii_name: "Distrito de Faro"
    cities: 
      - 
        alternate_names: 
          - "Bila Real nte Santo Antonio"
          - "Vila Real de San Antonio"
          - "Vila Real de San António"
          - "Vila Real de Santo Antonio"
        ascii_name: "Vila Real de Santo Antonio"
        geonamesid: 2261598
        latitude: 37.2
        longitude: -7.41667
        name: "Vila Real de Santo António"
        names_en: 
          - "Vila Real de Santo António"
        names_es: 
          - "Vila Real de Santo António"
        population: 11560
        timezone: Europe/Lisbon
      - 
        alternate_names: 
          - Tabira
          - Tavira
          - Ταβίρα
          - Тавира
        ascii_name: Tavira
        geonamesid: 2262744
        latitude: 37.11667
        longitude: -7.65
        name: Tavira
        names_en: 
          - Tavira
        names_es: 
          - Tavira
        population: 13871
        timezone: Europe/Lisbon
      - 
        alternate_names: 
          - Silves
        ascii_name: Silves
        geonamesid: 2262926
        latitude: 37.18333
        longitude: -8.43333
        name: Silves
        names_en: 
          - Silves
        names_es: 
          - Silves
        population: 10917
        timezone: Europe/Lisbon
      - 
        alternate_names: 
          - Alportel
          - "Sao Bras de Alportel"
          - "Sao Braz"
          - "Sao Braz d'Alportel"
        ascii_name: "Sao Bras de Alportel"
        geonamesid: 2263377
        latitude: 37.15
        longitude: -7.88333
        name: "São Brás de Alportel"
        names_en: ~
        names_es: ~
        population: 11153
        timezone: Europe/Lisbon
      - 
        alternate_names: 
          - Messines
          - "Sao Bartolomeo de Messines"
          - "Sao Bartolomeu de Messines"
          - "São Bartolomeo de Messines"
        ascii_name: "Sao Bartolomeu de Messines"
        geonamesid: 2263393
        latitude: 37.25
        longitude: -8.28333
        name: "São Bartolomeu de Messines"
        names_en: ~
        names_es: ~
        population: 8381
        timezone: Europe/Lisbon
      - 
        alternate_names: ~
        ascii_name: "Santa Barbara de Nexe"
        geonamesid: 2263558
        latitude: 37.1
        longitude: -7.96667
        name: "Santa Bárbara de Nexe"
        names_en: ~
        names_es: ~
        population: 4087
        timezone: Europe/Lisbon
      - 
        alternate_names: 
          - Sagres
          - Sagresh
          - Сагреш
        ascii_name: Sagres
        geonamesid: 2263650
        latitude: 37.0
        longitude: -8.93333
        name: Sagres
        names_en: 
          - Sagres
        names_es: ~
        population: 1939
        timezone: Europe/Lisbon
      - 
        alternate_names: 
          - Quarteira
        ascii_name: Quarteira
        geonamesid: 2264299
        latitude: 37.06667
        longitude: -8.1
        name: Quarteira
        names_en: ~
        names_es: ~
        population: 18783
        timezone: Europe/Lisbon
      - 
        alternate_names: 
          - Portimao
          - "Vila Nova de Portimao"
          - "Vila Nova de Portimão"
          - Портимао
        ascii_name: Portimao
        geonamesid: 2264456
        latitude: 37.13856
        longitude: -8.53775
        name: Portimão
        names_en: ~
        names_es: ~
        population: 38487
        timezone: Europe/Lisbon
      - 
        alternate_names: ~
        ascii_name: Olhao
        geonamesid: 2265447
        latitude: 37.03333
        longitude: -7.83333
        name: Olhão
        names_en: ~
        names_es: ~
        population: 29239
        timezone: Europe/Lisbon
      - 
        alternate_names: 
          - "Monte Gorde"
          - "Monte Gordo"
        ascii_name: "Monte Gordo"
        geonamesid: 2265914
        latitude: 37.18333
        longitude: -7.45
        name: "Monte Gordo"
        names_en: ~
        names_es: ~
        population: 4282
        timezone: Europe/Lisbon
      - 
        alternate_names: 
          - Monchique
        ascii_name: Monchique
        geonamesid: 2266268
        latitude: 37.31667
        longitude: -8.55
        name: Monchique
        names_en: ~
        names_es: ~
        population: 5421
        timezone: Europe/Lisbon
      - 
        alternate_names: ~
        ascii_name: Moncarapacho
        geonamesid: 2266272
        latitude: 37.08333
        longitude: -7.78333
        name: Moncarapacho
        names_en: ~
        names_es: ~
        population: 8545
        timezone: Europe/Lisbon
      - 
        alternate_names: ~
        ascii_name: Luz
        geonamesid: 2266938
        latitude: 37.09216
        longitude: -7.70433
        name: Luz
        names_en: ~
        names_es: ~
        population: 3627
        timezone: Europe/Lisbon
      - 
        alternate_names: 
          - Lola
          - Loule
          - Loulé
          - Лола
        ascii_name: Loule
        geonamesid: 2266988
        latitude: 37.13333
        longitude: -8.03333
        name: Loulé
        names_en: ~
        names_es: ~
        population: 23109
        timezone: Europe/Lisbon
      - 
        alternate_names: ~
        ascii_name: Laranjeiro
        geonamesid: 2267131
        latitude: 37.06667
        longitude: -7.8
        name: Laranjeiro
        names_en: ~
        names_es: ~
        population: 20473
        timezone: Europe/Lisbon
      - 
        alternate_names: ~
        ascii_name: Lagos
        geonamesid: 2267226
        latitude: 37.10202
        longitude: -8.67422
        name: Lagos
        names_en: ~
        names_es: ~
        population: 18831
        timezone: Europe/Lisbon
      - 
        alternate_names: 
          - Lagoa
        ascii_name: Lagoa
        geonamesid: 2267254
        latitude: 37.13333
        longitude: -8.45
        name: Lagoa
        names_en: ~
        names_es: ~
        population: 6301
        timezone: Europe/Lisbon
      - 
        alternate_names: ~
        ascii_name: Guia
        geonamesid: 2267489
        latitude: 37.11667
        longitude: -8.3
        name: Guia
        names_en: ~
        names_es: ~
        population: 4173
        timezone: Europe/Lisbon
      - 
        alternate_names: ~
        ascii_name: Ferreiras
        geonamesid: 2268250
        latitude: 37.13333
        longitude: -8.23333
        name: Ferreiras
        names_en: ~
        names_es: ~
        population: 5157
        timezone: Europe/Lisbon
      - 
        alternate_names: 
          - Faro
          - Faru
          - Фару
        ascii_name: Faro
        geonamesid: 2268339
        latitude: 37.01667
        longitude: -7.93333
        name: Faro
        names_en: ~
        names_es: ~
        population: 41355
        timezone: Europe/Lisbon
      - 
        alternate_names: ~
        ascii_name: Estombar
        geonamesid: 2268437
        latitude: 37.14629
        longitude: -8.48505
        name: Estômbar
        names_en: ~
        names_es: ~
        population: 8590
        timezone: Europe/Lisbon
      - 
        alternate_names: ~
        ascii_name: "Castro Marim"
        geonamesid: 2269496
        latitude: 37.21667
        longitude: -7.43333
        name: "Castro Marim"
        names_en: ~
        names_es: ~
        population: 5089
        timezone: Europe/Lisbon
      - 
        alternate_names: 
          - Carvoeiro
          - Karvoejro
          - Карвоейро
        ascii_name: Carvoeiro
        geonamesid: 2269946
        latitude: 37.1
        longitude: -8.46667
        name: Carvoeiro
        names_en: ~
        names_es: ~
        population: 2784
        timezone: Europe/Lisbon
      - 
        alternate_names: 
          - Boliqueime
        ascii_name: Boliqueime
        geonamesid: 2270774
        latitude: 37.13333
        longitude: -8.15
        name: Boliqueime
        names_en: ~
        names_es: ~
        population: 4470
        timezone: Europe/Lisbon
      - 
        alternate_names: 
          - "Armacao de Pera"
          - "Armação de Pêra"
        ascii_name: "Armacao de Pera"
        geonamesid: 2271542
        latitude: 37.1
        longitude: -8.35
        name: "Armação de Pêra"
        names_en: ~
        names_es: ~
        population: 4030
        timezone: Europe/Lisbon
      - 
        alternate_names: ~
        ascii_name: Alvor
        geonamesid: 2271782
        latitude: 37.12994
        longitude: -8.59174
        name: Alvor
        names_en: ~
        names_es: ~
        population: 5272
        timezone: Europe/Lisbon
      - 
        alternate_names: 
          - Almancil
          - Almansil
        ascii_name: Almancil
        geonamesid: 2271947
        latitude: 37.08333
        longitude: -8.03333
        name: Almancil
        names_en: ~
        names_es: ~
        population: 9898
        timezone: Europe/Lisbon
      - 
        alternate_names: 
          - Aljezur
        ascii_name: Aljezur
        geonamesid: 2271968
        latitude: 37.31667
        longitude: -8.8
        name: Aljezur
        names_en: ~
        names_es: ~
        population: 4122
        timezone: Europe/Lisbon
      - 
        alternate_names: 
          - Albufeira
          - albwfyra
          - آلبوفیرا
        ascii_name: Albufeira
        geonamesid: 2272222
        latitude: 37.08819
        longitude: -8.2503
        name: Albufeira
        names_en: 
          - Albufeira
        names_es: 
          - Albufeira
        population: 15851
        timezone: Europe/Lisbon
      - 
        alternate_names: 
          - Vilamura
          - Виламура
        ascii_name: Vilamoura
        geonamesid: 6545006
        latitude: 37.081
        longitude: -8.11083
        name: Vilamoura
        names_en: ~
        names_es: ~
        population: 1900
        timezone: Europe/Lisbon
    geonamesid: 2268337
    name: Faro
    names_en: ~
    names_es: 
      - Faro
  - 
    ascii_name: "Distrito de Evora"
    cities: 
      - 
        alternate_names: ~
        ascii_name: "Vila Vicosa"
        geonamesid: 2261577
        latitude: 38.78333
        longitude: -7.41667
        name: "Vila Viçosa"
        names_en: ~
        names_es: ~
        population: 5484
        timezone: Europe/Lisbon
      - 
        alternate_names: ~
        ascii_name: "Vendas Novas"
        geonamesid: 2261740
        latitude: 38.67706
        longitude: -8.45792
        name: "Vendas Novas"
        names_en: ~
        names_es: ~
        population: 11248
        timezone: Europe/Lisbon
      - 
        alternate_names: 
          - Reguengos
          - "Reguengos de Monsaraz"
        ascii_name: "Reguengos de Monsaraz"
        geonamesid: 2263974
        latitude: 38.41667
        longitude: -7.53333
        name: "Reguengos de Monsaraz"
        names_en: ~
        names_es: ~
        population: 7217
        timezone: Europe/Lisbon
      - 
        alternate_names: ~
        ascii_name: Redondo
        geonamesid: 2264009
        latitude: 38.64872
        longitude: -7.54708
        name: Redondo
        names_en: ~
        names_es: ~
        population: 5845
        timezone: Europe/Lisbon
      - 
        alternate_names: 
          - Montemor-o-Novo
        ascii_name: Montemor-o-Novo
        geonamesid: 2265888
        latitude: 38.64812
        longitude: -8.21455
        name: Montemor-o-Novo
        names_en: ~
        names_es: ~
        population: 12854
        timezone: Europe/Lisbon
      - 
        alternate_names: 
          - Ebora
          - Ehvora
          - Evora
          - Ébora
        ascii_name: Evora
        geonamesid: 2268406
        latitude: 38.56667
        longitude: -7.9
        name: Évora
        names_en: 
          - Evora
        names_es: ~
        population: 55620
        timezone: Europe/Lisbon
      - 
        alternate_names: 
          - Estremoz
        ascii_name: Estremoz
        geonamesid: 2268411
        latitude: 38.84432
        longitude: -7.58585
        name: Estremoz
        names_en: ~
        names_es: ~
        population: 9350
        timezone: Europe/Lisbon
      - 
        alternate_names: 
          - Borba
          - Borda
          - Борба
        ascii_name: Borba
        geonamesid: 2270755
        latitude: 38.8
        longitude: -7.45
        name: Borba
        names_en: ~
        names_es: ~
        population: 4586
        timezone: Europe/Lisbon
    geonamesid: 2268404
    name: Évora
    names_en: ~
    names_es: 
      - Évora
  - 
    ascii_name: "Distrito de Castelo Branco"
    cities: 
      - 
        alternate_names: 
          - Serta
          - Sertã
        ascii_name: Serta
        geonamesid: 2262987
        latitude: 39.8
        longitude: -8.1
        name: Sertã
        names_en: ~
        names_es: ~
        population: 5636
        timezone: Europe/Lisbon
      - 
        alternate_names: 
          - Proenca-a-Nova
          - Proença-a-Nova
        ascii_name: Proenca-a-Nova
        geonamesid: 2264314
        latitude: 39.75
        longitude: -7.91667
        name: Proença-a-Nova
        names_en: ~
        names_es: ~
        population: 4590
        timezone: Europe/Lisbon
      - 
        alternate_names: 
          - "Castelo Branco"
          - Kashtelu-Branku
          - Каштелу-Бранку
        ascii_name: "Castelo Branco"
        geonamesid: 2269514
        latitude: 39.81667
        longitude: -7.5
        name: "Castelo Branco"
        names_en: ~
        names_es: ~
        population: 33479
        timezone: Europe/Lisbon
      - 
        alternate_names: ~
        ascii_name: Teixoso
        geonamesid: 2733628
        latitude: 40.31667
        longitude: -7.46667
        name: Teixoso
        names_en: ~
        names_es: ~
        population: 4703
        timezone: Europe/Lisbon
      - 
        alternate_names: 
          - Fundao
          - Fundão
        ascii_name: Fundao
        geonamesid: 2739187
        latitude: 40.13333
        longitude: -7.5
        name: Fundão
        names_en: ~
        names_es: ~
        population: 9725
        timezone: Europe/Lisbon
      - 
        alternate_names: 
          - Covilha
          - Covilhã
          - Kovil'jan
          - Ковильян
        ascii_name: Covilha
        geonamesid: 2740313
        latitude: 40.28333
        longitude: -7.5
        name: Covilhã
        names_en: 
          - Covilha
        names_es: ~
        population: 17610
        timezone: Europe/Lisbon
    geonamesid: 2269513
    name: "Castelo Branco"
    names_en: ~
    names_es: 
      - "Castelo Branco"
  - 
    ascii_name: "Distrito de Beja"
    cities: 
      - 
        alternate_names: 
          - "Vila Nova de Milfontes"
        ascii_name: "Vila Nova de Milfontes"
        geonamesid: 2261617
        latitude: 37.71667
        longitude: -8.78333
        name: "Vila Nova de Milfontes"
        names_en: ~
        names_es: ~
        population: 4393
        timezone: Europe/Lisbon
      - 
        alternate_names: 
          - Serpa
          - Серпа
        ascii_name: Serpa
        geonamesid: 2263049
        latitude: 37.93333
        longitude: -7.6
        name: Serpa
        names_en: ~
        names_es: ~
        population: 6586
        timezone: Europe/Lisbon
      - 
        alternate_names: 
          - "San Teotonio"
          - "San Teotónio"
          - "Sao Teotonio"
          - "Sao Theotonio"
        ascii_name: "Sao Teotonio"
        geonamesid: 2263207
        latitude: 37.5
        longitude: -8.7
        name: "São Teotónio"
        names_en: ~
        names_es: ~
        population: 4936
        timezone: Europe/Lisbon
      - 
        alternate_names: ~
        ascii_name: Odemira
        geonamesid: 2265472
        latitude: 37.59798
        longitude: -8.63972
        name: Odemira
        names_en: ~
        names_es: ~
        population: 5830
        timezone: Europe/Lisbon
      - 
        alternate_names: 
          - Moura
        ascii_name: Moura
        geonamesid: 2265686
        latitude: 38.13333
        longitude: -7.45
        name: Moura
        names_en: ~
        names_es: ~
        population: 9360
        timezone: Europe/Lisbon
      - 
        alternate_names: ~
        ascii_name: "Ferreira do Alentejo"
        geonamesid: 2268252
        latitude: 38.05
        longitude: -8.03333
        name: "Ferreira do Alentejo"
        names_en: ~
        names_es: ~
        population: 4689
        timezone: Europe/Lisbon
      - 
        alternate_names: ~
        ascii_name: "Castro Verde"
        geonamesid: 2269494
        latitude: 37.7
        longitude: -8.08333
        name: "Castro Verde"
        names_en: ~
        names_es: ~
        population: 4857
        timezone: Europe/Lisbon
      - 
        alternate_names: 
          - Beja
        ascii_name: Beja
        geonamesid: 2270985
        latitude: 38.01667
        longitude: -7.86667
        name: Beja
        names_en: ~
        names_es: ~
        population: 0
        timezone: Europe/Lisbon
      - 
        alternate_names: 
          - Aljustrel
        ascii_name: Aljustrel
        geonamesid: 2271965
        latitude: 37.86667
        longitude: -8.16667
        name: Aljustrel
        names_en: ~
        names_es: ~
        population: 5334
        timezone: Europe/Lisbon
    geonamesid: 2270984
    name: Beja
    names_en: ~
    names_es: 
      - Beja
  - 
    ascii_name: "Regiao Autonoma da Madeira"
    cities: 
      - 
        alternate_names: 
          - "Porta Santa"
          - "Porto Santo"
          - "Pôrta Santa"
          - "Vila de Porto Santo"
        ascii_name: "Vila de Porto Santo"
        geonamesid: 2261651
        latitude: 33.05
        longitude: -16.33333
        name: "Vila de Porto Santo"
        names_en: ~
        names_es: ~
        population: 4348
        timezone: Atlantic/Madeira
      - 
        alternate_names: 
          - San-Visente
          - "Sao Vicente"
          - "São Vicente"
          - Сан-Висенте
        ascii_name: "Sao Vicente"
        geonamesid: 2263197
        latitude: 32.79673
        longitude: -17.04323
        name: "São Vicente"
        names_en: ~
        names_es: ~
        population: 6063
        timezone: Atlantic/Madeira
      - 
        alternate_names: 
          - Santana
          - Сантана
        ascii_name: Santana
        geonamesid: 2263491
        latitude: 32.8
        longitude: -16.88333
        name: Santana
        names_en: ~
        names_es: ~
        population: 8804
        timezone: Atlantic/Madeira
      - 
        alternate_names: 
          - "Santa Cruz"
          - "Santa Krouz"
          - "Σάντα Κρουζ"
        ascii_name: "Santa Cruz"
        geonamesid: 2263540
        latitude: 32.68333
        longitude: -16.8
        name: "Santa Cruz"
        names_en: 
          - "Santa Cruz"
        names_es: 
          - "Santa Cruz"
        population: 6010
        timezone: Atlantic/Madeira
      - 
        alternate_names: 
          - "Ribeira Brava"
          - "Ribeira Mpraba"
          - "Ριβέιρα Μπράβα"
        ascii_name: "Ribeira Brava"
        geonamesid: 2263905
        latitude: 32.65
        longitude: -17.06667
        name: "Ribeira Brava"
        names_en: 
          - "Ribeira Brava"
        names_es: ~
        population: 5932
        timezone: Atlantic/Madeira
      - 
        alternate_names: 
          - "Porto Moniz"
          - "Porto do Moniz"
          - Portu-Monish
          - "Pôrto do Moniz"
        ascii_name: "Porto Moniz"
        geonamesid: 2264412
        latitude: 32.85
        longitude: -17.16667
        name: "Porto Moniz"
        names_en: 
          - "Porto Moniz"
        names_es: 
          - "Porto Moniz"
        population: 2762
        timezone: Atlantic/Madeira
      - 
        alternate_names: 
          - "Ponta do Sol"
          - "Ponta nto Sol"
          - "Πόντα ντο Σολ"
        ascii_name: "Ponta do Sol"
        geonamesid: 2264557
        latitude: 32.66667
        longitude: -17.1
        name: "Ponta do Sol"
        names_en: 
          - "Ponta do Sol"
        names_es: 
          - "Ponta do Sol"
        population: 4235
        timezone: Atlantic/Madeira
      - 
        alternate_names: 
          - Monte
          - "Nossa Senhora do Monte"
          - Монте
        ascii_name: "Nossa Senhora do Monte"
        geonamesid: 2265494
        latitude: 32.66667
        longitude: -16.9
        name: "Nossa Senhora do Monte"
        names_en: ~
        names_es: ~
        population: 7444
        timezone: Atlantic/Madeira
      - 
        alternate_names: 
          - Machico
        ascii_name: Machico
        geonamesid: 2266895
        latitude: 32.7
        longitude: -16.76667
        name: Machico
        names_en: 
          - Machico
        names_es: 
          - Machico
        population: 12567
        timezone: Atlantic/Madeira
      - 
        alternate_names: 
          - Funchal
          - Funshal
          - Phountsal
          - funsharu
        ascii_name: Funchal
        geonamesid: 2267827
        latitude: 32.63333
        longitude: -16.9
        name: Funchal
        names_en: 
          - Funchal
        names_es: 
          - Funchal
        population: 100847
        timezone: Atlantic/Madeira
      - 
        alternate_names: 
          - "Faia da Ovelha"
          - "Faja da Ovelha"
          - "Fajã da Ovelha"
          - Fazhan-da-Ovel'ja
        ascii_name: "Faja da Ovelha"
        geonamesid: 2268382
        latitude: 32.77457
        longitude: -17.23412
        name: "Fajã da Ovelha"
        names_en: ~
        names_es: ~
        population: 1016
        timezone: Atlantic/Madeira
      - 
        alternate_names: 
          - Ehshtrejtu-da-Kal'eta
          - Эштрейту-да-Кальета
        ascii_name: "Estreito da Calheta"
        geonamesid: 2268419
        latitude: 32.73704
        longitude: -17.18674
        name: "Estreito da Calheta"
        names_en: ~
        names_es: ~
        population: 1630
        timezone: Atlantic/Madeira
      - 
        alternate_names: 
          - "Curral das Freiras"
          - Kurral-dash-Frejrash
          - Куррал-даш-Фрейраш
        ascii_name: "Curral das Freiras"
        geonamesid: 2268746
        latitude: 32.72029
        longitude: -16.96993
        name: "Curral das Freiras"
        names_en: ~
        names_es: ~
        population: 1673
        timezone: Atlantic/Madeira
      - 
        alternate_names: 
          - Canico
          - Caniço
        ascii_name: Canico
        geonamesid: 2270258
        latitude: 32.63333
        longitude: -16.85
        name: Caniço
        names_en: ~
        names_es: ~
        population: 11996
        timezone: Atlantic/Madeira
      - 
        alternate_names: 
          - Canical
          - Caniçal
          - Kanisal
          - Канисал
        ascii_name: Canical
        geonamesid: 2270266
        latitude: 32.73834
        longitude: -16.73836
        name: Caniçal
        names_en: ~
        names_es: ~
        population: 3893
        timezone: Atlantic/Madeira
      - 
        alternate_names: 
          - Campanario
          - Campanário
        ascii_name: Campanario
        geonamesid: 2270361
        latitude: 32.65
        longitude: -17.03333
        name: Campanário
        names_en: ~
        names_es: ~
        population: 3987
        timezone: Atlantic/Madeira
      - 
        alternate_names: 
          - "Camara de Lobos"
          - "Câmara de Lobos"
          - "Kamara nte Lompos"
          - Kamara-de-Lobos
        ascii_name: "Camara de Lobos"
        geonamesid: 2270380
        latitude: 32.63333
        longitude: -16.96667
        name: "Câmara de Lobos"
        names_en: 
          - "Câmara de Lobos"
        names_es: 
          - "Câmara de Lobos"
        population: 32209
        timezone: Atlantic/Madeira
      - 
        alternate_names: ~
        ascii_name: Camacha
        geonamesid: 2270385
        latitude: 33.08333
        longitude: -16.33333
        name: Camacha
        names_en: ~
        names_es: ~
        population: 8635
        timezone: Atlantic/Madeira
      - 
        alternate_names: 
          - Camacha
          - Kamasha
          - Камаша
        ascii_name: Camacha
        geonamesid: 2270386
        latitude: 32.67919
        longitude: -16.84462
        name: Camacha
        names_en: ~
        names_es: ~
        population: 7991
        timezone: Atlantic/Madeira
      - 
        alternate_names: 
          - Calheta
          - Kal'eta
          - Кальета
        ascii_name: Calheta
        geonamesid: 2270408
        latitude: 32.71667
        longitude: -17.18333
        name: Calheta
        names_en: 
          - Calheta
        names_es: 
          - Calheta
        population: 1618
        timezone: Atlantic/Madeira
      - 
        alternate_names: 
          - "Arco da Calheta"
          - Arku-da-Kal'eta
          - Арку-да-Кальета
        ascii_name: "Arco da Calheta"
        geonamesid: 2271598
        latitude: 32.71502
        longitude: -17.14974
        name: "Arco da Calheta"
        names_en: ~
        names_es: ~
        population: 3241
        timezone: Atlantic/Madeira
    geonamesid: 2593105
    name: Madeira
    names_en: ~
    names_es: 
      - Madeira
  - 
    ascii_name: "Distrito de Viseu"
    cities: 
      - 
        alternate_names: 
          - Viseu
          - Vizeu
          - "Vizeu Celorico"
          - Визеу
        ascii_name: Viseu
        geonamesid: 2732265
        latitude: 40.65
        longitude: -7.91667
        name: Viseu
        names_en: ~
        names_es: ~
        population: 26364
        timezone: Europe/Lisbon
      - 
        alternate_names: 
          - Tondela
          - Тондела
        ascii_name: Tondela
        geonamesid: 2733533
        latitude: 40.51667
        longitude: -8.08333
        name: Tondela
        names_en: ~
        names_es: ~
        population: 8800
        timezone: Europe/Lisbon
      - 
        alternate_names: 
          - Satam
          - Satao
          - Sátão
          - "Vila da Igreja"
        ascii_name: Satao
        geonamesid: 2734246
        latitude: 40.73333
        longitude: -7.73333
        name: Sátão
        names_en: ~
        names_es: ~
        population: 4034
        timezone: Europe/Lisbon
      - 
        alternate_names: 
          - "Santo Pedro do Sul"
          - "Sao Pedro do Sul"
          - "São Pedro do Sul"
        ascii_name: "Sao Pedro do Sul"
        geonamesid: 2734351
        latitude: 40.75
        longitude: -8.06667
        name: "São Pedro do Sul"
        names_en: ~
        names_es: ~
        population: 4080
        timezone: Europe/Lisbon
      - 
        alternate_names: ~
        ascii_name: "Rio de Loba"
        geonamesid: 2735116
        latitude: 40.66667
        longitude: -7.88333
        name: "Rio de Loba"
        names_en: ~
        names_es: ~
        population: 9529
        timezone: Europe/Lisbon
      - 
        alternate_names: ~
        ascii_name: Nelas
        geonamesid: 2737184
        latitude: 40.53333
        longitude: -7.85
        name: Nelas
        names_en: ~
        names_es: ~
        population: 4190
        timezone: Europe/Lisbon
      - 
        alternate_names: 
          - Mangualde
          - Мангуалде
        ascii_name: Mangualde
        geonamesid: 2737949
        latitude: 40.6
        longitude: -7.76667
        name: Mangualde
        names_en: ~
        names_es: ~
        population: 8895
        timezone: Europe/Lisbon
      - 
        alternate_names: 
          - Lamego
        ascii_name: Lamego
        geonamesid: 2738459
        latitude: 41.1
        longitude: -7.81667
        name: Lamego
        names_en: ~
        names_es: ~
        population: 10928
        timezone: Europe/Lisbon
      - 
        alternate_names: ~
        ascii_name: "Castro Daire"
        geonamesid: 2740974
        latitude: 40.9
        longitude: -7.93333
        name: "Castro Daire"
        names_en: ~
        names_es: ~
        population: 4744
        timezone: Europe/Lisbon
      - 
        alternate_names: ~
        ascii_name: "Carregal do Sal"
        geonamesid: 2741405
        latitude: 40.43333
        longitude: -8.0
        name: "Carregal do Sal"
        names_en: ~
        names_es: ~
        population: 5600
        timezone: Europe/Lisbon
      - 
        alternate_names: ~
        ascii_name: Campo
        geonamesid: 2741649
        latitude: 40.7
        longitude: -7.91667
        name: Campo
        names_en: ~
        names_es: ~
        population: 4551
        timezone: Europe/Lisbon
      - 
        alternate_names: ~
        ascii_name: Abraveses
        geonamesid: 2743428
        latitude: 40.66667
        longitude: -7.91667
        name: Abraveses
        names_en: ~
        names_es: ~
        population: 9319
        timezone: Europe/Lisbon
    geonamesid: 2732264
    name: Viseu
    names_en: ~
    names_es: 
      - Viseu
  - 
    ascii_name: "Distrito de Vila Real"
    cities: 
      - 
        alternate_names: ~
        ascii_name: Vilela
        geonamesid: 2732312
        latitude: 41.23333
        longitude: -7.6
        name: Vilela
        names_en: ~
        names_es: ~
        population: 5540
        timezone: Europe/Lisbon
      - 
        alternate_names: 
          - "Bila Real"
          - "Vila Real"
          - Vila-Real
          - "Βίλα Ρεάλ"
        ascii_name: "Vila Real"
        geonamesid: 2732438
        latitude: 41.3
        longitude: -7.75
        name: "Vila Real"
        names_en: 
          - "Vila Real"
        names_es: 
          - "Vila Real"
        population: 17001
        timezone: Europe/Lisbon
      - 
        alternate_names: 
          - Valpacos
          - Valpassos
          - Valpaços
        ascii_name: Valpacos
        geonamesid: 2732965
        latitude: 41.6
        longitude: -7.31667
        name: Valpaços
        names_en: ~
        names_es: ~
        population: 4573
        timezone: Europe/Lisbon
      - 
        alternate_names: ~
        ascii_name: Sobreira
        geonamesid: 2733902
        latitude: 41.51667
        longitude: -7.8
        name: Sobreira
        names_en: ~
        names_es: ~
        population: 4219
        timezone: Europe/Lisbon
      - 
        alternate_names: 
          - "Peso da Regua"
          - "Peso da Régua"
          - Regoa
          - Regua
        ascii_name: "Peso da Regua"
        geonamesid: 2736316
        latitude: 41.16667
        longitude: -7.78333
        name: "Peso da Régua"
        names_en: ~
        names_es: ~
        population: 5048
        timezone: Europe/Lisbon
      - 
        alternate_names: ~
        ascii_name: Godim
        geonamesid: 2738983
        latitude: 41.16667
        longitude: -7.8
        name: Godim
        names_en: ~
        names_es: ~
        population: 4919
        timezone: Europe/Lisbon
      - 
        alternate_names: 
          - Chaves
        ascii_name: Chaves
        geonamesid: 2740761
        latitude: 41.73333
        longitude: -7.46667
        name: Chaves
        names_en: ~
        names_es: ~
        population: 13066
        timezone: Europe/Lisbon
    geonamesid: 2732437
    name: "Vila Real"
    names_en: ~
    names_es: 
      - "Vila Real"
  - 
    ascii_name: "Distrito de Viana do Castelo"
    cities: 
      - 
        alternate_names: 
          - Ancora
          - "Praia de Ancora"
          - "Praia de Âncora"
          - "Vila Praia de Ancora"
        ascii_name: "Vila Praia de Ancora"
        geonamesid: 2732516
        latitude: 41.81667
        longitude: -8.85
        name: "Vila Praia de Âncora"
        names_en: ~
        names_es: ~
        population: 4987
        timezone: Europe/Lisbon
      - 
        alternate_names: 
          - "Viana do Castelo"
          - "Vianna do Castello"
        ascii_name: "Viana do Castelo"
        geonamesid: 2732773
        latitude: 41.7
        longitude: -8.83333
        name: "Viana do Castelo"
        names_en: ~
        names_es: ~
        population: 15555
        timezone: Europe/Lisbon
      - 
        alternate_names: 
          - "Ponte de Lima"
          - "Ponte do Lima"
          - "Понте де Лима"
        ascii_name: "Ponte do Lima"
        geonamesid: 2736041
        latitude: 41.76667
        longitude: -8.58333
        name: "Ponte do Lima"
        names_en: ~
        names_es: ~
        population: 44667
        timezone: Europe/Lisbon
      - 
        alternate_names: ~
        ascii_name: Mozelos
        geonamesid: 2737268
        latitude: 41.86774
        longitude: -8.39776
        name: Mozelos
        names_en: ~
        names_es: ~
        population: 7230
        timezone: Europe/Lisbon
      - 
        alternate_names: 
          - Moncao
          - Monsao
          - Monsão
          - Monção
        ascii_name: Moncao
        geonamesid: 2737523
        latitude: 42.07892
        longitude: -8.48076
        name: Monção
        names_en: 
          - Monção
        names_es: 
          - Monção
        population: 19738
        timezone: Europe/Lisbon
      - 
        alternate_names: ~
        ascii_name: Meadela
        geonamesid: 2737810
        latitude: 41.7
        longitude: -8.8
        name: Meadela
        names_en: ~
        names_es: ~
        population: 9981
        timezone: Europe/Lisbon
      - 
        alternate_names: ~
        ascii_name: Darque
        geonamesid: 2740159
        latitude: 41.68333
        longitude: -8.76667
        name: Darque
        names_en: ~
        names_es: ~
        population: 8092
        timezone: Europe/Lisbon
      - 
        alternate_names: 
          - Areosa
          - Areoza
          - Ariosa
        ascii_name: Areosa
        geonamesid: 2742765
        latitude: 41.71667
        longitude: -8.85
        name: Areosa
        names_en: ~
        names_es: ~
        population: 4626
        timezone: Europe/Lisbon
      - 
        alternate_names: 
          - Valensa
          - Valenza
          - Валенса
        ascii_name: Valenza
        geonamesid: 6697257
        latitude: 42.02418
        longitude: -8.63474
        name: Valenza
        names_en: 
          - Valenza
        names_es: ~
        population: 14172
        timezone: Europe/Lisbon
      - 
        alternate_names: ~
        ascii_name: Vila
        geonamesid: 7117100
        latitude: 42.0304
        longitude: -8.1588
        name: Vila
        names_en: ~
        names_es: ~
        population: 0
        timezone: Europe/Lisbon
    geonamesid: 2732772
    name: "Viana do Castelo"
    names_en: ~
    names_es: 
      - "Viana do Castelo"
  - 
    ascii_name: "Distrito do Porto"
    cities: 
      - 
        alternate_names: 
          - "Sao Jorge"
          - "São Jorge"
          - Vizela
          - Визела
        ascii_name: Vizela
        geonamesid: 2732241
        latitude: 41.38333
        longitude: -8.25
        name: Vizela
        names_en: ~
        names_es: ~
        population: 4066
        timezone: Europe/Lisbon
      - 
        alternate_names: 
          - Vilarinho
        ascii_name: Vilarinho
        geonamesid: 2732404
        latitude: 41.35
        longitude: -8.33333
        name: Vilarinho
        names_en: ~
        names_es: ~
        population: 4177
        timezone: Europe/Lisbon
      - 
        alternate_names: ~
        ascii_name: "Vilar do Paraiso"
        geonamesid: 2732444
        latitude: 41.08333
        longitude: -8.61667
        name: "Vilar do Paraíso"
        names_en: ~
        names_es: ~
        population: 14727
        timezone: Europe/Lisbon
      - 
        alternate_names: 
          - Andorinho
          - "Vilar de Andorinha"
          - "Vilar de Andorinho"
          - "Villar d'Andorinha"
        ascii_name: "Vilar de Andorinho"
        geonamesid: 2732475
        latitude: 41.1
        longitude: -8.56667
        name: "Vilar de Andorinho"
        names_en: ~
        names_es: ~
        population: 18944
        timezone: Europe/Lisbon
      - 
        alternate_names: 
          - "Bila Noba nte Nkaia"
          - Gaia
          - "Portus Cale"
          - "Vila Nova de Gaia"
        ascii_name: "Vila Nova de Gaia"
        geonamesid: 2732544
        latitude: 41.13333
        longitude: -8.61667
        name: "Vila Nova de Gaia"
        names_en: 
          - "Vila Nova de Gaia"
        names_es: 
          - "Vila Nova de Gaia"
        population: 70811
        timezone: Europe/Lisbon
      - 
        alternate_names: ~
        ascii_name: "Vila Nova da Telha"
        geonamesid: 2732551
        latitude: 41.06667
        longitude: -8.63333
        name: "Vila Nova da Telha"
        names_en: ~
        names_es: ~
        population: 5848
        timezone: Europe/Lisbon
      - 
        alternate_names: 
          - "Bila nto Konte"
          - "Vila do Conde"
          - Vila-du-Konde
          - "Βίλα ντο Κόντε"
        ascii_name: "Vila do Conde"
        geonamesid: 2732649
        latitude: 41.35
        longitude: -8.75
        name: "Vila do Conde"
        names_en: 
          - "Vila do Conde"
        names_es: 
          - "Vila do Conde"
        population: 27642
        timezone: Europe/Lisbon
      - 
        alternate_names: 
          - Valonga
          - Valongo
          - Valongu
          - Валонгу
        ascii_name: Valongo
        geonamesid: 2732978
        latitude: 41.18333
        longitude: -8.5
        name: Valongo
        names_en: 
          - Valongo
        names_es: 
          - Valongo
        population: 21328
        timezone: Europe/Lisbon
      - 
        alternate_names: ~
        ascii_name: Valbom
        geonamesid: 2733249
        latitude: 41.13333
        longitude: -8.56667
        name: Valbom
        names_en: ~
        names_es: ~
        population: 14443
        timezone: Europe/Lisbon
      - 
        alternate_names: ~
        ascii_name: Valadares
        geonamesid: 2733262
        latitude: 41.15
        longitude: -7.98333
        name: Valadares
        names_en: ~
        names_es: ~
        population: 9255
        timezone: Europe/Lisbon
      - 
        alternate_names: ~
        ascii_name: Teloes
        geonamesid: 2733601
        latitude: 41.31667
        longitude: -8.1
        name: Telões
        names_en: ~
        names_es: ~
        population: 4675
        timezone: Europe/Lisbon
      - 
        alternate_names: ~
        ascii_name: Sobrado
        geonamesid: 2733941
        latitude: 41.2
        longitude: -8.46667
        name: Sobrado
        names_en: ~
        names_es: ~
        population: 6703
        timezone: Europe/Lisbon
      - 
        alternate_names: ~
        ascii_name: Seroa
        geonamesid: 2734069
        latitude: 41.26667
        longitude: -8.43333
        name: Seroa
        names_en: ~
        names_es: ~
        population: 4040
        timezone: Europe/Lisbon
      - 
        alternate_names: ~
        ascii_name: "Senhora da Hora"
        geonamesid: 2734140
        latitude: 41.18333
        longitude: -8.65
        name: "Senhora da Hora"
        names_en: ~
        names_es: ~
        population: 28930
        timezone: Europe/Lisbon
      - 
        alternate_names: 
          - Coronado
          - "Sao Romao do Coronado"
          - "São Romão do Coronado"
        ascii_name: "Sao Romao do Coronado"
        geonamesid: 2734339
        latitude: 41.28333
        longitude: -8.56667
        name: "São Romão do Coronado"
        names_en: ~
        names_es: ~
        population: 8697
        timezone: Europe/Lisbon
      - 
        alternate_names: ~
        ascii_name: "Sao Pedro da Cova"
        geonamesid: 2734363
        latitude: 41.15
        longitude: -8.51667
        name: "São Pedro da Cova"
        names_en: ~
        names_es: ~
        population: 17011
        timezone: Europe/Lisbon
      - 
        alternate_names: ~
        ascii_name: "Sao Miguel do Couto"
        geonamesid: 2734395
        latitude: 41.33333
        longitude: -8.46667
        name: "São Miguel do Couto"
        names_en: ~
        names_es: ~
        population: 5416
        timezone: Europe/Lisbon
      - 
        alternate_names: 
          - San-Mamed-de-Infeshta
          - "Santo Mamede de Infesta"
          - "Sao Mamede"
          - "Sao Mamede da Infesta"
        ascii_name: "Sao Mamede de Infesta"
        geonamesid: 2734434
        latitude: 41.2
        longitude: -8.6
        name: "São Mamede de Infesta"
        names_en: ~
        names_es: ~
        population: 25940
        timezone: Europe/Lisbon
      - 
        alternate_names: 
          - Marinha
          - "Sao Felix da Marinha"
          - "São Félix da Marinha"
        ascii_name: "Sao Felix da Marinha"
        geonamesid: 2734523
        latitude: 41.03333
        longitude: -8.61667
        name: "São Félix da Marinha"
        names_en: ~
        names_es: ~
        population: 11685
        timezone: Europe/Lisbon
      - 
        alternate_names: 
          - "Santo Tirso"
        ascii_name: "Santo Tirso"
        geonamesid: 2734570
        latitude: 41.35
        longitude: -8.46667
        name: "Santo Tirso"
        names_en: ~
        names_es: ~
        population: 14021
        timezone: Europe/Lisbon
      - 
        alternate_names: ~
        ascii_name: "Santa Cruz do Bispo"
        geonamesid: 2734729
        latitude: 41.21667
        longitude: -8.66667
        name: "Santa Cruz do Bispo"
        names_en: ~
        names_es: ~
        population: 6230
        timezone: Europe/Lisbon
      - 
        alternate_names: ~
        ascii_name: Sandim
        geonamesid: 2734803
        latitude: 41.03333
        longitude: -8.51667
        name: Sandim
        names_en: ~
        names_es: ~
        population: 6449
        timezone: Europe/Lisbon
      - 
        alternate_names: 
          - "Rio Tinto"
        ascii_name: "Rio Tinto"
        geonamesid: 2735083
        latitude: 41.18333
        longitude: -8.56667
        name: "Rio Tinto"
        names_en: ~
        names_es: ~
        population: 49966
        timezone: Europe/Lisbon
      - 
        alternate_names: ~
        ascii_name: Recarei
        geonamesid: 2735366
        latitude: 41.15
        longitude: -8.41667
        name: Recarei
        names_en: ~
        names_es: ~
        population: 4856
        timezone: Europe/Lisbon
      - 
        alternate_names: 
          - Rebordosa
          - Rebordoza
        ascii_name: Rebordosa
        geonamesid: 2735377
        latitude: 41.21667
        longitude: -8.4
        name: Rebordosa
        names_en: ~
        names_es: ~
        population: 11491
        timezone: Europe/Lisbon
      - 
        alternate_names: 
          - "Poboa nte Barzim"
          - "Povoa de Varzim"
          - "Póvoa de Varzim"
          - "Villa Euracini"
        ascii_name: "Povoa de Varzim"
        geonamesid: 2735787
        latitude: 41.38333
        longitude: -8.76667
        name: "Póvoa de Varzim"
        names_en: 
          - "Póvoa de Varzim"
        names_es: 
          - "Póvoa de Varzim"
        population: 29044
        timezone: Europe/Lisbon
      - 
        alternate_names: 
          - Oporto
          - Porto
          - Portu
          - "Portus Cale"
        ascii_name: Porto
        geonamesid: 2735943
        latitude: 41.15
        longitude: -8.61667
        name: Porto
        names_en: 
          - Porto
        names_es: 
          - Oporto
        population: 249633
        timezone: Europe/Lisbon
      - 
        alternate_names: 
          - Perosinho
          - Perozinho
        ascii_name: Perozinho
        geonamesid: 2736327
        latitude: 41.06667
        longitude: -8.58333
        name: Perozinho
        names_en: ~
        names_es: ~
        population: 6259
        timezone: Europe/Lisbon
      - 
        alternate_names: ~
        ascii_name: Perafita
        geonamesid: 2736391
        latitude: 41.18333
        longitude: -8.25
        name: Perafita
        names_en: ~
        names_es: ~
        population: 12538
        timezone: Europe/Lisbon
      - 
        alternate_names: 
          - Penafiel
          - Penaphiel
          - Πεναφιέλ
        ascii_name: Penafiel
        geonamesid: 2736469
        latitude: 41.2
        longitude: -8.28333
        name: Penafiel
        names_en: 
          - Penafiel
        names_es: 
          - Penafiel
        population: 8065
        timezone: Europe/Lisbon
      - 
        alternate_names: 
          - Pedroucos
          - Pedrouços
        ascii_name: Pedroucos
        geonamesid: 2736520
        latitude: 41.18333
        longitude: -8.58333
        name: Pedrouços
        names_en: ~
        names_es: ~
        population: 12553
        timezone: Europe/Lisbon
      - 
        alternate_names: ~
        ascii_name: Pedroso
        geonamesid: 2736521
        latitude: 41.41667
        longitude: -8.75
        name: Pedroso
        names_en: ~
        names_es: ~
        population: 18963
        timezone: Europe/Lisbon
      - 
        alternate_names: 
          - "Pacos de Ferreira"
          - "Pasos nte Phereira"
          - "Paços de Ferreira"
          - "Πάσος ντε Φερέϊρα"
        ascii_name: "Pacos de Ferreira"
        geonamesid: 2736883
        latitude: 41.26667
        longitude: -8.4
        name: "Paços de Ferreira"
        names_en: 
          - "Paços de Ferreira"
        names_es: 
          - "Paços de Ferreira"
        population: 6782
        timezone: Europe/Lisbon
      - 
        alternate_names: ~
        ascii_name: "Oliveira do Douro"
        geonamesid: 2737039
        latitude: 41.11667
        longitude: -8.58333
        name: "Oliveira do Douro"
        names_en: ~
        names_es: ~
        population: 24407
        timezone: Europe/Lisbon
      - 
        alternate_names: ~
        ascii_name: Olival
        geonamesid: 2737064
        latitude: 41.05
        longitude: -8.55
        name: Olival
        names_en: ~
        names_es: ~
        population: 5715
        timezone: Europe/Lisbon
      - 
        alternate_names: ~
        ascii_name: Nogueira
        geonamesid: 2737150
        latitude: 41.23333
        longitude: -8.58333
        name: Nogueira
        names_en: ~
        names_es: ~
        population: 4855
        timezone: Europe/Lisbon
      - 
        alternate_names: 
          - Negrelos
          - "Sao Tome"
          - "São Tomé"
        ascii_name: Negrelos
        geonamesid: 2737194
        latitude: 41.35
        longitude: -8.4
        name: Negrelos
        names_en: ~
        names_es: ~
        population: 6664
        timezone: Europe/Lisbon
      - 
        alternate_names: ~
        ascii_name: Moreira
        geonamesid: 2737399
        latitude: 41.05
        longitude: -8.38333
        name: Moreira
        names_en: ~
        names_es: ~
        population: 11336
        timezone: Europe/Lisbon
      - 
        alternate_names: ~
        ascii_name: Milheiros
        geonamesid: 2737671
        latitude: 41.21667
        longitude: -8.58333
        name: Milheirós
        names_en: ~
        names_es: ~
        population: 4342
        timezone: Europe/Lisbon
      - 
        alternate_names: ~
        ascii_name: Meinedo
        geonamesid: 2737769
        latitude: 41.25
        longitude: -8.25
        name: Meinedo
        names_en: ~
        names_es: ~
        population: 4416
        timezone: Europe/Lisbon
      - 
        alternate_names: 
          - Matosinhos
          - Matozinhos
        ascii_name: Matosinhos
        geonamesid: 2737824
        latitude: 41.18333
        longitude: -8.7
        name: Matosinhos
        names_en: ~
        names_es: ~
        population: 28070
        timezone: Europe/Lisbon
      - 
        alternate_names: ~
        ascii_name: Margaride
        geonamesid: 2737914
        latitude: 41.36667
        longitude: -8.2
        name: Margaride
        names_en: ~
        names_es: ~
        population: 10652
        timezone: Europe/Lisbon
      - 
        alternate_names: 
          - Maia
          - Majja
          - Майя
        ascii_name: Maia
        geonamesid: 2738014
        latitude: 41.23333
        longitude: -8.61667
        name: Maia
        names_en: ~
        names_es: ~
        population: 36426
        timezone: Europe/Lisbon
      - 
        alternate_names: ~
        ascii_name: Madalena
        geonamesid: 2738038
        latitude: 41.21667
        longitude: -8.33333
        name: Madalena
        names_en: ~
        names_es: ~
        population: 9618
        timezone: Europe/Lisbon
      - 
        alternate_names: ~
        ascii_name: Lustosa
        geonamesid: 2738106
        latitude: 41.33333
        longitude: -8.31667
        name: Lustosa
        names_en: ~
        names_es: ~
        population: 4686
        timezone: Europe/Lisbon
      - 
        alternate_names: ~
        ascii_name: Lordelo
        geonamesid: 2738224
        latitude: 41.23333
        longitude: -8.41667
        name: Lordelo
        names_en: ~
        names_es: ~
        population: 10035
        timezone: Europe/Lisbon
      - 
        alternate_names: 
          - "Leca do Bailio"
          - "Leca do Balio"
          - "Leca do Belio"
          - "Leça do Bailio"
        ascii_name: "Leca do Bailio"
        geonamesid: 2738347
        latitude: 41.2
        longitude: -8.61667
        name: "Leça do Bailio"
        names_en: ~
        names_es: ~
        population: 16103
        timezone: Europe/Lisbon
      - 
        alternate_names: 
          - Leca
          - "Leca da Palmeira"
          - "Leca de Palmeira"
