--- 
geonamesid: 2260494
iso: CG
name: "Republic of the Congo"
names_en: 
  - "Congo (Brazzaville)"
  - Congo-Brazzaville
  - "Republic of the Congo"
names_es: 
  - Congo
  - "República del Congo"
regions: 
  - 
    ascii_name: "Region de la Sangha"
    cities: 
      - 
        alternate_names: 
          - Sembe
          - Ssembe
          - Sémbé
        ascii_name: Sembe
        geonamesid: 2255304
        latitude: 1.64806
        longitude: 14.58056
        name: Sémbé
        names_en: ~
        names_es: ~
        population: 3113
        timezone: Africa/Brazzaville
      - 
        alternate_names: 
          - Ouesso
          - Ouésso
        ascii_name: Ouesso
        geonamesid: 2255564
        latitude: 1.61361
        longitude: 16.05167
        name: Ouésso
        names_en: 
          - Ouésso
        names_es: ~
        population: 23915
        timezone: Africa/Brazzaville
    geonamesid: 2255329
    name: Sangha
    names_en: ~
    names_es: ~
  - 
    ascii_name: "Region du Pool"
    cities: 
      - 
        alternate_names: ~
        ascii_name: Kinkala
        geonamesid: 2258984
        latitude: -4.36139
        longitude: 14.76444
        name: Kinkala
        names_en: ~
        names_es: ~
        population: 13882
        timezone: Africa/Brazzaville
    geonamesid: 2255404
    name: Pool
    names_en: ~
    names_es: ~
  - 
    ascii_name: "Region des Plateaux"
    cities: 
      - 
        alternate_names: ~
        ascii_name: Gamboma
        geonamesid: 2259947
        latitude: -1.87639
        longitude: 15.86444
        name: Gamboma
        names_en: ~
        names_es: ~
        population: 20877
        timezone: Africa/Brazzaville
      - 
        alternate_names: 
          - Dambala
          - Djambala
          - Djamballa
        ascii_name: Djambala
        geonamesid: 2260401
        latitude: -2.54472
        longitude: 14.75333
        name: Djambala
        names_en: 
          - Djambala
        names_es: ~
        population: 9650
        timezone: Africa/Brazzaville
    geonamesid: 2255422
    name: Plateaux
    names_en: ~
    names_es: ~
  - 
    ascii_name: "Region du Niari"
    cities: 
      - 
        alternate_names: 
          - Massendjo
          - Mossendio
          - Mossendjo
        ascii_name: Mossendjo
        geonamesid: 2256895
        latitude: -2.95056
        longitude: 12.72611
        name: Mossendjo
        names_en: ~
        names_es: ~
        population: 18231
        timezone: Africa/Brazzaville
      - 
        alternate_names: 
          - Dolisi
          - Dolisie
          - Dolosie
          - Loubomo
        ascii_name: Dolisie
        geonamesid: 2258261
        latitude: -4.19972
        longitude: 12.67389
        name: Dolisie
        names_en: 
          - Loubomo
        names_es: ~
        population: 103894
        timezone: Africa/Brazzaville
    geonamesid: 2256175
    name: Niari
    names_en: ~
    names_es: ~
  - 
    ascii_name: "Region de la Likouala"
    cities: 
      - 
        alternate_names: 
          - Desbordesville
          - Impfondo
          - Imponfo
          - Импфондо
        ascii_name: Impfondo
        geonamesid: 2259655
        latitude: 1.63806
        longitude: 18.06667
        name: Impfondo
        names_en: 
          - Impfondo
        names_es: ~
        population: 20859
        timezone: Africa/Brazzaville
    geonamesid: 2258431
    name: Likouala
    names_en: ~
    names_es: ~
  - 
    ascii_name: "Region de la Lekoumou"
    cities: 
      - 
        alternate_names: 
          - Sibidi
          - Sibiti
        ascii_name: Sibiti
        geonamesid: 2255285
        latitude: -3.68583
        longitude: 13.34583
        name: Sibiti
        names_en: 
          - Sibiti
        names_es: ~
        population: 19089
        timezone: Africa/Brazzaville
    geonamesid: 2258534
    name: Lékoumou
    names_en: ~
    names_es: ~
  - 
    ascii_name: "Region du Kouilou"
    cities: 
      - 
        alternate_names: 
          - Loandjili
          - Louantili
        ascii_name: Loandjili
        geonamesid: 2258378
        latitude: -4.75611
        longitude: 11.85778
        name: Loandjili
        names_en: ~
        names_es: ~
        population: 23204
        timezone: Africa/Brazzaville
    geonamesid: 2258738
    name: Kouilou
    names_en: ~
    names_es: ~
  - 
    ascii_name: "Region de la Cuvette"
    cities: 
      - 
        alternate_names: 
          - "Fort Pousset"
          - Fort-Rousset
          - Ouando
          - Ovando
        ascii_name: Owando
        geonamesid: 2255542
        latitude: -0.48694
        longitude: 15.90806
        name: Owando
        names_en: 
          - Owando
        names_es: ~
        population: 23952
        timezone: Africa/Brazzaville
      - 
        alternate_names: 
          - Makoua
          - Makoue
        ascii_name: Makoua
        geonamesid: 2257879
        latitude: 0.00694
        longitude: 15.63333
        name: Makoua
        names_en: ~
        names_es: ~
        population: 11355
        timezone: Africa/Brazzaville
    geonamesid: 2260487
    name: Cuvette
    names_en: ~
    names_es: ~
  - 
    ascii_name: "Region de la Bouenza"
    cities: 
      - 
        alternate_names: 
          - Madingo
          - Madingou
          - Madingu
          - Мадингу
        ascii_name: Madingou
        geonamesid: 2257990
        latitude: -4.15361
        longitude: 13.55
        name: Madingou
        names_en: ~
        names_es: ~
        population: 22760
        timezone: Africa/Brazzaville
      - 
        alternate_names: 
          - Jacob
          - Kai
          - Kajes
          - Kaye
        ascii_name: Kayes
        geonamesid: 2259383
        latitude: -4.16556
        longitude: 13.29278
        name: Kayes
        names_en: ~
        names_es: ~
        population: 58737
        timezone: Africa/Brazzaville
    geonamesid: 2260668
    name: Bouenza
    names_en: ~
    names_es: ~
  - 
    ascii_name: "Commune de Brazzaville"
    cities: 
      - 
        alternate_names: 
          - Braza
          - Brazavil
          - Brazavilis
          - Brazavilo
        ascii_name: Brazzaville
        geonamesid: 2260535
        latitude: -4.2669
        longitude: 15.28327
        name: Brazzaville
        names_en: 
          - Brazzaville
        names_es: 
          - Brazzaville
        population: 1284609
        timezone: Africa/Brazzaville
    geonamesid: 2572183
    name: Brazzaville
    names_en: ~
    names_es: ~
  - 
    ascii_name: "Region de la Cuvette-Ouest"
    cities: 
      - 
        alternate_names: 
          - Eouo
          - Ewo
        ascii_name: Ewo
        geonamesid: 2260009
        latitude: -0.8725
        longitude: 14.82056
        name: Ewo
        names_en: ~
        names_es: ~
        population: 4923
        timezone: Africa/Brazzaville
    geonamesid: 2593118
    name: Cuvette-Ouest
    names_en: ~
    names_es: ~
  - 
    ascii_name: Pointe-Noire
    cities: 
      - 
        alternate_names: 
          - Pointe-Noire
          - Puehnt-Nuar
          - "Puent Nuaras"
          - puaengteunualeu
        ascii_name: Pointe-Noire
        geonamesid: 2255414
        latitude: -4.79472
        longitude: 11.84611
        name: Pointe-Noire
        names_en: 
          - Pointe-Noire
        names_es: 
          - Pointe-Noire
        population: 659084
        timezone: Africa/Brazzaville
    geonamesid: 7280295
    name: Pointe-Noire
    names_en: ~
    names_es: ~
