--- 
geonamesid: 2403846
iso: SL
name: "Sierra Leone"
names_en: 
  - "Sierra Leone"
names_es: 
  - "Sierra Leona"
regions: 
  - 
    ascii_name: "Western Area"
    cities: 
      - 
        alternate_names: 
          - Waterloo
        ascii_name: Waterloo
        geonamesid: 2403094
        latitude: 8.33833
        longitude: -13.07194
        name: Waterloo
        names_en: ~
        names_es: ~
        population: 19750
        timezone: Africa/Freetown
      - 
        alternate_names: 
          - Hastings
        ascii_name: Hastings
        geonamesid: 2408582
        latitude: 8.37972
        longitude: -13.13861
        name: Hastings
        names_en: ~
        names_es: ~
        population: 5121
        timezone: Africa/Freetown
      - 
        alternate_names: 
          - Fritaun
          - Funkia
          - Godrich
          - Фритаун
        ascii_name: Freetown
        geonamesid: 2408770
        latitude: 8.43194
        longitude: -13.28972
        name: Freetown
        names_en: ~
        names_es: ~
        population: 13768
        timezone: Africa/Freetown
      - 
        alternate_names: 
          - Freetown
          - Fritaun
          - Fritaunas
          - Fritauno
        ascii_name: Freetown
        geonamesid: 2409306
        latitude: 8.484
        longitude: -13.22994
        name: Freetown
        names_en: 
          - Freetown
        names_es: 
          - Freetown
        population: 802639
        timezone: Africa/Freetown
    geonamesid: 2403068
    name: "Western Area"
    names_en: 
      - "Western Area"
    names_es: ~
  - 
    ascii_name: "Southern Province"
    cities: 
      - 
        alternate_names: 
          - Zimi
          - Zimmi
        ascii_name: Zimmi
        geonamesid: 2402689
        latitude: 7.31528
        longitude: -11.30611
        name: Zimmi
        names_en: ~
        names_es: ~
        population: 4796
        timezone: Africa/Freetown
      - 
        alternate_names: ~
        ascii_name: Tongole
        geonamesid: 2403303
        latitude: 7.45
        longitude: -11.9
        name: Tongole
        names_en: ~
        names_es: ~
        population: 3492
        timezone: Africa/Freetown
      - 
        alternate_names: ~
        ascii_name: Sumbuya
        geonamesid: 2403698
        latitude: 7.64667
        longitude: -11.96111
        name: Sumbuya
        names_en: ~
        names_es: ~
        population: 7074
        timezone: Africa/Freetown
      - 
        alternate_names: ~
        ascii_name: Serabu
        geonamesid: 2403896
        latitude: 7.79583
        longitude: -12.05361
        name: Serabu
        names_en: ~
        names_es: ~
        population: 4261
        timezone: Africa/Freetown
      - 
        alternate_names: ~
        ascii_name: Rotifunk
        geonamesid: 2404254
        latitude: 8.23333
        longitude: -12.68333
        name: Rotifunk
        names_en: ~
        names_es: ~
        population: 4858
        timezone: Africa/Freetown
      - 
        alternate_names: ~
        ascii_name: Potoru
        geonamesid: 2404423
        latitude: 7.50722
        longitude: -11.47861
        name: Potoru
        names_en: ~
        names_es: ~
        population: 4937
        timezone: Africa/Freetown
      - 
        alternate_names: ~
        ascii_name: Moyamba
        geonamesid: 2405013
        latitude: 8.16667
        longitude: -12.43333
        name: Moyamba
        names_en: ~
        names_es: ~
        population: 6700
        timezone: Africa/Freetown
      - 
        alternate_names: 
          - Mogbembo
          - Mogbwemo
        ascii_name: Mogbwemo
        geonamesid: 2405274
        latitude: 7.76944
        longitude: -12.31056
        name: Mogbwemo
        names_en: ~
        names_es: ~
        population: 2900
        timezone: Africa/Freetown
      - 
        alternate_names: ~
        ascii_name: Mamboma
        geonamesid: 2406142
        latitude: 8.08333
        longitude: -11.68333
        name: Mamboma
        names_en: ~
        names_es: ~
        population: 5201
        timezone: Africa/Freetown
      - 
        alternate_names: 
          - Lago
          - Largo
        ascii_name: Lago
        geonamesid: 2407089
        latitude: 8.26667
        longitude: -12.15
        name: Lago
        names_en: ~
        names_es: ~
        population: 3441
        timezone: Africa/Freetown
      - 
        alternate_names: ~
        ascii_name: Koribundu
        geonamesid: 2407428
        latitude: 7.71139
        longitude: -11.69222
        name: Koribundu
        names_en: ~
        names_es: ~
        population: 4617
        timezone: Africa/Freetown
      - 
        alternate_names: ~
        ascii_name: Gandorhun
        geonamesid: 2409215
        latitude: 7.5
        longitude: -11.83333
        name: Gandorhun
        names_en: ~
        names_es: ~
        population: 10678
        timezone: Africa/Freetown
      - 
        alternate_names: ~
        ascii_name: Foindu
        geonamesid: 2409382
        latitude: 7.41083
        longitude: -11.54222
        name: Foindu
        names_en: ~
        names_es: ~
        population: 5868
        timezone: Africa/Freetown
      - 
        alternate_names: ~
        ascii_name: Bumpe
        geonamesid: 2409823
        latitude: 7.89194
        longitude: -11.9025
        name: Bumpe
        names_en: ~
        names_es: ~
        population: 13580
        timezone: Africa/Freetown
      - 
        alternate_names: 
          - Bonth
          - Bonthe
        ascii_name: Bonthe
        geonamesid: 2409914
        latitude: 7.52639
        longitude: -12.505
        name: Bonthe
        names_en: ~
        names_es: ~
        population: 9647
        timezone: Africa/Freetown
      - 
        alternate_names: ~
        ascii_name: Bomi
        geonamesid: 2409970
        latitude: 7.24611
        longitude: -11.52583
        name: Bomi
        names_en: ~
        names_es: ~
        population: 5463
        timezone: Africa/Freetown
      - 
        alternate_names: 
          - Bo
          - Бо
        ascii_name: Bo
        geonamesid: 2410048
        latitude: 7.96472
        longitude: -11.73833
        name: Bo
        names_en: 
          - Bo
        names_es: ~
        population: 174354
        timezone: Africa/Freetown
      - 
        alternate_names: ~
        ascii_name: Baiima
        geonamesid: 2410624
        latitude: 8.1
        longitude: -11.85
        name: Baiima
        names_en: ~
        names_es: ~
        population: 3771
        timezone: Africa/Freetown
      - 
        alternate_names: ~
        ascii_name: Gbewebu
        geonamesid: 2570857
        latitude: 7.55222
        longitude: -11.60639
        name: Gbewebu
        names_en: ~
        names_es: ~
        population: 4122
        timezone: Africa/Freetown
      - 
        alternate_names: ~
        ascii_name: Pujehun
        geonamesid: 2571039
        latitude: 7.35806
        longitude: -11.72083
        name: Pujehun
        names_en: ~
        names_es: ~
        population: 7926
        timezone: Africa/Freetown
    geonamesid: 2403745
    name: "Southern Province"
    names_en: 
      - "Southern Province"
    names_es: ~
  - 
    ascii_name: "Northern Province"
    cities: 
      - 
        alternate_names: ~
        ascii_name: Yonibana
        geonamesid: 2402715
        latitude: 8.44472
        longitude: -12.245
        name: Yonibana
        names_en: ~
        names_es: ~
        population: 3589
        timezone: Africa/Freetown
      - 
        alternate_names: 
          - Tintafor
          - Tintfor
        ascii_name: Tintafor
        geonamesid: 2403407
        latitude: 8.62667
        longitude: -13.215
        name: Tintafor
        names_en: ~
        names_es: ~
        population: 5460
        timezone: Africa/Freetown
      - 
        alternate_names: ~
        ascii_name: Seidu
        geonamesid: 2404036
        latitude: 9.01667
        longitude: -10.6
        name: Seidu
        names_en: ~
        names_es: ~
        population: 2243
        timezone: Africa/Freetown
      - 
        alternate_names: ~
        ascii_name: Sawkta
        geonamesid: 2404067
        latitude: 8.63194
        longitude: -13.20194
        name: Sawkta
        names_en: ~
        names_es: ~
        population: 3452
        timezone: Africa/Freetown
      - 
        alternate_names: ~
        ascii_name: Rokupr
        geonamesid: 2404303
        latitude: 8.67167
        longitude: -12.395
        name: Rokupr
        names_en: ~
        names_es: ~
        population: 12504
        timezone: Africa/Freetown
      - 
        alternate_names: 
          - "Port Loka"
          - "Port Lokko"
          - "Port Loko"
          - Port-Loko
        ascii_name: "Port Loko"
        geonamesid: 2404433
        latitude: 8.76667
        longitude: -12.78333
        name: "Port Loko"
        names_en: ~
        names_es: ~
        population: 21308
        timezone: Africa/Freetown
      - 
        alternate_names: 
          - Pepel
        ascii_name: Pepel
        geonamesid: 2404607
        latitude: 8.58167
        longitude: -13.06278
        name: Pepel
        names_en: ~
        names_es: ~
        population: 4462
        timezone: Africa/Freetown
      - 
        alternate_names: ~
        ascii_name: Masoyila
        geonamesid: 2405701
        latitude: 8.60972
        longitude: -13.19
        name: Masoyila
        names_en: ~
        names_es: ~
        population: 3658
        timezone: Africa/Freetown
      - 
        alternate_names: ~
        ascii_name: Masingbi
        geonamesid: 2405729
        latitude: 8.78333
        longitude: -11.95
        name: Masingbi
        names_en: ~
        names_es: ~
        population: 5644
        timezone: Africa/Freetown
      - 
        alternate_names: ~
        ascii_name: Masaka
        geonamesid: 2405841
        latitude: 8.66667
        longitude: -11.8
        name: Masaka
        names_en: ~
        names_es: ~
        population: 3219
        timezone: Africa/Freetown
      - 
        alternate_names: ~
        ascii_name: Mange
        geonamesid: 2406067
        latitude: 8.91667
        longitude: -12.85
        name: Mange
        names_en: ~
        names_es: ~
        population: 3339
        timezone: Africa/Freetown
      - 
        alternate_names: 
          - Mambola
          - Mambolo
        ascii_name: Mambolo
        geonamesid: 2406145
        latitude: 8.92306
        longitude: -13.04444
        name: Mambolo
        names_en: ~
        names_es: ~
        population: 6624
        timezone: Africa/Freetown
      - 
        alternate_names: 
          - Makeni
          - Макени
        ascii_name: Makeni
        geonamesid: 2406407
        latitude: 8.88333
        longitude: -12.05
        name: Makeni
        names_en: ~
        names_es: ~
        population: 87679
        timezone: Africa/Freetown
      - 
        alternate_names: ~
        ascii_name: Makali
        geonamesid: 2406473
        latitude: 8.63333
        longitude: -11.66667
        name: Makali
        names_en: ~
        names_es: ~
        population: 3550
        timezone: Africa/Freetown
      - 
        alternate_names: 
          - Magburaka
          - Magburuka
        ascii_name: Magburaka
        geonamesid: 2406576
        latitude: 8.71667
        longitude: -11.95
        name: Magburaka
        names_en: ~
        names_es: ~
        population: 14915
        timezone: Africa/Freetown
      - 
        alternate_names: 
          - Lansar
          - Lunsar
          - Lunsare
          - Лунсаре
        ascii_name: Lunsar
        geonamesid: 2406916
        latitude: 8.68333
        longitude: -12.53333
        name: Lunsar
        names_en: ~
        names_es: ~
        population: 22461
        timezone: Africa/Freetown
      - 
        alternate_names: ~
        ascii_name: Loma
        geonamesid: 2406963
        latitude: 9.75
        longitude: -12.03333
        name: Loma
        names_en: ~
        names_es: ~
        population: 3435
        timezone: Africa/Freetown
      - 
        alternate_names: 
          - Kakuna
          - Kukuna
        ascii_name: Kukuna
        geonamesid: 2407262
        latitude: 9.4
        longitude: -12.66667
        name: Kukuna
        names_en: ~
        names_es: ~
        population: 7676
        timezone: Africa/Freetown
      - 
        alternate_names: 
          - Karsarai
          - Kasiri
          - Kassiri
        ascii_name: Kassiri
        geonamesid: 2407899
        latitude: 8.93722
        longitude: -13.12444
        name: Kassiri
        names_en: ~
        names_es: ~
        population: 5161
        timezone: Africa/Freetown
      - 
        alternate_names: 
          - Kambia
        ascii_name: Kambia
        geonamesid: 2408088
        latitude: 9.11667
        longitude: -12.91667
        name: Kambia
        names_en: ~
        names_es: ~
        population: 11520
        timezone: Africa/Freetown
      - 
        alternate_names: 
          - Kamakwie
          - Makwi
          - Makwie
        ascii_name: Kamakwie
        geonamesid: 2408154
        latitude: 9.5
        longitude: -12.23333
        name: Kamakwie
        names_en: ~
        names_es: ~
        population: 8098
        timezone: Africa/Freetown
      - 
        alternate_names: 
          - Kabala
          - Kaballa
        ascii_name: Kabala
        geonamesid: 2408329
        latitude: 9.58333
        longitude: -11.55
        name: Kabala
        names_en: ~
        names_es: ~
        population: 17948
        timezone: Africa/Freetown
      - 
        alternate_names: ~
        ascii_name: "Gberia Fotombu"
        geonamesid: 2409019
        latitude: 9.88333
        longitude: -11.16667
        name: "Gberia Fotombu"
        names_en: ~
        names_es: ~
        population: 3034
        timezone: Africa/Freetown
      - 
        alternate_names: ~
        ascii_name: Bumbuna
        geonamesid: 2409829
        latitude: 9.05
        longitude: -11.73333
        name: Bumbuna
        names_en: ~
        names_es: ~
        population: 3222
        timezone: Africa/Freetown
      - 
        alternate_names: ~
        ascii_name: Bindi
        geonamesid: 2410093
        latitude: 9.91667
        longitude: -11.45
        name: Bindi
        names_en: ~
        names_es: ~
        population: 3188
        timezone: Africa/Freetown
      - 
        alternate_names: ~
        ascii_name: Alikalia
        geonamesid: 2410708
        latitude: 9.16667
        longitude: -11.4
        name: Alikalia
        names_en: ~
        names_es: ~
        population: 3138
        timezone: Africa/Freetown
      - 
        alternate_names: ~
        ascii_name: Konakridee
        geonamesid: 2566569
        latitude: 8.69778
        longitude: -13.23917
        name: Konakridee
        names_en: ~
        names_es: ~
        population: 3104
        timezone: Africa/Freetown
    geonamesid: 2404798
    name: "Northern Province"
    names_en: 
      - "Northern Province"
    names_es: ~
  - 
    ascii_name: "Eastern Province"
    cities: 
      - 
        alternate_names: ~
        ascii_name: Yengema
        geonamesid: 2402816
        latitude: 8.71667
        longitude: -11.16667
        name: Yengema
        names_en: ~
        names_es: ~
        population: 11221
        timezone: Africa/Freetown
      - 
        alternate_names: ~
        ascii_name: Wima
        geonamesid: 2403056
        latitude: 8.3
        longitude: -11.21667
        name: Wima
        names_en: ~
        names_es: ~
        population: 3691
        timezone: Africa/Freetown
      - 
        alternate_names: ~
        ascii_name: Tombu
        geonamesid: 2403322
        latitude: 8.53333
        longitude: -10.73333
        name: Tombu
        names_en: ~
        names_es: ~
        population: 4005
        timezone: Africa/Freetown
      - 
        alternate_names: 
          - Fobu
          - Tombodu
        ascii_name: Tombodu
        geonamesid: 2403324
        latitude: 8.13333
        longitude: -10.61667
        name: Tombodu
        names_en: ~
        names_es: ~
        population: 5985
        timezone: Africa/Freetown
      - 
        alternate_names: 
          - Tefea
          - Tefee
        ascii_name: Tefea
        geonamesid: 2403513
        latitude: 8.7
        longitude: -11.21667
        name: Tefea
        names_en: ~
        names_es: ~
        population: 3544
        timezone: Africa/Freetown
      - 
        alternate_names: ~
        ascii_name: Simbakoro
        geonamesid: 2403828
        latitude: 8.6
        longitude: -11.01667
        name: Simbakoro
        names_en: ~
        names_es: ~
        population: 2514
        timezone: Africa/Freetown
      - 
        alternate_names: ~
        ascii_name: Peyima
        geonamesid: 2404472
        latitude: 8.7
        longitude: -11.03333
        name: Peyima
        names_en: ~
        names_es: ~
        population: 2705
        timezone: Africa/Freetown
      - 
        alternate_names: ~
        ascii_name: Pendembu
        geonamesid: 2404614
        latitude: 8.1
        longitude: -10.7
        name: Pendembu
        names_en: ~
        names_es: ~
        population: 8780
        timezone: Africa/Freetown
      - 
        alternate_names: ~
        ascii_name: Panguma
        geonamesid: 2404663
        latitude: 8.18333
        longitude: -11.13333
        name: Panguma
        names_en: ~
        names_es: ~
        population: 7965
        timezone: Africa/Freetown
      - 
        alternate_names: 
          - Giehun
          - Ngiehun
        ascii_name: Ngiehun
        geonamesid: 2404876
        latitude: 8.55
        longitude: -11.05
        name: Ngiehun
        names_en: ~
        names_es: ~
        population: 2845
        timezone: Africa/Freetown
      - 
        alternate_names: ~
        ascii_name: Motema
        geonamesid: 2405038
        latitude: 8.6
        longitude: -11.03333
        name: Motema
        names_en: ~
        names_es: ~
        population: 5474
        timezone: Africa/Freetown
      - 
        alternate_names: ~
        ascii_name: Mobai
        geonamesid: 2405347
        latitude: 7.99444
        longitude: -10.75111
        name: Mobai
        names_en: ~
        names_es: ~
        population: 3441
        timezone: Africa/Freetown
      - 
        alternate_names: ~
        ascii_name: Manowa
        geonamesid: 2405952
        latitude: 8.16667
        longitude: -10.75
        name: Manowa
        names_en: ~
        names_es: ~
        population: 4214
        timezone: Africa/Freetown
      - 
        alternate_names: ~
        ascii_name: Koidu
        geonamesid: 2407660
        latitude: 8.41667
        longitude: -10.83333
        name: Koidu
        names_en: ~
        names_es: ~
        population: 87539
        timezone: Africa/Freetown
      - 
        alternate_names: 
          - Kenema
          - Keneme
          - Кенеме
        ascii_name: Kenema
        geonamesid: 2407790
        latitude: 7.87667
        longitude: -11.1875
        name: Kenema
        names_en: 
          - Kenema
        names_es: ~
        population: 143137
        timezone: Africa/Freetown
      - 
        alternate_names: ~
        ascii_name: Kayima
        geonamesid: 2407829
        latitude: 8.88333
        longitude: -11.16667
        name: Kayima
        names_en: ~
        names_es: ~
        population: 1881
        timezone: Africa/Freetown
      - 
        alternate_names: 
          - Kailahun
        ascii_name: Kailahun
        geonamesid: 2408250
        latitude: 8.28333
        longitude: -10.56667
        name: Kailahun
        names_en: ~
        names_es: ~
        population: 14085
        timezone: Africa/Freetown
      - 
        alternate_names: 
          - Joioima
          - Jojoima
        ascii_name: Jojoima
        geonamesid: 2408399
        latitude: 7.87917
        longitude: -10.78778
        name: Jojoima
        names_en: ~
        names_es: ~
        population: 3136
        timezone: Africa/Freetown
      - 
        alternate_names: ~
        ascii_name: Hangha
        geonamesid: 2408585
        latitude: 7.94111
        longitude: -11.14
        name: Hangha
        names_en: ~
        names_es: ~
        population: 5007
        timezone: Africa/Freetown
      - 
        alternate_names: ~
        ascii_name: Gorahun
        geonamesid: 2408683
        latitude: 7.46611
        longitude: -11.2375
        name: Gorahun
        names_en: ~
        names_es: ~
        population: 4089
        timezone: Africa/Freetown
      - 
        alternate_names: ~
        ascii_name: Giehun
        geonamesid: 2408845
        latitude: 7.88333
        longitude: -11.05
        name: Giehun
        names_en: ~
        names_es: ~
        population: 3350
        timezone: Africa/Freetown
      - 
        alternate_names: ~
        ascii_name: Daru
        geonamesid: 2409663
        latitude: 7.99194
        longitude: -10.84056
        name: Daru
        names_en: ~
        names_es: ~
        population: 5958
        timezone: Africa/Freetown
      - 
        alternate_names: 
          - Buedu
          - Bwedu
        ascii_name: Bwedu
        geonamesid: 2409751
        latitude: 8.28028
        longitude: -10.37194
        name: Bwedu
        names_en: ~
        names_es: ~
        population: 5412
        timezone: Africa/Freetown
      - 
        alternate_names: ~
        ascii_name: Bunumbu
        geonamesid: 2409783
        latitude: 8.16667
        longitude: -10.86667
        name: Bunumbu
        names_en: ~
        names_es: ~
        population: 7355
        timezone: Africa/Freetown
      - 
        alternate_names: ~
        ascii_name: Boajibu
        geonamesid: 2410040
        latitude: 8.18333
        longitude: -11.33333
        name: Boajibu
        names_en: ~
        names_es: ~
        population: 7384
        timezone: Africa/Freetown
      - 
        alternate_names: ~
        ascii_name: Blama
        geonamesid: 2410065
        latitude: 7.87361
        longitude: -11.34333
        name: Blama
        names_en: ~
        names_es: ~
        population: 8146
        timezone: Africa/Freetown
      - 
        alternate_names: ~
        ascii_name: Barma
        geonamesid: 2410312
        latitude: 8.35
        longitude: -11.33333
        name: Barma
        names_en: ~
        names_es: ~
        population: 7529
        timezone: Africa/Freetown
    geonamesid: 2409543
    name: "Eastern Province"
    names_en: 
      - "Eastern Province"
    names_es: ~
