--- 
geonamesid: 51537
iso: SO
name: Somalia
names_en: 
  - Somalia
names_es: 
  - Somalia
regions: 
  - 
    ascii_name: "Gobolka Woqooyi Galbeed"
    cities: 
      - 
        alternate_names: 
          - Hargeisa
          - Hargesa
          - Hargeysa
          - Khargejse
        ascii_name: Hargeysa
        geonamesid: 57289
        latitude: 9.56
        longitude: 44.065
        name: Hargeysa
        names_en: ~
        names_es: ~
        population: 477876
        timezone: Africa/Mogadishu
      - 
        alternate_names: 
          - Berbera
          - Berberah
          - Berbere
          - "bai pei la"
        ascii_name: Berbera
        geonamesid: 64435
        latitude: 10.43556
        longitude: 45.01639
        name: Berbera
        names_en: 
          - Berbera
        names_es: 
          - Berbera
        population: 242344
        timezone: Africa/Mogadishu
    geonamesid: 50360
    name: "Woqooyi Galbeed"
    names_en: ~
    names_es: ~
  - 
    ascii_name: "Gobolka Togdheer"
    cities: 
      - 
        alternate_names: 
          - Odweina
          - Odweine
          - Odweyne
          - Oodweeyne
        ascii_name: Oodweyne
        geonamesid: 53372
        latitude: 9.40806
        longitude: 45.06222
        name: Oodweyne
        names_en: ~
        names_es: ~
        population: 5491
        timezone: Africa/Mogadishu
      - 
        alternate_names: 
          - Aik
          - Ceek
          - Ceg
          - Eik
        ascii_name: Ceek
        geonamesid: 62854
        latitude: 8.99694
        longitude: 45.35861
        name: Ceek
        names_en: ~
        names_es: ~
        population: 4325
        timezone: Africa/Mogadishu
      - 
        alternate_names: 
          - "Bur `o"
          - "Bur ‘ó"
          - Burao
          - Burco
        ascii_name: Burao
        geonamesid: 63795
        latitude: 9.52417
        longitude: 45.53694
        name: Burao
        names_en: 
          - Burco
          - Burao
        names_es: 
          - Burao
        population: 99270
        timezone: Africa/Mogadishu
    geonamesid: 51230
    name: Togdheer
    names_en: ~
    names_es: ~
  - 
    ascii_name: "Gobolka Shabeellaha Hoose"
    cities: 
      - 
        alternate_names: 
          - "Bahle Dogli"
          - "Uanle Uen"
          - Wangleweyn
          - "Wanla Uen"
        ascii_name: Wanlaweyn
        geonamesid: 50672
        latitude: 2.61912
        longitude: 44.89258
        name: Wanlaweyn
        names_en: ~
        names_es: ~
        population: 22022
        timezone: Africa/Mogadishu
      - 
        alternate_names: 
          - Coriole
          - Coriolei
          - Koriolay
          - Qoreyole
        ascii_name: Qoryooley
        geonamesid: 52867
        latitude: 1.78333
        longitude: 44.53333
        name: Qoryooley
        names_en: ~
        names_es: ~
        population: 51720
        timezone: Africa/Mogadishu
      - 
        alternate_names: ~
        ascii_name: "Mahadday Weyne"
        geonamesid: 54460
        latitude: 2.9748
        longitude: 45.53285
        name: "Mahadday Weyne"
        names_en: ~
        names_es: ~
        population: 8273
        timezone: Africa/Mogadishu
      - 
        alternate_names: 
          - Afgoi
          - Afgoje
          - Afgooye
          - Afgoye
        ascii_name: Afgooye
        geonamesid: 65785
        latitude: 2.13998
        longitude: 45.12002
        name: Afgooye
        names_en: ~
        names_es: ~
        population: 65461
        timezone: Africa/Mogadishu
    geonamesid: 51966
    name: "Shabeellaha Hoose"
    names_en: ~
    names_es: ~
  - 
    ascii_name: "Middle Shabele"
    cities: 
      - 
        alternate_names: 
          - Giohar
          - Jawhar
          - Johar
          - Joher
        ascii_name: Giohar
        geonamesid: 56335
        latitude: 2.78087
        longitude: 45.50048
        name: Giohar
        names_en: 
          - Giohar
        names_es: ~
        population: 47086
        timezone: Africa/Mogadishu
      - 
        alternate_names: 
          - Adale
          - Cadale
          - Ilala
          - Itala
        ascii_name: Cadale
        geonamesid: 63344
        latitude: 2.76006
        longitude: 46.32277
        name: Cadale
        names_en: ~
        names_es: ~
        population: 5385
        timezone: Africa/Mogadishu
    geonamesid: 51967
    name: "Middle Shabele"
    names_en: 
      - "Middle Shabele"
    names_es: ~
  - 
    ascii_name: "Gobolka Sanaag"
    cities: 
      - 
        alternate_names: 
          - "Banden Laskhonai"
          - Laasqoray
          - "Las Goni"
          - "Las Khonai"
        ascii_name: Laasqoray
        geonamesid: 55223
        latitude: 11.15671
        longitude: 48.19818
        name: Laasqoray
        names_en: ~
        names_es: ~
        population: 6941
        timezone: Africa/Mogadishu
      - 
        alternate_names: 
          - Ceerigaabo
          - Cerigaabo
          - Erigabo
          - Erigavo
        ascii_name: Erigavo
        geonamesid: 62691
        latitude: 10.61806
        longitude: 47.37
        name: Erigavo
        names_en: 
          - Erigavo
        names_es: ~
        population: 33853
        timezone: Africa/Mogadishu
    geonamesid: 52187
    name: Sanaag
    names_en: ~
    names_es: ~
  - 
    ascii_name: "Gobolka Nugaal"
    cities: 
      - 
        alternate_names: 
          - Garoe
          - Garoowe
          - Garoway
          - Garowe
        ascii_name: Garoowe
        geonamesid: 58933
        latitude: 8.40536
        longitude: 48.48446
        name: Garoowe
        names_en: ~
        names_es: ~
        population: 0
        timezone: Africa/Mogadishu
      - 
        alternate_names: 
          - Ayl
          - Ceel
          - Eeyl
          - Eil
        ascii_name: Eyl
        geonamesid: 60019
        latitude: 7.98333
        longitude: 49.81667
        name: Eyl
        names_en: ~
        names_es: ~
        population: 18904
        timezone: Africa/Mogadishu
    geonamesid: 53477
    name: Nugaal
    names_en: ~
    names_es: ~
  - 
    ascii_name: "Gobolka Mudug"
    cities: 
      - 
        alternate_names: 
          - Adim
          - Harardera
          - Harardere
          - Harardére
        ascii_name: Xarardheere
        geonamesid: 50064
        latitude: 4.6544
        longitude: 47.8575
        name: Xarardheere
        names_en: ~
        names_es: ~
        population: 2018
        timezone: Africa/Mogadishu
      - 
        alternate_names: 
          - Hobiya
          - Hobya
          - Hobyaa
          - Hobyo
        ascii_name: Hobyo
        geonamesid: 57000
        latitude: 5.35139
        longitude: 48.52556
        name: Hobyo
        names_en: ~
        names_es: ~
        population: 12564
        timezone: Africa/Mogadishu
      - 
        alternate_names: 
          - Gaalkacyo
          - Galcaio
          - Galka`yo'
          - Galka‘yo’
        ascii_name: Galcaio
        geonamesid: 59611
        latitude: 6.76972
        longitude: 47.43083
        name: Galcaio
        names_en: 
          - Gaalkacyo
          - Galcaio
        names_es: ~
        population: 61200
        timezone: Africa/Mogadishu
    geonamesid: 53707
    name: Mudug
    names_en: ~
    names_es: ~
  - 
    ascii_name: "Lower Juba"
    cities: 
      - 
        alternate_names: 
          - Chisimaio
          - Chisimayu
          - Kisimayo
          - Kisimayu
        ascii_name: Chisimayu
        geonamesid: 55671
        latitude: -0.35817
        longitude: 42.54536
        name: Chisimayu
        names_en: 
          - Kismayo
          - Chisimayu
        names_es: 
          - Kismaayo
        population: 234852
        timezone: Africa/Mogadishu
      - 
        alternate_names: 
          - Giamama
          - Giamame
          - Giamana
          - Giamane
        ascii_name: Jamaame
        geonamesid: 56399
        latitude: 0.07222
        longitude: 42.75056
        name: Jamaame
        names_en: 
          - Jamaame
        names_es: ~
        population: 185270
        timezone: Africa/Mogadishu
      - 
        alternate_names: 
          - Bircao
          - "Bur Gabo"
          - "Bur Gap"
          - "Bur Gavo"
        ascii_name: "Buur Gaabo"
        geonamesid: 63580
        latitude: -1.21825
        longitude: 41.83788
        name: "Buur Gaabo"
        names_en: ~
        names_es: ~
        population: 3096
        timezone: Africa/Mogadishu
    geonamesid: 56083
    name: "Lower Juba"
    names_en: 
      - "Lower Juba"
    names_es: ~
  - 
    ascii_name: "Middle Juba"
    cities: 
      - 
        alternate_names: 
          - Dzhilib
          - Gelib
          - Jeelib
          - Jilib
        ascii_name: Jilib
        geonamesid: 56166
        latitude: 0.49583
        longitude: 42.77278
        name: Jilib
        names_en: ~
        names_es: ~
        population: 43694
        timezone: Africa/Mogadishu
      - 
        alternate_names: 
          - Digiuma
          - Dugiuma
          - Dujuma
          - Dujuuma
        ascii_name: Dujuuma
        geonamesid: 60457
        latitude: 1.25333
        longitude: 42.57083
        name: Dujuuma
        names_en: ~
        names_es: ~
        population: 2432
        timezone: Africa/Mogadishu
    geonamesid: 56084
    name: "Middle Juba"
    names_en: 
      - "Middle Juba"
    names_es: ~
  - 
    ascii_name: "Gobolka Hiiraan"
    cities: 
      - 
        alternate_names: 
          - Gialalassi
          - Jalalaqsi
        ascii_name: Jalalaqsi
        geonamesid: 56414
        latitude: 3.37911
        longitude: 45.59892
        name: Jalalaqsi
        names_en: ~
        names_es: ~
        population: 9743
        timezone: Africa/Mogadishu
      - 
        alternate_names: 
          - "Bulo Berde"
          - "Bulo Burti"
          - Buulo
          - "Buulo Berde"
        ascii_name: Buulobarde
        geonamesid: 63689
        latitude: 3.85366
        longitude: 45.56557
        name: Buulobarde
        names_en: ~
        names_es: ~
        population: 16928
        timezone: Africa/Mogadishu
      - 
        alternate_names: 
          - "Balad Weyn"
          - Belai-Wen
          - "Beled Weyn"
          - Beleduehjne
        ascii_name: Beledweyne
        geonamesid: 64460
        latitude: 4.73583
        longitude: 45.20361
        name: Beledweyne
        names_en: ~
        names_es: ~
        population: 55410
        timezone: Africa/Mogadishu
    geonamesid: 57060
    name: Hiiraan
    names_en: ~
    names_es: ~
  - 
    ascii_name: "Gobolka Gedo"
    cities: 
      - 
        alternate_names: 
          - Lugh
          - "Lugh Ferrandi"
          - "Lugh Ganana"
          - "Lugh Ganane"
        ascii_name: Luuq
        geonamesid: 54715
        latitude: 3.79651
        longitude: 42.54421
        name: Luuq
        names_en: ~
        names_es: ~
        population: 33820
        timezone: Africa/Mogadishu
      - 
        alternate_names: 
          - "Garba Harey"
          - "Garba Harre"
          - Garbahaarrey
        ascii_name: Garbahaarrey
        geonamesid: 58994
        latitude: 3.31627
        longitude: 42.22085
        name: Garbahaarrey
        names_en: ~
        names_es: ~
        population: 12652
        timezone: Africa/Mogadishu
    geonamesid: 58802
    name: Gedo
    names_en: ~
    names_es: ~
  - 
    ascii_name: "Gobolka Galguduud"
    cities: 
      - 
        alternate_names: 
          - Ceeldheer
          - Ceeldheere
          - "El Dere"
        ascii_name: Ceeldheere
        geonamesid: 62788
        latitude: 3.84878
        longitude: 47.18064
        name: Ceeldheere
        names_en: ~
        names_es: ~
        population: 26562
        timezone: Africa/Mogadishu
      - 
        alternate_names: 
          - Ceelbuur
          - "El Bur"
        ascii_name: Ceelbuur
        geonamesid: 62821
        latitude: 4.68501
        longitude: 46.6176
        name: Ceelbuur
        names_en: ~
        names_es: ~
        population: 9031
        timezone: Africa/Mogadishu
    geonamesid: 59362
    name: Galguduud
    names_en: ~
    names_es: ~
  - 
    ascii_name: "Gobolka Bay"
    cities: 
      - 
        alternate_names: 
          - "Bur Acaba"
          - "Bur Hacaba"
          - Burhakaba
          - "Buur Hakkaba"
        ascii_name: Buurhakaba
        geonamesid: 63571
        latitude: 2.79649
        longitude: 44.08101
        name: Buurhakaba
        names_en: ~
        names_es: ~
        population: 27792
        timezone: Africa/Mogadishu
      - 
        alternate_names: 
          - Baidabho
          - Baidabo
          - Baidoa
          - Bajdoa
        ascii_name: Baidoa
        geonamesid: 64536
        latitude: 3.11667
        longitude: 43.65
        name: Baidoa
        names_en: 
          - Baidoa
        names_es: ~
        population: 129839
        timezone: Africa/Mogadishu
    geonamesid: 64538
    name: Bay
    names_en: ~
    names_es: ~
  - 
    ascii_name: "Gobolka Bari"
    cities: 
      - 
        alternate_names: 
          - Candala
          - Kandala
          - Qandala
        ascii_name: Qandala
        geonamesid: 53157
        latitude: 11.47245
        longitude: 49.87159
        name: Qandala
        names_en: ~
        names_es: ~
        population: 15923
        timezone: Africa/Mogadishu
      - 
        alternate_names: 
          - Iskushuban
          - Scusciuban
          - Skushuban
        ascii_name: Iskushuban
        geonamesid: 56505
        latitude: 10.28418
        longitude: 50.23141
        name: Iskushuban
        names_en: ~
        names_es: ~
        population: 5759
        timezone: Africa/Mogadishu
      - 
        alternate_names: 
          - "Bandar Kassim"
          - "Bender Cassim"
          - "Bender Qaasin"
          - "Bender Qasin"
        ascii_name: "Bender Cassim"
        geonamesid: 64013
        latitude: 11.28421
        longitude: 49.18158
        name: "Bender Cassim"
        names_en: 
          - Bosaso
          - "Bender Cassim"
        names_es: ~
        population: 74287
        timezone: Africa/Mogadishu
      - 
        alternate_names: 
          - Bareda
          - Bareeda
          - Barēdá
          - Bereda
        ascii_name: Bereeda
        geonamesid: 64412
        latitude: 11.87063
        longitude: 51.05912
        name: Bereeda
        names_en: ~
        names_es: ~
        population: 11262
        timezone: Africa/Mogadishu
      - 
        alternate_names: 
          - Baargaal
          - Bargaal
          - Bargal
        ascii_name: Bargaal
        geonamesid: 64670
        latitude: 11.28549
        longitude: 51.07706
        name: Bargaal
        names_en: ~
        names_es: ~
        population: 6798
        timezone: Africa/Mogadishu
      - 
        alternate_names: 
          - Bandarbeyla
          - "Bender Bayla"
          - "Bender Beila"
          - "Bender Beyla"
        ascii_name: Bandarbeyla
        geonamesid: 64814
        latitude: 9.49426
        longitude: 50.81224
        name: Bandarbeyla
        names_en: ~
        names_es: ~
        population: 13753
        timezone: Africa/Mogadishu
    geonamesid: 64661
    name: Bari
    names_en: ~
    names_es: ~
  - 
    ascii_name: "Gobolka Banaadir"
    cities: 
      - 
        alternate_names: 
          - Magadiscio
          - Maqdishu
          - Mogadiisho
          - Mogadisa
        ascii_name: Mogadishu
        geonamesid: 53654
        latitude: 2.03711
        longitude: 45.34375
        name: Mogadishu
        names_en: 
          - Mogadishu
        names_es: 
          - Mogadiscio
        population: 2587183
        timezone: Africa/Mogadishu
    geonamesid: 64833
    name: Banaadir
    names_en: ~
    names_es: ~
  - 
    ascii_name: "Gobolka Bakool"
    cities: 
      - 
        alternate_names: 
          - Iet
          - Yed
          - Yeed
          - Yeid
        ascii_name: Yeed
        geonamesid: 49593
        latitude: 4.55
        longitude: 43.03333
        name: Yeed
        names_en: ~
        names_es: ~
        population: 8429
        timezone: Africa/Mogadishu
      - 
        alternate_names: 
          - Uegit
          - Waajid
          - Wadjid
          - Wajid
        ascii_name: Waajid
        geonamesid: 50814
        latitude: 3.80958
        longitude: 43.24628
        name: Waajid
        names_en: ~
        names_es: ~
        population: 6666
        timezone: Africa/Mogadishu
      - 
        alternate_names: 
          - Tayeegle
          - Tayeeglow
          - Tayegle
          - Tayēgle
        ascii_name: Tayeeglow
        geonamesid: 51299
        latitude: 4.01897
        longitude: 44.51112
        name: Tayeeglow
        names_en: ~
        names_es: ~
        population: 2119
        timezone: Africa/Mogadishu
    geonamesid: 64982
    name: Bakool
    names_en: ~
    names_es: ~
  - 
    ascii_name: "Gobolka Awdal"
    cities: []
    geonamesid: 6268943
    name: Awdal
    names_en: ~
    names_es: ~
  - 
    ascii_name: "Gobolka Sool"
    cities: 
      - 
        alternate_names: 
          - Laascaanood
          - "Las Anod"
        ascii_name: Laascaanood
        geonamesid: 400769
        latitude: 8.47556
        longitude: 47.35778
        name: Laascaanood
        names_en: 
          - "Las Anod"
        names_es: ~
        population: 60100
        timezone: Africa/Mogadishu
    geonamesid: 6268947
    name: Sool
    names_en: ~
    names_es: ~
