--- 
geonamesid: 953987
iso: ZA
name: "South Africa"
names_en: 
  - "South Africa"
names_es: 
  - Sudáfrica
regions: 
  - 
    ascii_name: "Free State"
    cities: 
      - 
        alternate_names: ~
        ascii_name: Zastron
        geonamesid: 937246
        latitude: -30.3
        longitude: 27.08333
        name: Zastron
        names_en: ~
        names_es: ~
        population: 12449
        timezone: Africa/Johannesburg
      - 
        alternate_names: 
          - Winburg
        ascii_name: Winburg
        geonamesid: 939608
        latitude: -28.53333
        longitude: 27.01667
        name: Winburg
        names_en: ~
        names_es: ~
        population: 11072
        timezone: Africa/Johannesburg
      - 
        alternate_names: 
          - Wesselsbron
        ascii_name: Wesselsbron
        geonamesid: 940424
        latitude: -27.85
        longitude: 26.36667
        name: Wesselsbron
        names_en: ~
        names_es: ~
        population: 42552
        timezone: Africa/Johannesburg
      - 
        alternate_names: 
          - Welkom
        ascii_name: Welkom
        geonamesid: 940909
        latitude: -27.98333
        longitude: 26.73333
        name: Welkom
        names_en: ~
        names_es: ~
        population: 431944
        timezone: Africa/Johannesburg
      - 
        alternate_names: 
          - Vredefort
        ascii_name: Vredefort
        geonamesid: 942683
        latitude: -27.01667
        longitude: 27.38333
        name: Vredefort
        names_en: ~
        names_es: ~
        population: 10649
        timezone: Africa/Johannesburg
      - 
        alternate_names: ~
        ascii_name: Vrede
        geonamesid: 942701
        latitude: -27.41667
        longitude: 29.16667
        name: Vrede
        names_en: ~
        names_es: ~
        population: 14622
        timezone: Africa/Johannesburg
      - 
        alternate_names: 
          - Virdzhinija
          - Virginia
          - Вирджиния
        ascii_name: Virginia
        geonamesid: 943882
        latitude: -28.11667
        longitude: 26.9
        name: Virginia
        names_en: 
          - Virginia
        names_es: ~
        population: 122502
        timezone: Africa/Johannesburg
      - 
        alternate_names: 
          - Villiers
        ascii_name: Villiers
        geonamesid: 943937
        latitude: -27.03333
        longitude: 28.6
        name: Villiers
        names_en: ~
        names_es: ~
        population: 11240
        timezone: Africa/Johannesburg
      - 
        alternate_names: 
          - Viljoenskroon
        ascii_name: Viljoenskroon
        geonamesid: 943960
        latitude: -27.21667
        longitude: 26.95
        name: Viljoenskroon
        names_en: ~
        names_es: ~
        population: 54955
        timezone: Africa/Johannesburg
      - 
        alternate_names: 
          - Ventersburg
        ascii_name: Ventersburg
        geonamesid: 944540
        latitude: -28.08333
        longitude: 27.13333
        name: Ventersburg
        names_en: ~
        names_es: ~
        population: 10698
        timezone: Africa/Johannesburg
      - 
        alternate_names: 
          - Tenissen
          - Theunissen
          - Тениссен
        ascii_name: Theunissen
        geonamesid: 949282
        latitude: -28.4
        longitude: 26.71667
        name: Theunissen
        names_en: ~
        names_es: ~
        population: 34718
        timezone: Africa/Johannesburg
      - 
        alternate_names: 
          - "Thaba Nchu"
          - Thabantsjoe
        ascii_name: "Thaba Nchu"
        geonamesid: 949703
        latitude: -29.21667
        longitude: 26.83333
        name: "Thaba Nchu"
        names_en: ~
        names_es: ~
        population: 38616
        timezone: Africa/Johannesburg
      - 
        alternate_names: 
          - Senekal
        ascii_name: Senekal
        geonamesid: 956507
        latitude: -28.31667
        longitude: 27.6
        name: Senekal
        names_en: ~
        names_es: ~
        population: 39584
        timezone: Africa/Johannesburg
      - 
        alternate_names: 
          - Sasolburg
        ascii_name: Sasolburg
        geonamesid: 957487
        latitude: -26.81358
        longitude: 27.81695
        name: Sasolburg
        names_en: 
          - Sasolburg
        names_es: ~
        population: 77016
        timezone: Africa/Johannesburg
      - 
        alternate_names: 
          - Reitz
        ascii_name: Reitz
        geonamesid: 962847
        latitude: -27.8
        longitude: 28.43333
        name: Reitz
        names_en: ~
        names_es: ~
        population: 16637
        timezone: Africa/Johannesburg
      - 
        alternate_names: 
          - Phutaditjhaba
          - Phuthaditjhaba
        ascii_name: Phuthaditjhaba
        geonamesid: 965401
        latitude: -28.53333
        longitude: 28.81667
        name: Phuthaditjhaba
        names_en: 
          - Phuthaditjhaba
        names_es: 
          - Phuthaditjhaba
        population: 84258
        timezone: Africa/Johannesburg
      - 
        alternate_names: 
          - Paris
          - Parys
          - Парис
        ascii_name: Parys
        geonamesid: 966166
        latitude: -26.9
        longitude: 27.45
        name: Parys
        names_en: 
          - Parys
        names_es: ~
        population: 71319
        timezone: Africa/Johannesburg
      - 
        alternate_names: 
          - Marquard
        ascii_name: Marquard
        geonamesid: 978677
        latitude: -28.66667
        longitude: 27.43333
        name: Marquard
        names_en: ~
        names_es: ~
        population: 10839
        timezone: Africa/Johannesburg
      - 
        alternate_names: 
          - Ladybrand
        ascii_name: Ladybrand
        geonamesid: 985015
        latitude: -29.2
        longitude: 27.45
        name: Ladybrand
        names_en: ~
        names_es: ~
        population: 17228
        timezone: Africa/Johannesburg
      - 
        alternate_names: ~
        ascii_name: Kutloanong
        geonamesid: 986083
        latitude: -27.83333
        longitude: 26.75
        name: Kutloanong
        names_en: ~
        names_es: ~
        population: 95008
        timezone: Africa/Johannesburg
      - 
        alternate_names: 
          - Kroonstad
        ascii_name: Kroonstad
        geonamesid: 986846
        latitude: -27.65
        longitude: 27.23333
        name: Kroonstad
        names_en: ~
        names_es: ~
        population: 103992
        timezone: Africa/Johannesburg
      - 
        alternate_names: 
          - Kopjes
          - Koppies
        ascii_name: Koppies
        geonamesid: 987875
        latitude: -27.23333
        longitude: 27.58333
        name: Koppies
        names_en: ~
        names_es: ~
        population: 11445
        timezone: Africa/Johannesburg
      - 
        alternate_names: 
          - Hoopstad
        ascii_name: Hoopstad
        geonamesid: 995573
        latitude: -27.83333
        longitude: 25.91667
        name: Hoopstad
        names_en: ~
        names_es: ~
        population: 12663
        timezone: Africa/Johannesburg
      - 
        alternate_names: 
          - Hennenman
        ascii_name: Hennenman
        geonamesid: 996918
        latitude: -27.96667
        longitude: 27.03333
        name: Hennenman
        names_en: ~
        names_es: ~
        population: 22847
        timezone: Africa/Johannesburg
      - 
        alternate_names: ~
        ascii_name: Heilbron
        geonamesid: 997140
        latitude: -27.28333
        longitude: 27.96667
        name: Heilbron
        names_en: ~
        names_es: ~
        population: 55196
        timezone: Africa/Johannesburg
      - 
        alternate_names: 
          - Harrismith
        ascii_name: Harrismith
        geonamesid: 997751
        latitude: -28.28333
        longitude: 29.13333
        name: Harrismith
        names_en: ~
        names_es: ~
        population: 35108
        timezone: Africa/Johannesburg
      - 
        alternate_names: ~
        ascii_name: Frankfort
        geonamesid: 1003764
        latitude: -27.26667
        longitude: 28.48333
        name: Frankfort
        names_en: ~
        names_es: ~
        population: 38006
        timezone: Africa/Johannesburg
      - 
        alternate_names: 
          - Deneysville
          - Denysville
        ascii_name: Deneysville
        geonamesid: 1010962
        latitude: -26.88333
        longitude: 28.1
        name: Deneysville
        names_en: ~
        names_es: ~
        population: 12397
        timezone: Africa/Johannesburg
      - 
        alternate_names: 
          - Clocolan
        ascii_name: Clocolan
        geonamesid: 1013266
        latitude: -28.9
        longitude: 27.56667
        name: Clocolan
        names_en: ~
        names_es: ~
        population: 12318
        timezone: Africa/Johannesburg
      - 
        alternate_names: 
          - Brandfort
        ascii_name: Brandfort
        geonamesid: 1015969
        latitude: -28.7
        longitude: 26.46667
        name: Brandfort
        names_en: ~
        names_es: ~
        population: 12091
        timezone: Africa/Johannesburg
      - 
        alternate_names: ~
        ascii_name: Botshabelo
        geonamesid: 1016670
        latitude: -29.23333
        longitude: 26.73333
        name: Botshabelo
        names_en: ~
        names_es: ~
        population: 309714
        timezone: Africa/Johannesburg
      - 
        alternate_names: 
          - Botavill'
          - Bothaville
          - Ботавилль
        ascii_name: Bothaville
        geonamesid: 1016698
        latitude: -27.36667
        longitude: 26.61667
        name: Bothaville
        names_en: 
          - Bothaville
        names_es: ~
        population: 71934
        timezone: Africa/Johannesburg
      - 
        alternate_names: 
          - Bloemfontein
          - Blumfonteinas
          - Blumfontejn
          - Mploumphontein
        ascii_name: Bloemfontein
        geonamesid: 1018725
        latitude: -29.13333
        longitude: 26.2
        name: Bloemfontein
        names_en: 
          - Bloemfontein
        names_es: 
          - Bloemfontein
        population: 463064
        timezone: Africa/Johannesburg
      - 
        alternate_names: 
          - Bethlehem
          - Vifleem
          - Вифлеем
        ascii_name: Bethlehem
        geonamesid: 1019704
        latitude: -28.23333
        longitude: 28.3
        name: Bethlehem
        names_en: 
          - Bethlehem
        names_es: ~
        population: 83654
        timezone: Africa/Johannesburg
      - 
        alternate_names: 
          - Allanridge
        ascii_name: Allanridge
        geonamesid: 1023287
        latitude: -27.75
        longitude: 26.66667
        name: Allanridge
        names_en: ~
        names_es: ~
        population: 31700
        timezone: Africa/Johannesburg
    geonamesid: 967573
    name: "Free State"
    names_en: ~
    names_es: ~
  - 
    ascii_name: KwaZulu-Natal
    cities: 
      - 
        alternate_names: 
          - Vryheid
        ascii_name: Vryheid
        geonamesid: 942470
        latitude: -27.76667
        longitude: 30.8
        name: Vryheid
        names_en: ~
        names_es: ~
        population: 150012
        timezone: Africa/Johannesburg
      - 
        alternate_names: 
          - Utrecht
        ascii_name: Utrecht
        geonamesid: 945813
        latitude: -27.65
        longitude: 30.33333
        name: Utrecht
        names_en: ~
        names_es: ~
        population: 3575
        timezone: Africa/Johannesburg
      - 
        alternate_names: 
          - Umkomaas
        ascii_name: Umkomaas
        geonamesid: 946128
        latitude: -30.2
        longitude: 30.8
        name: Umkomaas
        names_en: ~
        names_es: ~
        population: 20410
        timezone: Africa/Johannesburg
      - 
        alternate_names: 
          - Ulundi
          - Улунди
        ascii_name: Ulundi
        geonamesid: 946257
        latitude: -28.33333
        longitude: 31.41667
        name: Ulundi
        names_en: ~
        names_es: ~
        population: 20753
        timezone: Africa/Johannesburg
      - 
        alternate_names: ~
        ascii_name: Sundumbili
        geonamesid: 951441
        latitude: -29.13333
        longitude: 31.4
        name: Sundumbili
        names_en: ~
        names_es: ~
        population: 12455
        timezone: Africa/Johannesburg
      - 
        alternate_names: 
          - KwaDukuza
          - Stanger
          - "Stanger Station"
        ascii_name: Stanger
        geonamesid: 952734
        latitude: -29.33333
        longitude: 31.3
        name: Stanger
        names_en: 
          - KwaDukuza
        names_es: ~
        population: 59899
        timezone: Africa/Johannesburg
      - 
        alternate_names: 
          - Scottburg
          - Scottburgh
          - Scottsburgh
        ascii_name: Scottburgh
        geonamesid: 956878
        latitude: -30.28333
        longitude: 30.75
        name: Scottburgh
        names_en: ~
        names_es: ~
        population: 23949
        timezone: Africa/Johannesburg
      - 
        alternate_names: ~
        ascii_name: Richmond
        geonamesid: 962330
        latitude: -29.86667
        longitude: 30.26667
        name: Richmond
        names_en: ~
        names_es: ~
        population: 32445
        timezone: Africa/Johannesburg
      - 
        alternate_names: 
          - "Richards Bay"
          - Richardsbaai
        ascii_name: "Richards Bay"
        geonamesid: 962367
        latitude: -28.8
        longitude: 32.1
        name: "Richards Bay"
        names_en: ~
        names_es: ~
        population: 252968
        timezone: Africa/Johannesburg
      - 
        alternate_names: 
          - "Port Shepstone"
        ascii_name: "Port Shepstone"
        geonamesid: 964406
        latitude: -30.75
        longitude: 30.45
        name: "Port Shepstone"
        names_en: ~
        names_es: ~
        population: 52793
        timezone: Africa/Johannesburg
      - 
        alternate_names: 
          - Maritzburg
          - Pietermaritsburg
          - Pietermaritzburg
          - Pitermaricburg
        ascii_name: Pietermaritzburg
        geonamesid: 965301
        latitude: -29.61667
        longitude: 30.38333
        name: Pietermaritzburg
        names_en: 
          - Pietermaritzburg
        names_es: 
          - Pietermaritzburg
        population: 750845
        timezone: Africa/Johannesburg
      - 
        alternate_names: 
          - Newcastle
        ascii_name: Newcastle
        geonamesid: 971421
        latitude: -27.75
        longitude: 29.93333
        name: Newcastle
        names_en: ~
        names_es: ~
        population: 404838
        timezone: Africa/Johannesburg
      - 
        alternate_names: ~
        ascii_name: Mpumalanga
        geonamesid: 973111
        latitude: -29.81667
        longitude: 30.61667
        name: Mpumalanga
        names_en: ~
        names_es: ~
        population: 140121
        timezone: Africa/Johannesburg
      - 
        alternate_names: ~
        ascii_name: Mpophomeni
        geonamesid: 973139
        latitude: -29.56667
        longitude: 30.2
        name: Mpophomeni
        names_en: ~
        names_es: ~
        population: 26229
        timezone: Africa/Johannesburg
      - 
        alternate_names: 
          - "Mooi River"
          - Mooirivier
        ascii_name: Mooirivier
        geonamesid: 974222
        latitude: -29.2
        longitude: 29.98333
        name: Mooirivier
        names_en: 
          - "Mooi River"
        names_es: ~
        population: 10132
        timezone: Africa/Johannesburg
      - 
        alternate_names: ~
        ascii_name: Mondlo
        geonamesid: 974670
        latitude: -27.98333
        longitude: 30.71667
        name: Mondlo
        names_en: ~
        names_es: ~
        population: 44922
        timezone: Africa/Johannesburg
      - 
        alternate_names: 
          - Berkleys
          - Margate
          - "Margate No. 4"
        ascii_name: Margate
        geonamesid: 978895
        latitude: -30.85
        longitude: 30.36667
        name: Margate
        names_en: ~
        names_es: ~
        population: 34407
        timezone: Africa/Johannesburg
      - 
        alternate_names: ~
        ascii_name: Kokstad
        geonamesid: 988356
        latitude: -30.55
        longitude: 29.41667
        name: Kokstad
        names_en: ~
        names_es: ~
        population: 25373
        timezone: Africa/Johannesburg
      - 
        alternate_names: 
          - Howick
        ascii_name: Howick
        geonamesid: 995202
        latitude: -29.46667
        longitude: 30.23333
        name: Howick
        names_en: ~
        names_es: ~
        population: 28725
        timezone: Africa/Johannesburg
      - 
        alternate_names: 
          - Greytown
        ascii_name: Greytown
        geonamesid: 1000006
        latitude: -29.06667
        longitude: 30.58333
        name: Greytown
        names_en: ~
        names_es: ~
        population: 13912
        timezone: Africa/Johannesburg
      - 
        alternate_names: 
          - Glencoe
        ascii_name: Glencoe
        geonamesid: 1001736
        latitude: -28.18333
        longitude: 30.15
        name: Glencoe
        names_en: ~
        names_es: ~
        population: 13547
        timezone: Africa/Johannesburg
      - 
        alternate_names: 
          - "Esikhawini Township"
          - eSikhawini
        ascii_name: eSikhawini
        geonamesid: 1005029
        latitude: -28.88333
        longitude: 31.9
        name: eSikhawini
        names_en: ~
        names_es: ~
        population: 49265
        timezone: Africa/Johannesburg
      - 
        alternate_names: 
          - Eshowe
        ascii_name: Eshowe
        geonamesid: 1005040
        latitude: -28.88333
        longitude: 31.46667
        name: Eshowe
        names_en: ~
        names_es: ~
        population: 14786
        timezone: Africa/Johannesburg
      - 
        alternate_names: 
          - Empangeni
        ascii_name: Empangeni
        geonamesid: 1005544
        latitude: -28.75
        longitude: 31.9
        name: Empangeni
        names_en: ~
        names_es: ~
        population: 28093
        timezone: Africa/Johannesburg
      - 
        alternate_names: ~
        ascii_name: Ekuvukeni
        geonamesid: 1006420
        latitude: -28.46667
        longitude: 30.15
        name: Ekuvukeni
        names_en: ~
        names_es: ~
        population: 14331
        timezone: Africa/Johannesburg
      - 
        alternate_names: 
          - Durban
          - Durbanas
          - IThekwini
          - "Port Natal"
        ascii_name: Durban
        geonamesid: 1007311
        latitude: -29.85
        longitude: 31.01667
        name: Durban
        names_en: 
          - Durban
        names_es: 
          - Durban
        population: 3120282
        timezone: Africa/Johannesburg
      - 
        alternate_names: 
          - Dandi
          - Dundee
          - Данди
        ascii_name: Dundee
        geonamesid: 1007400
        latitude: -28.16667
        longitude: 30.23333
        name: Dundee
        names_en: 
          - Dundee
        names_es: ~
        population: 84413
        timezone: Africa/Johannesburg
      - 
        alternate_names: ~
        ascii_name: Berea
        geonamesid: 1020066
        latitude: -29.85185
        longitude: 30.99337
        name: Berea
        names_en: ~
        names_es: ~
        population: 15000
        timezone: Africa/Johannesburg
      - 
        alternate_names: ~
        ascii_name: Ballitoville
        geonamesid: 1021360
        latitude: -29.55
        longitude: 31.2
        name: Ballitoville
        names_en: ~
        names_es: ~
        population: 17218
        timezone: Africa/Johannesburg
    geonamesid: 972062
    name: KwaZulu-Natal
    names_en: 
      - KwaZulu-Natal
    names_es: ~
  - 
    ascii_name: "Province of Eastern Cape"
    cities: 
      - 
        alternate_names: ~
        ascii_name: Willowmore
        geonamesid: 939676
        latitude: -33.28333
        longitude: 23.48333
        name: Willowmore
        names_en: ~
        names_es: ~
        population: 7100
        timezone: Africa/Johannesburg
      - 
        alternate_names: ~
        ascii_name: Whittlesea
        geonamesid: 940186
        latitude: -32.16667
        longitude: 26.81667
        name: Whittlesea
        names_en: ~
        names_es: ~
        population: 12080
        timezone: Africa/Johannesburg
      - 
        alternate_names: 
          - Umtata
          - Умтата
        ascii_name: Umtata
        geonamesid: 946058
        latitude: -31.58333
        longitude: 28.78333
        name: Umtata
        names_en: ~
        names_es: ~
        population: 78663
        timezone: Africa/Johannesburg
      - 
        alternate_names: 
          - Uitenhage
        ascii_name: Uitenhage
        geonamesid: 946877
        latitude: -33.76528
        longitude: 25.40222
        name: Uitenhage
        names_en: 
          - Uitenhage
        names_es: ~
        population: 228912
        timezone: Africa/Johannesburg
      - 
        alternate_names: 
          - Stutterheim
        ascii_name: Stutterheim
        geonamesid: 951650
        latitude: -32.56667
        longitude: 27.41667
        name: Stutterheim
        names_en: ~
        names_es: ~
        population: 35510
        timezone: Africa/Johannesburg
      - 
        alternate_names: 
          - "Somerset East"
          - Somerset-Oos
        ascii_name: "Somerset East"
        geonamesid: 954161
        latitude: -32.71667
        longitude: 25.58333
        name: "Somerset East"
        names_en: ~
        names_es: ~
        population: 16155
        timezone: Africa/Johannesburg
      - 
        alternate_names: 
          - Kvinstaun
          - Queenstown
          - Квинстаун
        ascii_name: Queenstown
        geonamesid: 963516
        latitude: -31.9
        longitude: 26.88333
        name: Queenstown
        names_en: ~
        names_es: ~
        population: 105309
        timezone: Africa/Johannesburg
      - 
        alternate_names: ~
        ascii_name: Queensdale
        geonamesid: 963525
        latitude: -31.86667
        longitude: 26.98333
        name: Queensdale
        names_en: ~
        names_es: ~
        population: 20009
        timezone: Africa/Johannesburg
      - 
        alternate_names: 
          - "Port Saint John's"
          - "Port Saint John’s"
          - Umzimvubu
        ascii_name: "Port Saint John's"
        geonamesid: 964408
        latitude: -31.63333
        longitude: 29.53333
        name: "Port Saint John’s"
        names_en: ~
        names_es: ~
        population: 5939
        timezone: Africa/Johannesburg
      - 
        alternate_names: 
          - "Port Elizabet"
          - "Port Elizabetas"
          - "Port Elizabeth"
          - "Порт Елизабет"
        ascii_name: "Port Elizabeth"
        geonamesid: 964420
        latitude: -33.96667
        longitude: 25.58333
        name: "Port Elizabeth"
        names_en: 
          - "Port Elizabeth"
        names_es: 
          - "Port Elizabeth"
        population: 967677
        timezone: Africa/Johannesburg
      - 
        alternate_names: 
          - Kowie
          - "Port Alfred"
          - "The Kowie"
        ascii_name: "Port Alfred"
        geonamesid: 964432
        latitude: -33.6
        longitude: 26.9
        name: "Port Alfred"
        names_en: ~
        names_es: ~
        population: 17959
        timezone: Africa/Johannesburg
      - 
        alternate_names: ~
        ascii_name: Molteno
        geonamesid: 974719
        latitude: -31.4
        longitude: 26.36667
        name: Molteno
        names_en: ~
        names_es: ~
        population: 10078
        timezone: Africa/Johannesburg
      - 
        alternate_names: ~
        ascii_name: Middelburg
        geonamesid: 976358
        latitude: -31.48333
        longitude: 25.01667
        name: Middelburg
        names_en: ~
        names_es: ~
        population: 18164
        timezone: Africa/Johannesburg
      - 
        alternate_names: ~
        ascii_name: "Lady Frere"
        geonamesid: 985011
        latitude: -31.7
        longitude: 27.23333
        name: "Lady Frere"
        names_en: ~
        names_es: ~
        population: 25041
        timezone: Africa/Johannesburg
      - 
        alternate_names: ~
        ascii_name: Kruisfontein
        geonamesid: 986717
        latitude: -34.0
        longitude: 24.73333
        name: Kruisfontein
        names_en: ~
        names_es: ~
        population: 18991
        timezone: Africa/Johannesburg
      - 
        alternate_names: 
          - Kirkwood
        ascii_name: Kirkwood
        geonamesid: 990802
        latitude: -33.41556
        longitude: 25.44361
        name: Kirkwood
        names_en: ~
        names_es: ~
        population: 10148
        timezone: Africa/Johannesburg
      - 
        alternate_names: 
          - "Jeffrey's Bay"
          - Jeffreysbaai
          - "Jeffrey’s Bay"
        ascii_name: "Jeffrey's Bay"
        geonamesid: 993911
        latitude: -34.05
        longitude: 24.91667
        name: "Jeffrey’s Bay"
        names_en: ~
        names_es: ~
        population: 11698
        timezone: Africa/Johannesburg
      - 
        alternate_names: ~
        ascii_name: Ilinge
        geonamesid: 994939
        latitude: -31.96667
        longitude: 27.05
        name: Ilinge
        names_en: ~
        names_es: ~
        population: 10899
        timezone: Africa/Johannesburg
      - 
        alternate_names: 
          - Grahamstad
          - Grahamstown
        ascii_name: Grahamstown
        geonamesid: 1000501
        latitude: -33.3
        longitude: 26.53333
        name: Grahamstown
        names_en: 
          - Grahamstown
        names_es: ~
        population: 91548
        timezone: Africa/Johannesburg
      - 
        alternate_names: 
          - "Graaf Reinet"
          - "Graaff Reinet"
          - Graaff-Reinet
        ascii_name: Graaff-Reinet
        geonamesid: 1000543
        latitude: -32.25215
        longitude: 24.53075
        name: Graaff-Reinet
        names_en: 
          - "Graaff Reinet"
        names_es: ~
        population: 62896
        timezone: Africa/Johannesburg
      - 
        alternate_names: 
          - "Fort Beaufort"
        ascii_name: "Fort Beaufort"
        geonamesid: 1003953
        latitude: -32.78333
        longitude: 26.63333
        name: "Fort Beaufort"
        names_en: ~
        names_es: ~
        population: 58419
        timezone: Africa/Johannesburg
      - 
        alternate_names: ~
        ascii_name: Elliot
        geonamesid: 1005781
        latitude: -31.33333
        longitude: 27.85
        name: Elliot
        names_en: ~
        names_es: ~
        population: 11836
        timezone: Africa/Johannesburg
      - 
        alternate_names: 
          - "Buffalo City"
          - "East London"
          - "Oos Londen"
          - Oost-Londen
        ascii_name: "East London"
        geonamesid: 1006984
        latitude: -33.01529
        longitude: 27.91162
        name: "East London"
        names_en: 
          - "East London"
          - "Buffalo City"
        names_es: ~
        population: 478676
        timezone: Africa/Johannesburg
      - 
        alternate_names: 
          - Dordrecht
        ascii_name: Dordrecht
        geonamesid: 1008858
        latitude: -31.36667
        longitude: 27.05
        name: Dordrecht
        names_en: ~
        names_es: ~
        population: 9123
        timezone: Africa/Johannesburg
      - 
        alternate_names: 
          - Cradock
        ascii_name: Cradock
        geonamesid: 1012600
        latitude: -32.18333
        longitude: 25.61667
        name: Cradock
        names_en: ~
        names_es: ~
        population: 32898
        timezone: Africa/Johannesburg
      - 
        alternate_names: 
          - Battervorta
          - Butterworth
          - Gcuwa
          - Баттерворта
        ascii_name: Butterworth
        geonamesid: 1014489
        latitude: -32.33333
        longitude: 28.15
        name: Butterworth
        names_en: ~
        names_es: ~
        population: 34353
        timezone: Africa/Johannesburg
      - 
        alternate_names: 
          - Burgersdorf
          - Burgersdorp
          - Burghersdorp
        ascii_name: Burgersdorp
        geonamesid: 1014653
        latitude: -30.98333
        longitude: 26.31667
        name: Burgersdorp
        names_en: ~
        names_es: ~
        population: 12548
        timezone: Africa/Johannesburg
      - 
        alternate_names: 
          - Bhisho
          - Bisho
          - Biso
          - Bišo
        ascii_name: Bhisho
        geonamesid: 1019330
        latitude: -32.86667
        longitude: 27.43333
        name: Bhisho
        names_en: 
          - Bhisho
        names_es: 
          - Bisho
        population: 137287
        timezone: Africa/Johannesburg
      - 
        alternate_names: 
          - "Aliwal North"
          - Aliwal-Noord
        ascii_name: "Aliwal North"
        geonamesid: 1023309
        latitude: -30.7
        longitude: 26.7
        name: "Aliwal North"
        names_en: ~
        names_es: ~
        population: 44436
        timezone: Africa/Johannesburg
      - 
        alternate_names: 
          - Alice
        ascii_name: Alice
        geonamesid: 1023332
        latitude: -32.78333
        longitude: 26.83333
        name: Alice
        names_en: ~
        names_es: ~
        population: 9788
        timezone: Africa/Johannesburg
      - 
        alternate_names: 
          - Adelaide
        ascii_name: Adelaide
        geonamesid: 1023656
        latitude: -32.7
        longitude: 26.3
        name: Adelaide
        names_en: ~
        names_es: ~
        population: 12212
        timezone: Africa/Johannesburg
    geonamesid: 1085593
    name: "Eastern Cape"
    names_en: ~
    names_es: ~
  - 
    ascii_name: Gauteng
    cities: 
      - 
        alternate_names: 
          - Roodepoort
          - Roodeport-Maraisburg
        ascii_name: Roodepoort
        geonamesid: 936374
        latitude: -26.1625
        longitude: 27.8725
        name: Roodepoort
        names_en: ~
        names_es: ~
        population: 225000
        timezone: Africa/Johannesburg
      - 
        alternate_names: 
          - Vestonarija
          - Westonaria
          - Вестонария
        ascii_name: Westonaria
        geonamesid: 940316
        latitude: -26.31667
        longitude: 27.65
        name: Westonaria
        names_en: 
          - Westonaria
        names_es: ~
        population: 156831
        timezone: Africa/Johannesburg
      - 
        alternate_names: 
          - Ferinikhing
          - Vereeniging
          - Феринихинг
        ascii_name: Vereeniging
        geonamesid: 944385
        latitude: -26.66667
        longitude: 27.93333
        name: Vereeniging
        names_en: ~
        names_es: ~
        population: 474681
        timezone: Africa/Johannesburg
      - 
        alternate_names: 
          - Vanderbijlpark
        ascii_name: Vanderbijlpark
        geonamesid: 944986
        latitude: -26.7
        longitude: 27.81667
        name: Vanderbijlpark
        names_en: 
          - Vanderbijlpark
        names_es: ~
        population: 246754
        timezone: Africa/Johannesburg
      - 
        alternate_names: ~
        ascii_name: Tembisa
        geonamesid: 949880
        latitude: -25.99889
        longitude: 28.22694
        name: Tembisa
        names_en: ~
        names_es: ~
        population: 511655
        timezone: Africa/Johannesburg
      - 
        alternate_names: 
          - Mpanzaville
          - Souehto
          - Sovetas
          - Soweto
        ascii_name: Soweto
        geonamesid: 953781
        latitude: -26.26667
        longitude: 27.86667
        name: Soweto
        names_en: 
          - Soweto
        names_es: 
          - Soweto
        population: 1695047
        timezone: Africa/Johannesburg
      - 
        alternate_names: 
          - Sandton
          - Sendton
          - Сендтон
        ascii_name: Sandton
        geonamesid: 957655
        latitude: -26.1
        longitude: 28.06667
        name: Sandton
        names_en: ~
        names_es: ~
        population: 13500
        timezone: Africa/Johannesburg
      - 
        alternate_names: ~
        ascii_name: Randfontein
        geonamesid: 963230
        latitude: -26.1844
        longitude: 27.70203
        name: Randfontein
        names_en: ~
        names_es: ~
        population: 133654
        timezone: Africa/Johannesburg
      - 
        alternate_names: 
          - Cvaneo
          - Pretoria
          - "Pretoria/Pole tou Akroteriou"
          - Pretorija
        ascii_name: Pretoria
        geonamesid: 964137
        latitude: -25.74486
        longitude: 28.18783
        name: Pretoria
        names_en: 
          - Pretoria
        names_es: 
          - Pretoria
        population: 1619438
        timezone: Africa/Johannesburg
      - 
        alternate_names: 
          - Najdzhel
          - Nigel
          - Найджел
        ascii_name: Nigel
        geonamesid: 970566
        latitude: -26.41667
        longitude: 28.46667
        name: Nigel
        names_en: 
          - Nigel
        names_es: ~
        population: 140644
        timezone: Africa/Johannesburg
      - 
        alternate_names: ~
        ascii_name: Muldersdriseloop
        geonamesid: 972673
        latitude: -26.03333
        longitude: 27.83333
        name: Muldersdriseloop
        names_en: ~
        names_es: ~
        population: 1500
        timezone: Africa/Johannesburg
      - 
        alternate_names: ~
        ascii_name: Modderfontein
        geonamesid: 975144
        latitude: -26.08909
        longitude: 28.16534
        name: Modderfontein
        names_en: ~
        names_es: ~
        population: 3000
        timezone: Africa/Johannesburg
      - 
        alternate_names: ~
        ascii_name: Mabopane
        geonamesid: 980921
        latitude: -25.50722
        longitude: 28.1075
        name: Mabopane
        names_en: ~
        names_es: ~
        population: 97417
        timezone: Africa/Johannesburg
      - 
        alternate_names: 
          - Krjugersdorpa
          - Krugersdorp
          - Krugersdorpas
          - Крюгерсдорпа
        ascii_name: Krugersdorp
        geonamesid: 986822
        latitude: -26.1
        longitude: 27.76667
        name: Krugersdorp
        names_en: 
          - Krugersdorp
        names_es: ~
        population: 378821
        timezone: Africa/Johannesburg
      - 
        alternate_names: 
          - EGoli
          - IGoli
          - Jo'anna
          - Joanesburgo
        ascii_name: Johannesburg
        geonamesid: 993800
        latitude: -26.20227
        longitude: 28.04363
        name: Johannesburg
        names_en: 
          - Jo'anna
          - Johannesburg
        names_es: 
          - Johannesburgo
        population: 2026469
        timezone: Africa/Johannesburg
      - 
        alternate_names: 
          - Gejdel'berg
          - Heidelberg
          - Heidelburg
          - Гейдельберг
        ascii_name: Heidelberg
        geonamesid: 997151
        latitude: -26.5
        longitude: 28.35
        name: Heidelberg
        names_en: ~
        names_es: ~
        population: 64199
        timezone: Africa/Johannesburg
      - 
        alternate_names: 
          - Cullinan
          - Kullinan
          - Куллинан
        ascii_name: Cullinan
        geonamesid: 1012413
        latitude: -25.67556
        longitude: 28.52222
        name: Cullinan
        names_en: ~
        names_es: ~
        population: 25490
        timezone: Africa/Johannesburg
      - 
        alternate_names: 
          - Carletonville
        ascii_name: Carletonville
        geonamesid: 1014073
        latitude: -26.36667
        longitude: 27.4
        name: Carletonville
        names_en: 
          - Carletonville
        names_es: ~
        population: 182304
        timezone: Africa/Johannesburg
      - 
        alternate_names: 
          - Bronkhorstspruit
          - Erasmus
        ascii_name: Bronkhorstspruit
        geonamesid: 1015504
        latitude: -25.80833
        longitude: 28.74056
        name: Bronkhorstspruit
        names_en: ~
        names_es: ~
        population: 27343
        timezone: Africa/Johannesburg
      - 
        alternate_names: 
          - Brakpan
        ascii_name: Brakpan
        geonamesid: 1016181
        latitude: -26.23333
        longitude: 28.36667
        name: Brakpan
        names_en: 
          - Brakpan
        names_es: ~
        population: 305692
        timezone: Africa/Johannesburg
      - 
        alternate_names: 
          - Boksburg
        ascii_name: Boksburg
        geonamesid: 1017780
        latitude: -26.21667
        longitude: 28.25
        name: Boksburg
        names_en: 
          - Boksburg
        names_es: ~
        population: 445168
        timezone: Africa/Johannesburg
      - 
        alternate_names: 
          - Benoni
        ascii_name: Benoni
        geonamesid: 1020098
        latitude: -26.18333
        longitude: 28.31667
        name: Benoni
        names_en: ~
        names_es: ~
        population: 605344
        timezone: Africa/Johannesburg
      - 
        alternate_names: ~
        ascii_name: Ekangala
        geonamesid: 1105726
        latitude: -25.69444
        longitude: 28.74833
        name: Ekangala
        names_en: ~
        names_es: ~
        population: 37650
        timezone: Africa/Johannesburg
      - 
        alternate_names: 
          - Midrand
          - Мидранд
        ascii_name: Midrand
        geonamesid: 1105776
        latitude: -25.96361
        longitude: 28.13778
        name: Midrand
        names_en: ~
        names_es: ~
        population: 173009
        timezone: Africa/Johannesburg
      - 
        alternate_names: 
          - Centurion
          - Verwoerdburg
          - centurion
          - Центурион
        ascii_name: Centurion
        geonamesid: 1105777
        latitude: -25.87444
        longitude: 28.17056
        name: Centurion
        names_en: 
          - Centurion
        names_es: ~
        population: 233386
        timezone: Africa/Johannesburg
    geonamesid: 1085594
    name: Gauteng
    names_en: ~
    names_es: ~
  - 
    ascii_name: Mpumalanga
    cities: 
      - 
        alternate_names: 
          - "White River"
          - Witrivier
        ascii_name: "White River"
        geonamesid: 938694
        latitude: -25.31667
        longitude: 31.01667
        name: "White River"
        names_en: ~
        names_es: ~
        population: 15954
        timezone: Africa/Johannesburg
      - 
        alternate_names: ~
        ascii_name: Witbank
        geonamesid: 939270
        latitude: -25.86667
        longitude: 29.23333
        name: Witbank
        names_en: ~
        names_es: ~
        population: 262491
        timezone: Africa/Johannesburg
      - 
        alternate_names: 
          - Volkrust
          - Volksrust
        ascii_name: Volksrust
        geonamesid: 943032
        latitude: -27.36667
        longitude: 29.88333
        name: Volksrust
        names_en: ~
        names_es: ~
        population: 43378
        timezone: Africa/Johannesburg
      - 
        alternate_names: 
          - Standerston
          - Standerton
        ascii_name: Standerton
        geonamesid: 952747
        latitude: -26.95
        longitude: 29.25
        name: Standerton
        names_en: 
          - Standerton
        names_es: ~
        population: 74021
        timezone: Africa/Johannesburg
      - 
        alternate_names: 
          - Siyabuswa
        ascii_name: Siyabuswa
        geonamesid: 955313
        latitude: -25.11667
        longitude: 29.05
        name: Siyabuswa
        names_en: ~
        names_es: ~
        population: 26236
        timezone: Africa/Johannesburg
      - 
        alternate_names: 
          - Secunda
          - Sekunda
          - Секунда
        ascii_name: Secunda
        geonamesid: 956767
        latitude: -26.55
        longitude: 29.16667
        name: Secunda
        names_en: ~
        names_es: ~
        population: 20418
        timezone: Africa/Johannesburg
      - 
        alternate_names: 
          - "Piet Retief"
        ascii_name: "Piet Retief"
        geonamesid: 965241
        latitude: -27.0
        longitude: 30.8
        name: "Piet Retief"
        names_en: ~
        names_es: ~
        population: 84349
        timezone: Africa/Johannesburg
      - 
        alternate_names: 
          - Nelspruit
          - Nelsprutas
          - nerusupuroito
          - Нелспруит
        ascii_name: Nelspruit
        geonamesid: 971534
        latitude: -25.46667
        longitude: 30.96667
        name: Nelspruit
        names_en: 
          - Nelspruit
        names_es: 
          - Nelspruit
        population: 110159
        timezone: Africa/Johannesburg
      - 
        alternate_names: 
          - Middelberg
          - Middelburg
        ascii_name: Middelburg
        geonamesid: 976361
        latitude: -25.78333
        longitude: 29.46667
        name: Middelburg
        names_en: ~
        names_es: ~
        population: 154706
        timezone: Africa/Johannesburg
      - 
        alternate_names: 
          - Lydenburg
        ascii_name: Lydenburg
        geonamesid: 981158
        latitude: -25.1
        longitude: 30.45
        name: Lydenburg
        names_en: ~
        names_es: ~
        population: 21695
        timezone: Africa/Johannesburg
      - 
        alternate_names: ~
        ascii_name: Kriel
        geonamesid: 987202
        latitude: -26.26667
        longitude: 29.23333
        name: Kriel
        names_en: ~
        names_es: ~
        population: 15055
        timezone: Africa/Johannesburg
      - 
        alternate_names: 
          - Komatipoort
        ascii_name: Komatipoort
        geonamesid: 988290
        latitude: -25.43333
        longitude: 31.93333
        name: Komatipoort
        names_en: ~
        names_es: ~
        population: 20508
        timezone: Africa/Johannesburg
      - 
        alternate_names: ~
        ascii_name: Hendrina
        geonamesid: 996930
        latitude: -26.15
        longitude: 29.71667
        name: Hendrina
        names_en: ~
        names_es: ~
        population: 15871
        timezone: Africa/Johannesburg
      - 
        alternate_names: 
          - Ehrmelo
          - Ermelo
          - Эрмело
        ascii_name: Ermelo
        geonamesid: 1005125
        latitude: -26.53333
        longitude: 29.98333
        name: Ermelo
        names_en: ~
        names_es: ~
        population: 41124
        timezone: Africa/Johannesburg
      - 
        alternate_names: ~
        ascii_name: eMbalenhle
        geonamesid: 1005646
        latitude: -26.53333
        longitude: 29.06667
        name: eMbalenhle
        names_en: ~
        names_es: ~
        population: 141741
        timezone: Africa/Johannesburg
      - 
        alternate_names: ~
        ascii_name: Driefontein
        geonamesid: 1008261
        latitude: -27.01667
        longitude: 30.45
        name: Driefontein
        names_en: ~
        names_es: ~
        population: 28127
        timezone: Africa/Johannesburg
      - 
        alternate_names: 
          - Del'mas
          - Delmas
          - Дельмас
        ascii_name: Delmas
        geonamesid: 1011031
        latitude: -26.15
        longitude: 28.68333
        name: Delmas
        names_en: 
          - Delmas
        names_es: ~
        population: 92046
        timezone: Africa/Johannesburg
      - 
        alternate_names: 
          - Breyten
          - Breyton
        ascii_name: Breyten
        geonamesid: 1015694
        latitude: -26.3
        longitude: 29.98333
        name: Breyten
        names_en: ~
        names_es: ~
        population: 12550
        timezone: Africa/Johannesburg
      - 
        alternate_names: ~
        ascii_name: Bethal
        geonamesid: 1019760
        latitude: -26.45
        longitude: 29.46667
        name: Bethal
        names_en: ~
        names_es: ~
        population: 101919
        timezone: Africa/Johannesburg
      - 
        alternate_names: ~
        ascii_name: Belfast
        geonamesid: 1020340
        latitude: -25.68333
        longitude: 30.03333
        name: Belfast
        names_en: ~
        names_es: ~
        population: 11916
        timezone: Africa/Johannesburg
      - 
        alternate_names: 
          - Barberton
        ascii_name: Barberton
        geonamesid: 1021086
        latitude: -25.78333
        longitude: 31.05
        name: Barberton
        names_en: 
          - Barberton
        names_es: ~
        population: 67927
        timezone: Africa/Johannesburg
      - 
        alternate_names: 
          - Bal'fur
          - Balfour
          - Бальфур
        ascii_name: Balfour
        geonamesid: 1021396
        latitude: -26.65
        longitude: 28.58333
        name: Balfour
        names_en: ~
        names_es: ~
        population: 46008
        timezone: Africa/Johannesburg
    geonamesid: 1085595
    name: Mpumalanga
    names_en: ~
    names_es: ~
  - 
    ascii_name: "Northern Cape"
    cities: 
      - 
        alternate_names: 
          - Warrenton
        ascii_name: Warrenton
        geonamesid: 941931
        latitude: -28.11667
        longitude: 24.85
        name: Warrenton
        names_en: ~
        names_es: ~
        population: 17946
        timezone: Africa/Johannesburg
      - 
        alternate_names: 
          - Upington
        ascii_name: Upington
        geonamesid: 945945
        latitude: -28.45
        longitude: 21.25
        name: Upington
        names_en: 
          - Upington
        names_es: ~
        population: 71373
        timezone: Africa/Johannesburg
      - 
        alternate_names: ~
        ascii_name: Ritchie
        geonamesid: 961226
        latitude: -29.05
        longitude: 24.6
        name: Ritchie
        names_en: ~
        names_es: ~
        population: 9960
        timezone: Africa/Johannesburg
      - 
        alternate_names: ~
        ascii_name: Prieska
        geonamesid: 964090
        latitude: -29.66667
        longitude: 22.75
        name: Prieska
        names_en: ~
        names_es: ~
        population: 11236
        timezone: Africa/Johannesburg
      - 
        alternate_names: 
          - Kuruman
        ascii_name: Kuruman
        geonamesid: 986134
        latitude: -27.45
        longitude: 23.43333
        name: Kuruman
        names_en: ~
        names_es: ~
        population: 9093
        timezone: Africa/Johannesburg
      - 
        alternate_names: 
          - Kimberley
          - Kimberli
          - Kimberlis
          - kimbeolli
        ascii_name: Kimberley
        geonamesid: 990930
        latitude: -28.73333
        longitude: 24.76667
        name: Kimberley
        names_en: 
          - Kimberley
        names_es: 
          - Kimberley
        population: 142089
        timezone: Africa/Johannesburg
      - 
        alternate_names: 
          - Kathu
        ascii_name: Kathu
        geonamesid: 991664
        latitude: -27.7
        longitude: 23.05
        name: Kathu
        names_en: ~
        names_es: ~
        population: 9219
        timezone: Africa/Johannesburg
      - 
        alternate_names: 
          - "De Aar"
        ascii_name: "De Aar"
        geonamesid: 1011632
        latitude: -30.65
        longitude: 24.01667
        name: "De Aar"
        names_en: ~
        names_es: ~
        population: 32318
        timezone: Africa/Johannesburg
      - 
        alternate_names: ~
        ascii_name: Danielskuil
        geonamesid: 1011918
        latitude: -28.18333
        longitude: 23.53333
        name: Daniëlskuil
        names_en: ~
        names_es: ~
        population: 10123
        timezone: Africa/Johannesburg
      - 
        alternate_names: 
          - Colesberg
          - "Colesberg Dorp"
          - "Colesberg Town"
        ascii_name: Colesberg
        geonamesid: 1013076
        latitude: -30.73333
        longitude: 25.1
        name: Colesberg
        names_en: ~
        names_es: ~
        population: 12423
        timezone: Africa/Johannesburg
      - 
        alternate_names: ~
        ascii_name: Carnarvon
        geonamesid: 1014034
        latitude: -30.95
        longitude: 22.13333
        name: Carnarvon
        names_en: ~
        names_es: ~
        population: 5785
        timezone: Africa/Johannesburg
      - 
        alternate_names: 
          - "Barkly West"
          - Barkly-Wes
        ascii_name: "Barkly West"
        geonamesid: 1021040
        latitude: -28.53333
        longitude: 24.51667
        name: "Barkly West"
        names_en: ~
        names_es: ~
        population: 11621
        timezone: Africa/Johannesburg
      - 
        alternate_names: 
          - Springbok
          - "Springbok Fontein"
        ascii_name: Springbok
        geonamesid: 3361142
        latitude: -29.66667
        longitude: 17.88333
        name: Springbok
        names_en: ~
        names_es: ~
        population: 10438
        timezone: Africa/Johannesburg
      - 
        alternate_names: ~
        ascii_name: Calvinia
        geonamesid: 3369174
        latitude: -31.46667
        longitude: 19.78333
        name: Calvinia
        names_en: ~
        names_es: ~
        population: 8146
        timezone: Africa/Johannesburg
    geonamesid: 1085596
    name: "Northern Cape"
    names_en: 
      - "Northern Cape"
    names_es: ~
  - 
    ascii_name: "Limpopo Province"
    cities: 
      - 
        alternate_names: 
          - Warmbad
          - Warmbaths
        ascii_name: Warmbaths
        geonamesid: 941966
        latitude: -24.88333
        longitude: 28.28333
        name: Warmbaths
        names_en: ~
        names_es: ~
        population: 90210
        timezone: Africa/Johannesburg
      - 
        alternate_names: 
          - Tzaneen
        ascii_name: Tzaneen
        geonamesid: 946973
        latitude: -23.83333
        longitude: 30.16667
        name: Tzaneen
        names_en: ~
        names_es: ~
        population: 16954
        timezone: Africa/Johannesburg
      - 
        alternate_names: ~
        ascii_name: Thulamahashi
        geonamesid: 949026
        latitude: -24.71667
        longitude: 31.2
        name: Thulamahashi
        names_en: ~
        names_es: ~
        population: 11655
        timezone: Africa/Johannesburg
      - 
        alternate_names: 
          - Thohoyandou
        ascii_name: Thohoyandou
        geonamesid: 949224
        latitude: -22.95
        longitude: 30.48333
        name: Thohoyandou
        names_en: ~
        names_es: ~
        population: 44046
        timezone: Africa/Johannesburg
      - 
        alternate_names: 
          - Thabazimbi
        ascii_name: Thabazimbi
        geonamesid: 949683
        latitude: -24.6
        longitude: 27.4
        name: Thabazimbi
        names_en: ~
        names_es: ~
        population: 10365
        timezone: Africa/Johannesburg
      - 
        alternate_names: 
          - Potgietersrus
          - Potgietersrust
          - Potgitersrus
          - Потгитерсрус
        ascii_name: Potgietersrus
        geonamesid: 964315
        latitude: -24.18333
        longitude: 29.01667
        name: Potgietersrus
        names_en: ~
        names_es: ~
        population: 101090
        timezone: Africa/Johannesburg
      - 
        alternate_names: 
          - Pietersburg
          - Polokvane
          - Polokvanė
          - Polokwane
        ascii_name: Polokwane
        geonamesid: 965289
        latitude: -23.9
        longitude: 29.45
        name: Polokwane
        names_en: 
          - Polokwane
        names_es: ~
        population: 123749
        timezone: Africa/Johannesburg
      - 
        alternate_names: 
          - Palabora
          - Palaborva
          - Phalaborwa
          - Палаборва
        ascii_name: Phalaborwa
        geonamesid: 965528
        latitude: -23.95
        longitude: 31.11667
        name: Phalaborwa
        names_en: 
          - Phalaborwa
        names_es: ~
        population: 109468
        timezone: Africa/Johannesburg
      - 
        alternate_names: 
          - Nylstroom
        ascii_name: Nylstroom
        geonamesid: 968665
        latitude: -24.7
        longitude: 28.4
        name: Nylstroom
        names_en: ~
        names_es: ~
        population: 20527
        timezone: Africa/Johannesburg
      - 
        alternate_names: ~
        ascii_name: Nkowakowa
        geonamesid: 970341
        latitude: -23.88333
        longitude: 30.28333
        name: Nkowakowa
        names_en: ~
        names_es: ~
        population: 30138
        timezone: Africa/Johannesburg
      - 
        alternate_names: ~
        ascii_name: Messina
        geonamesid: 976885
        latitude: -22.35
        longitude: 30.05
        name: Messina
        names_en: ~
        names_es: ~
        population: 20191
        timezone: Africa/Johannesburg
      - 
        alternate_names: ~
        ascii_name: Mankoeng
        geonamesid: 979365
        latitude: -23.9
        longitude: 29.81667
        name: Mankoeng
        names_en: ~
        names_es: ~
        population: 12499
        timezone: Africa/Johannesburg
      - 
        alternate_names: 
          - "Louis Trichardt"
        ascii_name: "Louis Trichardt"
        geonamesid: 981827
        latitude: -23.05
        longitude: 29.9
        name: "Louis Trichardt"
        names_en: ~
        names_es: ~
        population: 86854
        timezone: Africa/Johannesburg
      - 
        alternate_names: 
          - Lebowakgomo
        ascii_name: Lebowakgomo
        geonamesid: 984087
        latitude: -24.2
        longitude: 29.5
        name: Lebowakgomo
        names_en: ~
        names_es: ~
        population: 33308
        timezone: Africa/Johannesburg
      - 
        alternate_names: 
          - Giyane
          - Giyani
        ascii_name: Giyani
        geonamesid: 1001860
        latitude: -23.31667
        longitude: 30.71667
        name: Giyani
        names_en: ~
        names_es: ~
        population: 37024
        timezone: Africa/Johannesburg
      - 
        alternate_names: 
          - Ga-Kgapane
        ascii_name: GAKGAPANE
        geonamesid: 1003462
        latitude: -23.63333
        longitude: 30.21667
        name: GAKGAPANE
        names_en: ~
        names_es: ~
        population: 13000
        timezone: Africa/Johannesburg
      - 
        alternate_names: ~
        ascii_name: Ellisras
        geonamesid: 1005768
        latitude: -23.66667
        longitude: 27.73333
        name: Ellisras
        names_en: ~
        names_es: ~
        population: 15360
        timezone: Africa/Johannesburg
      - 
        alternate_names: 
          - Duivelskloof
          - Duiwelskloof
          - Duweiskloof
        ascii_name: Duiwelskloof
        geonamesid: 1007514
        latitude: -23.7
        longitude: 30.13333
        name: Duiwelskloof
        names_en: ~
        names_es: ~
        population: 24572
        timezone: Africa/Johannesburg
    geonamesid: 1085597
    name: Limpopo
    names_en: ~
    names_es: ~
  - 
    ascii_name: "Province of North-West"
    cities: 
      - 
        alternate_names: 
          - Zeerust
        ascii_name: Zeerust
        geonamesid: 937136
        latitude: -25.53333
        longitude: 26.08333
        name: Zeerust
        names_en: ~
        names_es: ~
        population: 17708
        timezone: Africa/Johannesburg
      - 
        alternate_names: 
          - Wolmaransstad
          - Wolmaranstad
        ascii_name: Wolmaransstad
        geonamesid: 938457
        latitude: -27.2
        longitude: 25.96667
        name: Wolmaransstad
        names_en: ~
        names_es: ~
        population: 49366
        timezone: Africa/Johannesburg
      - 
        alternate_names: 
          - Frejburga
          - Vryburg
          - Фрейбурга
        ascii_name: Vryburg
        geonamesid: 942511
        latitude: -26.95
        longitude: 24.73333
        name: Vryburg
        names_en: ~
        names_es: ~
        population: 49588
        timezone: Africa/Johannesburg
      - 
        alternate_names: ~
        ascii_name: Stilfontein
        geonamesid: 952192
        latitude: -26.85
        longitude: 26.78333
        name: Stilfontein
        names_en: ~
        names_es: ~
        population: 93110
        timezone: Africa/Johannesburg
      - 
        alternate_names: 
          - Schweizer-Reineke
          - Schweizer-Reneke
        ascii_name: Schweizer-Reineke
        geonamesid: 956907
        latitude: -27.18333
        longitude: 25.33333
        name: Schweizer-Reineke
        names_en: 
          - Schweizer-Reneke
        names_es: ~
        population: 70214
        timezone: Africa/Johannesburg
      - 
        alternate_names: 
          - Rustenburg
          - Рустенбург
        ascii_name: Rustenburg
        geonamesid: 958724
        latitude: -25.66667
        longitude: 27.25
        name: Rustenburg
        names_en: 
          - Rustenburg
        names_es: ~
        population: 124064
        timezone: Africa/Johannesburg
      - 
        alternate_names: 
          - Pochefstrum
          - Potchefstroom
          - Почефструм
        ascii_name: Potchefstroom
        geonamesid: 964349
        latitude: -26.71667
        longitude: 27.1
        name: Potchefstroom
        names_en: 
          - Potchefstroom
        names_es: ~
        population: 123669
        timezone: Africa/Johannesburg
      - 
        alternate_names: 
          - Pampierstad
          - Pampierstat
        ascii_name: Pampierstad
        geonamesid: 966380
        latitude: -27.78333
        longitude: 24.68333
        name: Pampierstad
        names_en: ~
        names_es: ~
        population: 21800
        timezone: Africa/Johannesburg
      - 
        alternate_names: 
          - Eastleigh
          - Orknejskie
          - Orkney
          - Оркнейские
        ascii_name: Orkney
        geonamesid: 967476
        latitude: -26.98333
        longitude: 26.66667
        name: Orkney
        names_en: 
          - Orkney
        names_es: ~
        population: 145801
        timezone: Africa/Johannesburg
      - 
        alternate_names: 
          - Mabatho
          - Mbabatho
          - Mmabatho
        ascii_name: Mmabatho
        geonamesid: 975436
        latitude: -25.85
        longitude: 25.63333
        name: Mmabatho
        names_en: 
          - Mmabatho
        names_es: ~
        population: 76754
        timezone: Africa/Johannesburg
      - 
        alternate_names: 
          - Lichtenburg
          - Likhtenburge
          - Лихтенбурге
        ascii_name: Lichtenburg
        geonamesid: 982899
        latitude: -26.15
        longitude: 26.16667
        name: Lichtenburg
        names_en: 
          - Lichtenburg
        names_es: ~
        population: 65863
        timezone: Africa/Johannesburg
      - 
        alternate_names: 
          - Koster
        ascii_name: Koster
        geonamesid: 987648
        latitude: -25.86667
        longitude: 26.9
        name: Koster
        names_en: ~
        names_es: ~
        population: 12126
        timezone: Africa/Johannesburg
      - 
        alternate_names: 
          - Klerksdorp
          - Клерксдорп
        ascii_name: Klerksdorp
        geonamesid: 989921
        latitude: -26.86667
        longitude: 26.66667
        name: Klerksdorp
        names_en: ~
        names_es: ~
        population: 178921
        timezone: Africa/Johannesburg
      - 
        alternate_names: 
          - Andalusia
          - "Jan Kemp"
          - "Jan Kempdorp"
        ascii_name: "Jan Kempdorp"
        geonamesid: 994023
        latitude: -27.91667
        longitude: 24.85
        name: "Jan Kempdorp"
        names_en: ~
        names_es: ~
        population: 13485
        timezone: Africa/Johannesburg
      - 
        alternate_names: ~
        ascii_name: Ga-Rankuwa
        geonamesid: 1002851
        latitude: -25.61667
        longitude: 27.98333
        name: Ga-Rankuwa
        names_en: ~
        names_es: ~
        population: 68767
        timezone: Africa/Johannesburg
      - 
        alternate_names: 
          - Fochville
        ascii_name: Fochville
        geonamesid: 1004109
        latitude: -26.48333
        longitude: 27.5
        name: Fochville
        names_en: 
          - Fochville
        names_es: ~
        population: 62416
        timezone: Africa/Johannesburg
      - 
        alternate_names: ~
        ascii_name: Christiana
        geonamesid: 1013550
        latitude: -27.91667
        longitude: 25.16667
        name: Christiana
        names_en: ~
        names_es: ~
        population: 17523
        timezone: Africa/Johannesburg
      - 
        alternate_names: 
          - Britancy
          - Brits
          - Британцы
        ascii_name: Brits
        geonamesid: 1015621
        latitude: -25.63333
        longitude: 27.78333
        name: Brits
        names_en: ~
        names_es: ~
        population: 122497
        timezone: Africa/Johannesburg
      - 
        alternate_names: ~
        ascii_name: Bloemhof
        geonamesid: 1018673
        latitude: -27.65
        longitude: 25.6
        name: Bloemhof
        names_en: ~
        names_es: ~
        population: 17122
        timezone: Africa/Johannesburg
    geonamesid: 1085598
    name: North-West
    names_en: ~
    names_es: ~
  - 
    ascii_name: "Province of the Western Cape"
    cities: 
      - 
        alternate_names: 
          - Swellendam
        ascii_name: Swellendam
        geonamesid: 950709
        latitude: -34.03333
        longitude: 20.43333
        name: Swellendam
        names_en: ~
        names_es: ~
        population: 13674
        timezone: Africa/Johannesburg
      - 
        alternate_names: 
          - Formosa
          - Plettenberg
          - "Plettenberg Bay"
          - Plettenbergbaai
        ascii_name: "Plettenberg Bay"
        geonamesid: 964712
        latitude: -34.05
        longitude: 23.36667
        name: "Plettenberg Bay"
        names_en: 
          - Plettenberg
          - "Plettenberg Bay"
        names_es: ~
        population: 19445
        timezone: Africa/Johannesburg
      - 
        alternate_names: 
          - Oudtshoorn
        ascii_name: Oudtshoorn
        geonamesid: 967106
        latitude: -33.59067
        longitude: 22.2014
        name: Oudtshoorn
        names_en: 
          - Oudtshoorn
        names_es: ~
        population: 76708
        timezone: Africa/Johannesburg
      - 
        alternate_names: 
          - "De Nysna"
          - Knysna
        ascii_name: Knysna
        geonamesid: 988698
        latitude: -34.03627
        longitude: 23.04713
        name: Knysna
        names_en: 
          - Knysna
        names_es: ~
        population: 63106
        timezone: Africa/Johannesburg
      - 
        alternate_names: 
          - Dzhordzh
          - George
          - Джордж
        ascii_name: George
        geonamesid: 1002145
        latitude: -33.96667
        longitude: 22.45
        name: George
        names_en: 
          - George
        names_es: ~
        population: 174582
        timezone: Africa/Johannesburg
      - 
        alternate_names: 
          - Bredasdorp
        ascii_name: Bredasdorp
        geonamesid: 1015776
        latitude: -34.53333
        longitude: 20.03333
        name: Bredasdorp
        names_en: ~
        names_es: ~
        population: 14936
        timezone: Africa/Johannesburg
      - 
        alternate_names: 
          - "Beaufort West"
          - Beaufort-Wes
        ascii_name: "Beaufort West"
        geonamesid: 1020641
        latitude: -32.35
        longitude: 22.58333
        name: "Beaufort West"
        names_en: ~
        names_es: ~
        population: 44737
        timezone: Africa/Johannesburg
      - 
        alternate_names: 
          - Vuster
          - Worcester
          - Вустер
        ascii_name: Worcester
        geonamesid: 3359041
        latitude: -33.65
        longitude: 19.43333
        name: Worcester
        names_en: ~
        names_es: ~
        population: 127597
        timezone: Africa/Johannesburg
      - 
        alternate_names: 
          - Vredendal
        ascii_name: Vredendal
        geonamesid: 3359736
        latitude: -31.66667
        longitude: 18.5
        name: Vredendal
        names_en: ~
        names_es: ~
        population: 14806
        timezone: Africa/Johannesburg
      - 
        alternate_names: 
          - Stellenbos
          - Stellenbosch
          - Стелленбос
        ascii_name: Stellenbosch
        geonamesid: 3361025
        latitude: -33.93333
        longitude: 18.85
        name: Stellenbosch
        names_en: 
          - Stellenbosch
        names_es: 
          - Stellenbosch
        population: 94263
        timezone: Africa/Johannesburg
      - 
        alternate_names: 
          - "Hoedjes Bay"
          - Hoedjesbaai
          - "Hoetjes Bay"
          - Saldana
        ascii_name: Saldanha
        geonamesid: 3361934
        latitude: -33.01667
        longitude: 17.95
        name: Saldanha
        names_en: ~
        names_es: ~
        population: 68284
        timezone: Africa/Johannesburg
      - 
        alternate_names: ~
        ascii_name: Rosebank
        geonamesid: 3362024
        latitude: -33.95556
        longitude: 18.47417
        name: Rosebank
        names_en: ~
        names_es: ~
        population: 10000
        timezone: Africa/Johannesburg
      - 
        alternate_names: ~
        ascii_name: Noorder-Paarl
        geonamesid: 3363613
        latitude: -33.71667
        longitude: 18.96667
        name: Noorder-Paarl
        names_en: ~
        names_es: ~
        population: 187865
        timezone: Africa/Johannesburg
      - 
        alternate_names: 
          - Hermanus
          - Mpumalanga
          - Мпумаланга
        ascii_name: Hermanus
        geonamesid: 3366880
        latitude: -34.41667
        longitude: 19.23333
        name: Hermanus
        names_en: ~
        names_es: ~
        population: 25153
        timezone: Africa/Johannesburg
      - 
        alternate_names: 
          - Grabouw
        ascii_name: Grabouw
        geonamesid: 3367513
        latitude: -34.15
        longitude: 19.01667
        name: Grabouw
        names_en: ~
        names_es: ~
        population: 29885
        timezone: Africa/Johannesburg
      - 
        alternate_names: ~
        ascii_name: Constantia
        geonamesid: 3369056
        latitude: -34.03139
        longitude: 18.41833
        name: Constantia
        names_en: ~
        names_es: ~
        population: 6922
        timezone: Africa/Johannesburg
      - 
        alternate_names: ~
        ascii_name: Claremont
        geonamesid: 3369098
        latitude: -33.98056
        longitude: 18.46528
        name: Claremont
        names_en: ~
        names_es: ~
        population: 14531
        timezone: Africa/Johannesburg
      - 
        alternate_names: 
          - Cerera
          - Ceres
          - Церера
        ascii_name: Ceres
        geonamesid: 3369129
        latitude: -33.36667
        longitude: 19.31667
        name: Ceres
        names_en: ~
        names_es: ~
        population: 41596
        timezone: Africa/Johannesburg
      - 
        alternate_names: 
          - "Cape Town"
          - "Cidade do Cabo"
          - "Cidade do Cabo - Cape Town"
          - "Citta del Capo"
        ascii_name: "Cape Town"
        geonamesid: 3369157
        latitude: -33.91667
        longitude: 18.41667
        name: "Cape Town"
        names_en: 
          - "Cape Town"
        names_es: 
          - "Ciudad del Cabo"
          - "El Cabo"
        population: 3433441
        timezone: Africa/Johannesburg
      - 
        alternate_names: ~
        ascii_name: Caledon
        geonamesid: 3369179
        latitude: -34.21667
        longitude: 19.41667
        name: Caledon
        names_en: ~
        names_es: ~
        population: 4687
        timezone: Africa/Johannesburg
      - 
        alternate_names: 
          - Atlantida
          - Atlantis
          - Атлантида
        ascii_name: Atlantis
        geonamesid: 3370352
        latitude: -33.56667
        longitude: 18.48333
        name: Atlantis
        names_en: ~
        names_es: ~
        population: 60266
        timezone: Africa/Johannesburg
      - 
        alternate_names: ~
        ascii_name: "Sunset Beach"
        geonamesid: 6942529
        latitude: -33.85395
        longitude: 18.49231
        name: "Sunset Beach"
        names_en: ~
        names_es: ~
        population: 2000
        timezone: Africa/Johannesburg
    geonamesid: 1085599
    name: "Western Cape"
    names_en: ~
    names_es: ~
