--- 
geonamesid: 2510769
iso: ES
name: Spain
names_en: 
  - "Spanish State"
  - Spain
  - "Kingdom of Spain"
names_es: 
  - España
  - "La piel de toro"
  - "Estado Español"
  - "Reino de España"
  - "la Madre Patria"
regions: 
  - 
    ascii_name: Murcia
    cities: 
      - 
        alternate_names: 
          - Ekla
          - Iecla
          - Yecla
          - Екла
        ascii_name: Yecla
        geonamesid: 2509402
        latitude: 38.61365
        longitude: -1.11468
        name: Yecla
        names_en: 
          - Yecla
        names_es: 
          - Yecla
        population: 35025
        timezone: Europe/Madrid
      - 
        alternate_names: 
          - Totana
          - Тотана
        ascii_name: Totana
        geonamesid: 2510224
        latitude: 37.76667
        longitude: -1.5
        name: Totana
        names_en: ~
        names_es: ~
        population: 29211
        timezone: Europe/Madrid
      - 
        alternate_names: 
          - Torre-Pacheco
          - Torre-Pacheko
          - Торре-Пачеко
        ascii_name: Torre-Pacheco
        geonamesid: 2510271
        latitude: 37.73333
        longitude: -0.95
        name: Torre-Pacheco
        names_en: ~
        names_es: ~
        population: 31495
        timezone: Europe/Madrid
      - 
        alternate_names: ~
        ascii_name: Santomera
        geonamesid: 2511050
        latitude: 38.06147
        longitude: -1.04877
        name: Santomera
        names_en: ~
        names_es: ~
        population: 15319
        timezone: Europe/Madrid
      - 
        alternate_names: 
          - "San Pedro del Pintar"
        ascii_name: "San Pedro del Pinatar"
        geonamesid: 2511247
        latitude: 37.83568
        longitude: -0.79102
        name: "San Pedro del Pinatar"
        names_en: ~
        names_es: ~
        population: 23738
        timezone: Europe/Madrid
      - 
        alternate_names: ~
        ascii_name: "San Javier"
        geonamesid: 2511366
        latitude: 37.80626
        longitude: -0.83736
        name: "San Javier"
        names_en: ~
        names_es: ~
        population: 31432
        timezone: Europe/Madrid
      - 
        alternate_names: 
          - Ricote
        ascii_name: Ricote
        geonamesid: 2511869
        latitude: 38.15
        longitude: -1.36667
        name: Ricote
        names_en: ~
        names_es: ~
        population: 1492
        timezone: Europe/Madrid
      - 
        alternate_names: 
          - Pliego
        ascii_name: Pliego
        geonamesid: 2512458
        latitude: 37.98333
        longitude: -1.5
        name: Pliego
        names_en: ~
        names_es: ~
        population: 3543
        timezone: Europe/Madrid
      - 
        alternate_names: 
          - "Ciutat de Murcia"
          - "Ciutat de Múrcia"
          - Murcia
          - Murcie
        ascii_name: Murcia
        geonamesid: 2513416
        latitude: 37.98333
        longitude: -1.11667
        name: Murcia
        names_en: 
          - Murcia
        names_es: 
          - Murcia
        population: 436870
        timezone: Europe/Madrid
      - 
        alternate_names: 
          - Mula
        ascii_name: Mula
        geonamesid: 2513436
        latitude: 38.05
        longitude: -1.5
        name: Mula
        names_en: ~
        names_es: ~
        population: 16941
        timezone: Europe/Madrid
      - 
        alternate_names: 
          - Moratalla
        ascii_name: Moratalla
        geonamesid: 2513562
        latitude: 38.2
        longitude: -1.88333
        name: Moratalla
        names_en: 
          - Moratalla
        names_es: 
          - Moratalla
        population: 8530
        timezone: Europe/Madrid
      - 
        alternate_names: 
          - Molina
          - "Molina de Segura"
          - Molina-de-Segura
          - Молина-де-Сегура
        ascii_name: "Molina de Segura"
        geonamesid: 2513759
        latitude: 38.05
        longitude: -1.2
        name: "Molina de Segura"
        names_en: ~
        names_es: ~
        population: 64065
        timezone: Europe/Madrid
      - 
        alternate_names: 
          - Masarron
          - Mazarron
          - Mazarrón
          - Масаррон
        ascii_name: Mazarron
        geonamesid: 2513983
        latitude: 37.5992
        longitude: -1.31493
        name: Mazarrón
        names_en: 
          - Mazarrón
        names_es: 
          - Mazarrón
        population: 35221
        timezone: Europe/Madrid
      - 
        alternate_names: 
          - Lumbreras
        ascii_name: "Puerto Lumbreras"
        geonamesid: 2514370
        latitude: 37.56329
        longitude: -1.80974
        name: "Puerto Lumbreras"
        names_en: ~
        names_es: 
          - Lumbreras
        population: 13947
        timezone: Europe/Madrid
      - 
        alternate_names: 
          - Alcazares
          - Alcázares
        ascii_name: "Los Alcazares"
        geonamesid: 2514868
        latitude: 37.74425
        longitude: -0.85041
        name: "Los Alcázares"
        names_en: ~
        names_es: ~
        population: 15619
        timezone: Europe/Madrid
      - 
        alternate_names: 
          - Lorqui
          - Lorquí
        ascii_name: Lorqui
        geonamesid: 2514883
        latitude: 38.08333
        longitude: -1.25
        name: Lorquí
        names_en: ~
        names_es: ~
        population: 6293
        timezone: Europe/Madrid
      - 
        alternate_names: 
          - Llorca
          - Lorca
          - Lorka
          - Lorko
        ascii_name: Lorca
        geonamesid: 2514891
        latitude: 37.66667
        longitude: -1.7
        name: Lorca
        names_en: 
          - Lorca
        names_es: 
          - Lorca
        population: 91906
        timezone: Europe/Madrid
      - 
        alternate_names: 
          - Librilla
        ascii_name: Librilla
        geonamesid: 2515060
        latitude: 37.88333
        longitude: -1.35
        name: Librilla
        names_en: ~
        names_es: ~
        population: 4145
        timezone: Europe/Madrid
      - 
        alternate_names: 
          - "La Union"
          - "La Unión"
          - Unio
        ascii_name: "La Union"
        geonamesid: 2515151
        latitude: 37.61667
        longitude: -0.86667
        name: "La Unión"
        names_en: 
          - "La Unión"
        names_es: 
          - "La Unión"
        population: 17737
        timezone: Europe/Madrid
      - 
        alternate_names: 
          - "La Torres de Cotillas"
          - "Las Torres de Cotillas"
        ascii_name: "Las Torres de Cotillas"
        geonamesid: 2515219
        latitude: 38.02822
        longitude: -1.24188
        name: "Las Torres de Cotillas"
        names_en: ~
        names_es: ~
        population: 21062
        timezone: Europe/Madrid
      - 
        alternate_names: 
          - Jumella
          - Jumilla
          - Khumil'e
          - Хумилье
        ascii_name: Jumilla
        geonamesid: 2516255
        latitude: 38.47917
        longitude: -1.325
        name: Jumilla
        names_en: ~
        names_es: ~
        population: 25685
        timezone: Europe/Madrid
      - 
        alternate_names: 
          - "Fuente Alamo"
          - "Fuente Álamo"
          - "Fuente-Alamo de Murcia"
          - "Fuente-Álamo de Murcia"
        ascii_name: "Fuente-Alamo de Murcia"
        geonamesid: 2517574
        latitude: 37.7
        longitude: -1.1
        name: "Fuente-Álamo de Murcia"
        names_en: ~
        names_es: 
          - "Fuente Álamo"
        population: 14876
        timezone: Europe/Madrid
      - 
        alternate_names: 
          - Fortuna
        ascii_name: Fortuna
        geonamesid: 2517679
        latitude: 38.18333
        longitude: -1.11667
        name: Fortuna
        names_en: ~
        names_es: ~
        population: 7943
        timezone: Europe/Madrid
      - 
        alternate_names: 
          - Cieza
          - S'esa
          - Сьеса
        ascii_name: Cieza
        geonamesid: 2519425
        latitude: 38.23333
        longitude: -1.41667
        name: Cieza
        names_en: ~
        names_es: ~
        population: 35200
        timezone: Europe/Madrid
      - 
        alternate_names: 
          - Ceuti
        ascii_name: Ceuti
        geonamesid: 2519579
        latitude: 38.08333
        longitude: -1.26667
        name: Ceuti
        names_en: ~
        names_es: ~
        population: 10174
        timezone: Europe/Madrid
      - 
        alternate_names: 
          - Cehegin
          - Cehegín
        ascii_name: Cehegin
        geonamesid: 2519651
        latitude: 38.09242
        longitude: -1.7985
        name: Cehegín
        names_en: 
          - Cehegín
        names_es: 
          - Cehegín
        population: 16235
        timezone: Europe/Madrid
      - 
        alternate_names: 
          - Cartagena
          - Carthagene
          - "Carthago Nova"
          - Carthagène
        ascii_name: Cartagena
        geonamesid: 2520058
        latitude: 37.6
        longitude: -0.98333
        name: Cartagena
        names_en: 
          - Cartagena
        names_es: 
          - Cartagena
        population: 211996
        timezone: Europe/Madrid
      - 
        alternate_names: ~
        ascii_name: Caravaca
        geonamesid: 2520171
        latitude: 38.1
        longitude: -1.85
        name: Caravaca
        names_en: ~
        names_es: ~
        population: 26415
        timezone: Europe/Madrid
      - 
        alternate_names: 
          - "Campos del Rio"
          - "Campos del Río"
        ascii_name: "Campos del Rio"
        geonamesid: 2520402
        latitude: 38.05
        longitude: -1.35
        name: "Campos del Río"
        names_en: ~
        names_es: ~
        population: 2065
        timezone: Europe/Madrid
      - 
        alternate_names: 
          - Calasparra
        ascii_name: Calasparra
        geonamesid: 2520558
        latitude: 38.23333
        longitude: -1.7
        name: Calasparra
        names_en: 
          - Calasparra
        names_es: 
          - Calasparra
        population: 10759
        timezone: Europe/Madrid
      - 
        alternate_names: 
          - Bullas
          - Bulles
        ascii_name: Bullas
        geonamesid: 2520727
        latitude: 38.05
        longitude: -1.66667
        name: Bullas
        names_en: 
          - Bullas
        names_es: 
          - Bullas
        population: 12493
        timezone: Europe/Madrid
      - 
        alternate_names: 
          - Blanca
        ascii_name: Blanca
        geonamesid: 2520940
        latitude: 38.18333
        longitude: -1.36667
        name: Blanca
        names_en: ~
        names_es: ~
        population: 6054
        timezone: Europe/Madrid
      - 
        alternate_names: ~
        ascii_name: Beniel
        geonamesid: 2521086
        latitude: 38.05
        longitude: -1.0
        name: Beniel
        names_en: ~
        names_es: ~
        population: 10933
        timezone: Europe/Madrid
      - 
        alternate_names: 
          - Archena
        ascii_name: Archena
        geonamesid: 2521676
        latitude: 38.11667
        longitude: -1.3
        name: Archena
        names_en: ~
        names_es: ~
        population: 18202
        timezone: Europe/Madrid
      - 
        alternate_names: 
          - Alhama
          - "Alhama de Murcia"
        ascii_name: "Alhama de Murcia"
        geonamesid: 2521992
        latitude: 37.85
        longitude: -1.41667
        name: "Alhama de Murcia"
        names_en: ~
        names_es: ~
        population: 19860
        timezone: Europe/Madrid
      - 
        alternate_names: 
          - Alguazas
        ascii_name: Alguazas
        geonamesid: 2522000
        latitude: 38.05
        longitude: -1.23333
        name: Alguazas
        names_en: ~
        names_es: ~
        population: 7725
        timezone: Europe/Madrid
      - 
        alternate_names: 
          - Aledo
        ascii_name: Aledo
        geonamesid: 2522061
        latitude: 37.8
        longitude: -1.56667
        name: Aledo
        names_en: ~
        names_es: ~
        population: 1078
        timezone: Europe/Madrid
      - 
        alternate_names: 
          - Al'kantaril'ja
          - Alcantarilla
          - Алькантарилья
        ascii_name: Alcantarilla
        geonamesid: 2522152
        latitude: 37.96667
        longitude: -1.21667
        name: Alcantarilla
        names_en: ~
        names_es: ~
        population: 41084
        timezone: Europe/Madrid
      - 
        alternate_names: 
          - Albudeite
        ascii_name: Albudeite
        geonamesid: 2522197
        latitude: 38.03333
        longitude: -1.38333
        name: Albudeite
        names_en: ~
        names_es: ~
        population: 1502
        timezone: Europe/Madrid
      - 
        alternate_names: 
          - Agilas
          - Agudas
          - Aguilas
          - Águilas
        ascii_name: Aguilas
        geonamesid: 2522333
        latitude: 37.4063
        longitude: -1.58289
        name: Águilas
        names_en: 
          - Águilas
        names_es: 
          - Águilas
        population: 34533
        timezone: Europe/Madrid
      - 
        alternate_names: 
          - Abaran
          - Abarán
          - Albaran
        ascii_name: Abaran
        geonamesid: 2522499
        latitude: 38.2
        longitude: -1.4
        name: Abarán
        names_en: ~
        names_es: ~
        population: 12991
        timezone: Europe/Madrid
      - 
        alternate_names: 
          - Abanilla
          - Albanilla
          - Favanella
          - "La Zarza de Abanilla"
        ascii_name: Abanilla
        geonamesid: 2522505
        latitude: 38.2
        longitude: -1.05
        name: Abanilla
        names_en: ~
        names_es: ~
        population: 6079
        timezone: Europe/Madrid
      - 
        alternate_names: 
          - "La Manga"
          - "La Manga del Mar Menor"
          - La-Manga-del'-Mar-Menor
          - Ла-Манга-дель-Мар-Менор
        ascii_name: "La Manga del Mar Menor"
        geonamesid: 6355177
        latitude: 37.64129
        longitude: -0.71651
        name: "La Manga del Mar Menor"
        names_en: ~
        names_es: 
          - "La Manga del Mar Menor"
          - "La Manga"
        population: 10000
        timezone: Europe/Madrid
    geonamesid: 2513413
    name: Murcia
    names_en: 
      - "Region of Murcia"
      - Murcia
    names_es: 
      - "Región de Murcia"
      - Murcia
  - 
    abbr: CEU
    ascii_name: Ceuta
    cities: 
      - 
        alternate_names: 
          - Seuta
          - Сеута
        ascii_name: Ceuta
        geonamesid: 6362987
        latitude: 35.88933
        longitude: -5.31979
        name: Ceuta
        names_en: ~
        names_es: ~
        population: 78674
        timezone: Africa/Ceuta
    geonamesid: 2519582
    name: Ceuta
    names_en: 
      - Ceuta
    names_es: 
      - "Ciudad de Ceuta"
      - "Ciudad Autónoma de Ceuta"
      - Ceuta
  - 
    ascii_name: "Balearic Islands"
    cities: 
      - 
        alternate_names: 
          - "Vilafranca de Bonany"
          - Villafranca
        ascii_name: "Vilafranca de Bonany"
        geonamesid: 2509600
        latitude: 39.56894
        longitude: 3.08815
        name: "Vilafranca de Bonany"
        names_en: 
          - "Vilafranca de Bonany"
        names_es: 
          - "Vilafranca de Bonany"
        population: 2521
        timezone: Europe/Madrid
      - 
        alternate_names: 
          - "Es Castell"
          - Vilacarlos
          - Villacarlos
        ascii_name: "Es Castell"
        geonamesid: 2509607
        latitude: 39.8776
        longitude: 4.2899
        name: "Es Castell"
        names_en: ~
        names_es: 
          - Villacarlos
        population: 7440
        timezone: Europe/Madrid
      - 
        alternate_names: 
          - Valldemosa
          - Valldemossa
          - "fa de mo sa"
          - 法德摩薩
        ascii_name: Valldemossa
        geonamesid: 2509929
        latitude: 39.71042
        longitude: 2.6223
        name: Valldemossa
        names_en: 
          - Valldemossa
        names_es: 
          - Valldemosa
          - Valldemossa
        population: 1910
        timezone: Europe/Madrid
      - 
        alternate_names: 
          - "Son Servera"
        ascii_name: "Son Servera"
        geonamesid: 2510799
        latitude: 39.62073
        longitude: 3.36008
        name: "Son Servera"
        names_en: 
          - "Son Servera"
        names_es: 
          - "Son Servera"
        population: 12215
        timezone: Europe/Madrid
      - 
        alternate_names: 
          - Soller
          - Sóller
        ascii_name: Soller
        geonamesid: 2510821
        latitude: 39.76623
        longitude: 2.71521
        name: Sóller
        names_en: 
          - Soller
        names_es: 
          - Sóller
        population: 13942
        timezone: Europe/Madrid
      - 
        alternate_names: 
          - Sineu
        ascii_name: Sineu
        geonamesid: 2510868
        latitude: 39.64254
        longitude: 3.01034
        name: Sineu
        names_en: 
          - Sineu
        names_es: 
          - Sineu
        population: 3053
        timezone: Europe/Madrid
      - 
        alternate_names: 
          - "les Salines"
          - "ses Salines"
        ascii_name: "Ses Salines"
        geonamesid: 2510919
        latitude: 39.33831
        longitude: 3.05274
        name: "Ses Salines"
        names_en: 
          - "ses Salines"
        names_es: 
          - "ses Salines"
        population: 4290
        timezone: Europe/Madrid
      - 
        alternate_names: 
          - Selva
        ascii_name: Selva
        geonamesid: 2510961
        latitude: 39.75504
        longitude: 2.90069
        name: Selva
        names_en: 
          - Selva
        names_es: 
          - Selva
        population: 3205
        timezone: Europe/Madrid
      - 
        alternate_names: 
          - Santanyi
          - Santanyí
        ascii_name: Santanyi
        geonamesid: 2511106
        latitude: 39.35461
        longitude: 3.12907
        name: Santanyí
        names_en: 
          - Santanyí
        names_es: 
          - Santanyí
        population: 12664
        timezone: Europe/Madrid
      - 
        alternate_names: 
          - "Santa Margalida"
          - "Santa Margarita"
        ascii_name: "Santa Margalida"
        geonamesid: 2511143
        latitude: 39.70143
        longitude: 3.10215
        name: "Santa Margalida"
        names_en: 
          - "Santa Margalida"
        names_es: 
          - "Santa Margarita"
        population: 11537
        timezone: Europe/Madrid
      - 
        alternate_names: 
          - "Santa Eulalia del Rio"
          - "Santa Eulalia del Río"
          - "Santa Eularia del Riu"
          - "Santa Eularia des Riu"
        ascii_name: "Santa Eularia des Riu"
        geonamesid: 2511162
        latitude: 38.98457
        longitude: 1.53409
        name: "Santa Eulària des Riu"
        names_en: 
          - "Santa Eulària des Riu"
        names_es: 
          - "Santa Eulalia del Río"
        population: 31314
        timezone: Europe/Madrid
      - 
        alternate_names: 
          - "Santa Eugenia"
          - "Santa Eugènia"
        ascii_name: "Santa Eugenia"
        geonamesid: 2511166
        latitude: 39.62361
        longitude: 2.83864
        name: "Santa Eugènia"
        names_en: 
          - "Santa Eugènia"
        names_es: 
          - "Santa Eugènia"
        population: 1420
        timezone: Europe/Madrid
      - 
        alternate_names: 
          - "Sant Lluis"
          - "Sant Lluís"
        ascii_name: "Sant Lluis"
        geonamesid: 2511302
        latitude: 39.85263
        longitude: 4.25939
        name: "Sant Lluís"
        names_en: ~
        names_es: ~
        population: 5865
        timezone: Europe/Madrid
      - 
        alternate_names: 
          - "San Juan"
          - "San Juan Bautista"
          - "Sant Joan de Labritja"
        ascii_name: "Sant Joan de Labritja"
        geonamesid: 2511331
        latitude: 39.07891
        longitude: 1.51397
        name: "Sant Joan de Labritja"
        names_en: ~
        names_es: 
          - "San Juan Bautista"
        population: 4838
        timezone: Europe/Madrid
      - 
        alternate_names: 
          - "San Jose"
          - "San Jose de la Atalaya"
          - "Sant Josep de sa Talaia"
        ascii_name: "Sant Josep de sa Talaia"
        geonamesid: 2511352
        latitude: 38.91667
        longitude: 1.28333
        name: "Sant Josep de sa Talaia"
        names_en: 
          - "San Jose"
        names_es: 
          - "San Jose de la Atalaya"
        population: 22171
        timezone: Europe/Madrid
      - 
        alternate_names: 
          - "San Francisco"
          - "San Francisco Javier"
          - "Sant Francesc"
          - "Sant Francesc de Formentera"
        ascii_name: "Sant Francesc de Formentera"
        geonamesid: 2511381
        latitude: 38.7
        longitude: 1.41667
        name: "Sant Francesc de Formentera"
        names_en: 
          - "Sant Francesc de Formentera"
        names_es: 
          - "San Francisco Javier"
          - "Sant Francesc de Formentera"
        population: 2656
        timezone: Europe/Madrid
      - 
        alternate_names: 
          - Sencelles
        ascii_name: Sencelles
        geonamesid: 2511420
        latitude: 39.64598
        longitude: 2.89769
        name: Sencelles
        names_en: 
          - Sencelles
        names_es: 
          - Sencelles
        population: 2656
        timezone: Europe/Madrid
      - 
        alternate_names: 
          - "San Antonio"
          - "Sant Antoni"
          - "Sant Antoni de Portmany"
        ascii_name: "Sant Antoni de Portmany"
        geonamesid: 2511448
        latitude: 38.98068
        longitude: 1.30362
        name: "Sant Antoni de Portmany"
        names_en: ~
        names_es: 
          - "San Antonio"
        population: 21852
        timezone: Europe/Madrid
      - 
        alternate_names: 
          - Puigpunyent
        ascii_name: Puigpunyent
        geonamesid: 2512160
        latitude: 39.62514
        longitude: 2.52759
        name: Puigpunyent
        names_en: 
          - Puigpunyent
        names_es: 
          - Puigpunyent
        population: 1513
        timezone: Europe/Madrid
      - 
        alternate_names: 
          - Porreras
          - Porreres
        ascii_name: Porreres
        geonamesid: 2512398
        latitude: 39.51434
        longitude: 3.02197
        name: Porreres
        names_en: 
          - Porreres
        names_es: 
          - Porreras
        population: 4597
        timezone: Europe/Madrid
      - 
        alternate_names: 
          - Pollenca
          - Pollensa
          - Pollença
        ascii_name: Pollenca
        geonamesid: 2512432
        latitude: 39.87678
        longitude: 3.01626
        name: Pollença
        names_en: 
          - Pollença
        names_es: 
          - Pollença
          - Pollensa
        population: 17260
        timezone: Europe/Madrid
      - 
        alternate_names: 
          - Petra
          - Петра
        ascii_name: Petra
        geonamesid: 2512638
        latitude: 39.61351
        longitude: 3.11312
        name: Petra
        names_en: 
          - Petra
        names_es: 
          - Petra
        population: 2707
        timezone: Europe/Madrid
      - 
        alternate_names: 
          - "Ciutat de Mallorca"
          - "Madina Mayurqa"
          - Pal'ma-de-Majorka
          - Palma
        ascii_name: Palma
        geonamesid: 2512989
        latitude: 39.56939
        longitude: 2.65024
        name: Palma
        names_en: 
          - "Palma de Mallorca"
        names_es: 
          - Palma
          - "Palma de Mallorca"
        population: 401270
        timezone: Europe/Madrid
      - 
        alternate_names: 
          - Muro
        ascii_name: Muro
        geonamesid: 2513406
        latitude: 39.73661
        longitude: 3.05559
        name: Muro
        names_en: 
          - Muro
        names_es: 
          - Muro
        population: 6610
        timezone: Europe/Madrid
      - 
        alternate_names: 
          - Montuiri
          - Montuïri
        ascii_name: Montuiri
        geonamesid: 2513590
        latitude: 39.56742
        longitude: 2.98189
        name: Montuïri
        names_en: 
          - Montuïri
        names_es: 
          - Montuïri
        population: 2594
        timezone: Europe/Madrid
      - 
        alternate_names: ~
        ascii_name: "Es Mercadal"
        geonamesid: 2513922
        latitude: 39.99014
        longitude: 4.09387
        name: "Es Mercadal"
        names_en: ~
        names_es: ~
        population: 4063
        timezone: Europe/Madrid
      - 
        alternate_names: 
          - Marrachi
          - Marratxi
          - Marratxí
          - Маррачи
        ascii_name: Marratxi
        geonamesid: 2514097
        latitude: 39.64208
        longitude: 2.75388
        name: Marratxí
        names_en: 
          - Marratxí
        names_es: 
          - Marratxí
        population: 33348
        timezone: Europe/Madrid
      - 
        alternate_names: 
          - Maria
          - "Maria de la Salut"
        ascii_name: "Maria de la Salut"
        geonamesid: 2514134
        latitude: 39.66306
        longitude: 3.073
        name: "Maria de la Salut"
        names_en: 
          - "Maria de la Salut"
        names_es: 
          - "Maria de la Salut"
        population: 2118
        timezone: Europe/Madrid
      - 
        alternate_names: 
          - Manacor
          - Manakor
          - Манакор
        ascii_name: Manacor
        geonamesid: 2514216
        latitude: 39.56964
        longitude: 3.20955
        name: Manacor
        names_en: 
          - Manacor
        names_es: 
          - Manacor
        population: 40548
        timezone: Europe/Madrid
      - 
        alternate_names: 
          - Mahon
          - Mahón
          - Mao
          - Maó
        ascii_name: Mao
        geonamesid: 2514301
        latitude: 39.88853
        longitude: 4.26583
        name: Maó
        names_en: 
          - Mahon
        names_es: 
          - Mahón
          - Maó
        population: 29125
        timezone: Europe/Madrid
      - 
        alternate_names: 
          - Llucmajor
        ascii_name: Llucmajor
        geonamesid: 2514984
        latitude: 39.49093
        longitude: 2.89108
        name: Llucmajor
        names_en: 
          - Llucmajor
        names_es: 
          - Llucmajor
        population: 36078
        timezone: Europe/Madrid
      - 
        alternate_names: 
          - Llubi
          - Llubí
        ascii_name: Llubi
        geonamesid: 2514987
        latitude: 39.69933
        longitude: 3.00681
        name: Llubí
        names_en: 
          - Llubí
        names_es: 
          - Llubí
        population: 2030
        timezone: Europe/Madrid
      - 
        alternate_names: 
          - Lloseta
        ascii_name: Lloseta
        geonamesid: 2514988
        latitude: 39.71849
        longitude: 2.8669
        name: Lloseta
        names_en: 
          - Lloseta
        names_es: 
          - Lloseta
        population: 5295
        timezone: Europe/Madrid
      - 
        alternate_names: 
          - "Lloret de Vistalegre"
        ascii_name: "Lloret de Vistalegre"
        geonamesid: 2514991
        latitude: 39.61835
        longitude: 2.97493
        name: "Lloret de Vistalegre"
        names_en: 
          - "Lloret de Vistalegre"
        names_es: 
          - "Lloret de Vistalegre"
        population: 1134
        timezone: Europe/Madrid
      - 
        alternate_names: 
          - "la Pobla"
          - "sa Pobla"
        ascii_name: "sa Pobla"
        geonamesid: 2515624
        latitude: 39.7692
        longitude: 3.02394
        name: "sa Pobla"
        names_en: 
          - "sa Pobla"
        names_es: 
          - "sa Pobla"
        population: 12766
        timezone: Europe/Madrid
      - 
        alternate_names: 
          - Inca
          - Inka
          - Инка
        ascii_name: Inca
        geonamesid: 2516452
        latitude: 39.7211
        longitude: 2.91093
        name: Inca
        names_en: 
          - Inca
        names_es: 
          - Inca
        population: 29308
        timezone: Europe/Madrid
      - 
        alternate_names: 
          - Eivissa
          - Ibica
          - Ibiza
          - "Ibiza Town"
        ascii_name: Eivissa
        geonamesid: 2516479
        latitude: 38.90883
        longitude: 1.43296
        name: Eivissa
        names_en: 
          - "Ibiza Town"
        names_es: 
          - Ibiza
        population: 48684
        timezone: Europe/Madrid
      - 
        alternate_names: 
          - Ferrerias
          - Ferreries
          - Ferrerías
        ascii_name: Ferreries
        geonamesid: 2517733
        latitude: 39.98324
        longitude: 4.01181
        name: Ferreries
        names_en: ~
        names_es: 
          - Ferrerias
        population: 4416
        timezone: Europe/Madrid
      - 
        alternate_names: 
          - Felanitx
        ascii_name: Felanitx
        geonamesid: 2517750
        latitude: 39.4696
        longitude: 3.14831
        name: Felanitx
        names_en: 
          - Felanitx
        names_es: 
          - Felanitx
        population: 18270
        timezone: Europe/Madrid
      - 
        alternate_names: 
          - Esporles
        ascii_name: Esporles
        geonamesid: 2517880
        latitude: 39.6697
        longitude: 2.57853
        name: Esporles
        names_en: 
          - Esporles
        names_es: 
          - Esporles
        population: 4457
        timezone: Europe/Madrid
      - 
        alternate_names: 
          - Arenal'
          - "El Arenal"
          - l'Arenal
          - s'Arenal
        ascii_name: s'Arenal
        geonamesid: 2518723
        latitude: 39.5
        longitude: 2.75
        name: s'Arenal
        names_en: 
          - s'Arenal
        names_es: 
          - "El Arenal"
        population: 10207
        timezone: Europe/Madrid
      - 
        alternate_names: 
          - Costitx
        ascii_name: Costitx
        geonamesid: 2519139
        latitude: 39.65675
        longitude: 2.94953
        name: Costitx
        names_en: 
          - Costitx
        names_es: 
          - Costitx
        population: 1001
        timezone: Europe/Madrid
      - 
        alternate_names: 
          - Consell
        ascii_name: Consell
        geonamesid: 2519283
        latitude: 39.66861
        longitude: 2.81267
        name: Consell
        names_en: 
          - Consell
        names_es: 
          - Consell
        population: 2877
        timezone: Europe/Madrid
      - 
        alternate_names: 
          - Capdepera
        ascii_name: Capdepera
        geonamesid: 2520200
        latitude: 39.70263
        longitude: 3.43357
        name: Capdepera
        names_en: 
          - Capdepera
        names_es: 
          - Capdepera
        population: 11911
        timezone: Europe/Madrid
      - 
        alternate_names: 
          - Campanet
        ascii_name: Campanet
        geonamesid: 2520453
        latitude: 39.7747
        longitude: 2.96506
        name: Campanet
        names_en: 
          - Campanet
        names_es: 
          - Campanet
        population: 2515
        timezone: Europe/Madrid
      - 
        alternate_names: 
          - Calvia
          - Calvià
        ascii_name: Calvia
        geonamesid: 2520493
        latitude: 39.5657
        longitude: 2.50621
        name: Calvià
        names_en: 
          - Calvià
        names_es: 
          - Calvià
        population: 51774
        timezone: Europe/Madrid
      - 
        alternate_names: 
          - Bunyola
        ascii_name: Bunyola
        geonamesid: 2520724
        latitude: 39.69634
        longitude: 2.69955
        name: Bunyola
        names_en: 
          - Bunyola
        names_es: 
          - Bunyola
        population: 5475
        timezone: Europe/Madrid
      - 
        alternate_names: 
          - Buger
          - Búger
        ascii_name: Buger
        geonamesid: 2520745
        latitude: 39.75809
        longitude: 2.98349
        name: Búger
        names_en: 
          - Búger
        names_es: 
          - Búger
        population: 1016
        timezone: Europe/Madrid
      - 
        alternate_names: 
          - Binissalem
        ascii_name: Binissalem
        geonamesid: 2520943
        latitude: 39.68744
        longitude: 2.84396
        name: Binissalem
        names_en: 
          - Binissalem
        names_es: 
          - Binissalem
        population: 6326
        timezone: Europe/Madrid
      - 
        alternate_names: 
          - Arta
          - Artà
        ascii_name: Arta
        geonamesid: 2521534
        latitude: 39.69315
        longitude: 3.34979
        name: Artà
        names_en: 
          - Artà
        names_es: 
          - Artà
        population: 6649
        timezone: Europe/Madrid
      - 
        alternate_names: 
          - Andratx
        ascii_name: Andratx
        geonamesid: 2521741
        latitude: 39.57553
        longitude: 2.42017
        name: Andratx
        names_en: 
          - Andratx
        names_es: 
          - Andratx
        population: 11685
        timezone: Europe/Madrid
      - 
        alternate_names: 
          - Algaida
        ascii_name: Algaida
        geonamesid: 2522036
        latitude: 39.55899
        longitude: 2.89541
        name: Algaida
        names_en: 
          - Algaida
        names_es: 
          - Algaida
        population: 4258
        timezone: Europe/Madrid
      - 
        alternate_names: 
          - Alcudia
          - Alcúdia
        ascii_name: Alcudia
        geonamesid: 2522091
        latitude: 39.85316
        longitude: 3.12138
        name: Alcúdia
        names_en: 
          - Alcúdia
        names_es: 
          - Alcúdia
        population: 19071
        timezone: Europe/Madrid
      - 
        alternate_names: 
          - Alaior
          - Alayor
        ascii_name: Alaior
        geonamesid: 2522259
        latitude: 39.93034
        longitude: 4.14039
        name: Alaior
        names_en: ~
        names_es: 
          - Alayor
        population: 8671
        timezone: Europe/Madrid
      - 
        alternate_names: 
          - Alaro
          - Alaró
        ascii_name: Alaro
        geonamesid: 2522261
        latitude: 39.70441
        longitude: 2.79181
        name: Alaró
        names_en: 
          - Alaró
        names_es: 
          - Alaró
        population: 4707
        timezone: Europe/Madrid
      - 
        alternate_names: 
          - Ciudadela
          - Ciutadella
        ascii_name: Ciutadella
        geonamesid: 3124967
        latitude: 40.00112
        longitude: 3.84144
        name: Ciutadella
        names_en: 
          - Ciutadella
        names_es: 
          - Ciudadela
        population: 29160
        timezone: Europe/Madrid
      - 
        alternate_names: 
          - "Santa Ponca"
          - "Santa Ponsa"
          - "Santa Ponça"
          - Santa-Ponsa
        ascii_name: "Santa Ponca"
        geonamesid: 6324533
        latitude: 39.50868
        longitude: 2.4766
        name: "Santa Ponça"
        names_en: ~
        names_es: 
          - "Santa Ponça"
        population: 10736
        timezone: Europe/Madrid
      - 
        alternate_names: 
          - Magalluf
          - Magaluf
        ascii_name: Magaluf
        geonamesid: 6355015
        latitude: 39.5111
        longitude: 2.5353
        name: Magaluf
        names_en: 
          - Magaluf
          - Magalluf
        names_es: 
          - Magaluf
        population: 4346
        timezone: Europe/Madrid
      - 
        alternate_names: 
          - Kamp-de-Mar
          - "el Camp de Mar"
          - "es Camp de Mar"
          - Камп-де-Мар
        ascii_name: "es Camp de Mar"
        geonamesid: 6355023
        latitude: 39.53827
        longitude: 2.42386
        name: "es Camp de Mar"
        names_en: 
          - "es Camp de Mar"
        names_es: 
          - "es Camp de Mar"
        population: 1500
        timezone: Europe/Madrid
      - 
        alternate_names: 
          - "Port d'Alcudia"
          - "Port d'Alcúdia"
        ascii_name: "Port d'Alcudia"
        geonamesid: 6544075
        latitude: 39.84182
        longitude: 3.13291
        name: "Port d'Alcúdia"
        names_en: 
          - "Port d'Alcudia"
        names_es: 
          - "Port d'Alcúdia"
        population: 4185
        timezone: Europe/Madrid
    geonamesid: 2521383
    name: "Balearic Islands"
    names_en: 
      - "Balearic Islands"
    names_es: 
      - "Comunidad Autónoma de las Islas Baleares"
      - "Islas Baleares"
      - Baleares
  - 
    ascii_name: Andalusia
    cities: 
      - 
        alternate_names: ~
        ascii_name: Zurgena
        geonamesid: 2509293
        latitude: 37.34218
        longitude: -2.03985
        name: Zurgena
        names_en: ~
        names_es: ~
        population: 2317
        timezone: Europe/Madrid
      - 
        alternate_names: 
          - Zujar
          - Zújar
        ascii_name: Zujar
        geonamesid: 2509300
        latitude: 37.55
        longitude: -2.83333
        name: Zújar
        names_en: ~
        names_es: ~
        population: 2699
        timezone: Europe/Madrid
      - 
        alternate_names: 
          - "La Zubia"
          - Zubia
        ascii_name: Zubia
        geonamesid: 2509305
        latitude: 37.11667
        longitude: -3.58333
        name: Zubia
        names_en: ~
        names_es: 
          - "La Zubia"
        population: 17803
        timezone: Europe/Madrid
      - 
        alternate_names: 
          - Zalamea
          - "Zalamea la Real"
        ascii_name: "Zalamea la Real"
        geonamesid: 2509364
        latitude: 37.68333
        longitude: -6.65
        name: "Zalamea la Real"
        names_en: ~
        names_es: ~
        population: 3506
        timezone: Europe/Madrid
      - 
        alternate_names: 
          - Saara-de-los-Atunes
          - Zahara
          - "Zahara de los Atunes"
          - Саара-де-лос-Атунес
        ascii_name: "Zahara de los Atunes"
        geonamesid: 2509369
        latitude: 36.13556
        longitude: -5.84528
        name: "Zahara de los Atunes"
        names_en: ~
        names_es: ~
        population: 1307
        timezone: Europe/Madrid
      - 
        alternate_names: ~
        ascii_name: Zahara
        geonamesid: 2509371
        latitude: 36.84055
        longitude: -5.39128
        name: Zahara
        names_en: ~
        names_es: ~
        population: 1571
        timezone: Europe/Madrid
      - 
        alternate_names: ~
        ascii_name: Zagra
        geonamesid: 2509374
        latitude: 37.25561
        longitude: -4.16905
        name: Zagra
        names_en: ~
        names_es: ~
        population: 1092
        timezone: Europe/Madrid
      - 
        alternate_names: ~
        ascii_name: Zafarraya
        geonamesid: 2509379
        latitude: 36.97554
        longitude: -4.14442
        name: Zafarraya
        names_en: ~
        names_es: ~
        population: 2181
        timezone: Europe/Madrid
      - 
        alternate_names: 
          - Yunquera
        ascii_name: Yunquera
        geonamesid: 2509382
        latitude: 36.73333
        longitude: -4.91667
        name: Yunquera
        names_en: ~
        names_es: ~
        population: 3298
        timezone: Europe/Madrid
      - 
        alternate_names: ~
        ascii_name: Vinuela
        geonamesid: 2509451
        latitude: 36.86307
        longitude: -4.14124
        name: Viñuela
        names_en: ~
        names_es: ~
        population: 1591
        timezone: Europe/Madrid
      - 
        alternate_names: 
          - Villaviciosa
          - "Villaviciosa de Cordoba"
          - "Villaviciosa de Córdoba"
        ascii_name: "Villaviciosa de Cordoba"
        geonamesid: 2509466
        latitude: 38.08333
        longitude: -5.01667
        name: "Villaviciosa de Córdoba"
        names_en: ~
        names_es: ~
        population: 3647
        timezone: Europe/Madrid
      - 
        alternate_names: 
          - "Villaverde del Rio"
          - "Villaverde del Río"
        ascii_name: "Villaverde del Rio"
        geonamesid: 2509468
        latitude: 37.58333
        longitude: -5.86667
        name: "Villaverde del Río"
        names_en: ~
        names_es: ~
        population: 6703
        timezone: Europe/Madrid
      - 
        alternate_names: 
          - Villariba
          - Villarrubia
          - Виллариба
        ascii_name: Villarrubia
        geonamesid: 2509488
        latitude: 37.85
        longitude: -4.9
        name: Villarrubia
        names_en: 
          - Villarrubia
        names_es: ~
        population: 2893
        timezone: Europe/Madrid
      - 
        alternate_names: 
          - Villarrasa
        ascii_name: Villarrasa
        geonamesid: 2509494
        latitude: 37.38333
        longitude: -6.6
        name: Villarrasa
        names_en: ~
        names_es: ~
        population: 2142
        timezone: Europe/Madrid
      - 
        alternate_names: 
          - Villardompardo
        ascii_name: Villardompardo
        geonamesid: 2509510
        latitude: 37.83333
        longitude: -4.0
        name: Villardompardo
        names_en: ~
        names_es: ~
        population: 1157
        timezone: Europe/Madrid
      - 
        alternate_names: 
          - Villaralto
        ascii_name: Villaralto
        geonamesid: 2509528
        latitude: 38.45
        longitude: -4.98333
        name: Villaralto
        names_en: ~
        names_es: ~
        population: 1398
        timezone: Europe/Madrid
      - 
        alternate_names: 
          - "Villanueva de Tapia"
        ascii_name: "Villanueva de Tapia"
        geonamesid: 2509538
        latitude: 37.18333
        longitude: -4.33333
        name: "Villanueva de Tapia"
        names_en: ~
        names_es: ~
        population: 1695
        timezone: Europe/Madrid
      - 
        alternate_names: 
          - "Villanueva de San Juan"
        ascii_name: "Villanueva de San Juan"
        geonamesid: 2509539
        latitude: 37.05
        longitude: -5.18333
        name: "Villanueva de San Juan"
        names_en: ~
        names_es: ~
        population: 1450
        timezone: Europe/Madrid
      - 
        alternate_names: ~
        ascii_name: "Villanueva del Trabuco"
        geonamesid: 2509543
        latitude: 37.02832
        longitude: -4.33891
        name: "Villanueva del Trabuco"
        names_en: ~
        names_es: ~
        population: 5067
        timezone: Europe/Madrid
      - 
        alternate_names: ~
        ascii_name: "Villanueva del Rosario"
        geonamesid: 2509544
        latitude: 36.99679
        longitude: -4.36535
        name: "Villanueva del Rosario"
        names_en: ~
        names_es: ~
        population: 3356
        timezone: Europe/Madrid
      - 
        alternate_names: 
          - "Minas de la Reunion"
          - "Villanueva de las Minas"
          - "Villanueva del Rio y Minas"
          - "Villanueva del Río y Minas"
        ascii_name: "Villanueva del Rio y Minas"
        geonamesid: 2509545
        latitude: 37.65
        longitude: -5.7
        name: "Villanueva del Río y Minas"
        names_en: ~
        names_es: ~
        population: 5213
        timezone: Europe/Madrid
      - 
        alternate_names: 
          - "Villanueva del Duque"
        ascii_name: "Villanueva del Duque"
        geonamesid: 2509551
        latitude: 38.38333
        longitude: -5.0
        name: "Villanueva del Duque"
        names_en: ~
        names_es: ~
        population: 1669
        timezone: Europe/Madrid
      - 
        alternate_names: 
          - "Villanueva del Arzobispo"
        ascii_name: "Villanueva del Arzobispo"
        geonamesid: 2509555
        latitude: 38.16667
        longitude: -3.0
        name: "Villanueva del Arzobispo"
        names_en: ~
        names_es: ~
        population: 8716
        timezone: Europe/Madrid
      - 
        alternate_names: 
          - "Villanueva del Ariscal"
        ascii_name: "Villanueva del Ariscal"
        geonamesid: 2509556
        latitude: 37.4
        longitude: -6.13333
        name: "Villanueva del Ariscal"
        names_en: ~
        names_es: ~
        population: 5471
        timezone: Europe/Madrid
      - 
        alternate_names: 
          - "Villanueva de la Reina"
        ascii_name: "Villanueva de la Reina"
        geonamesid: 2509557
        latitude: 38.0
        longitude: -3.91667
        name: "Villanueva de la Reina"
        names_en: ~
        names_es: ~
        population: 3373
        timezone: Europe/Madrid
      - 
        alternate_names: 
          - "Villanueva de Cordoba"
          - "Villanueva de Cordova"
          - "Villanueva de Córdoba"
          - "Villanueva de Córdova"
        ascii_name: "Villanueva de Cordoba"
        geonamesid: 2509562
        latitude: 38.33333
        longitude: -4.61667
        name: "Villanueva de Córdoba"
        names_en: ~
        names_es: ~
        population: 10057
        timezone: Europe/Madrid
      - 
        alternate_names: ~
        ascii_name: "Villanueva de Algaidas"
        geonamesid: 2509566
        latitude: 37.1835
        longitude: -4.45032
        name: "Villanueva de Algaidas"
        names_en: ~
        names_es: ~
        population: 4421
        timezone: Europe/Madrid
      - 
        alternate_names: 
          - Villamartin
          - Villamartín
        ascii_name: Villamartin
        geonamesid: 2509575
        latitude: 36.86667
        longitude: -5.63333
        name: Villamartín
        names_en: ~
        names_es: ~
        population: 12526
        timezone: Europe/Madrid
      - 
        alternate_names: 
          - Villamanrique
          - "Villamanrique de la Condesa"
        ascii_name: "Villamanrique de la Condesa"
        geonamesid: 2509577
        latitude: 37.24806
        longitude: -6.30611
        name: "Villamanrique de la Condesa"
        names_en: ~
        names_es: ~
        population: 3779
        timezone: Europe/Madrid
      - 
        alternate_names: 
          - "Villalba del Alcor"
        ascii_name: "Villalba del Alcor"
        geonamesid: 2509587
        latitude: 37.4
        longitude: -6.46667
        name: "Villalba del Alcor"
        names_en: ~
        names_es: ~
        population: 3406
        timezone: Europe/Madrid
      - 
        alternate_names: 
          - "Villafranca de Cordoba"
          - "Villafranca de Córdoba"
        ascii_name: "Villafranca de Cordoba"
        geonamesid: 2509599
        latitude: 37.96667
        longitude: -4.53333
        name: "Villafranca de Córdoba"
        names_en: ~
        names_es: ~
        population: 3799
        timezone: Europe/Madrid
      - 
        alternate_names: 
          - "Villa del Rio"
          - "Villa del Río"
        ascii_name: "Villa del Rio"
        geonamesid: 2509603
        latitude: 37.98333
        longitude: -4.28333
        name: "Villa del Río"
        names_en: ~
        names_es: ~
        population: 7407
        timezone: Europe/Madrid
      - 
        alternate_names: 
          - Villacarillo
          - Villacarrillo
        ascii_name: Villacarrillo
        geonamesid: 2509606
        latitude: 38.11667
        longitude: -3.08333
        name: Villacarrillo
        names_en: ~
        names_es: ~
        population: 11294
        timezone: Europe/Madrid
      - 
        alternate_names: 
          - Villablanca
        ascii_name: Villablanca
        geonamesid: 2509609
        latitude: 37.3
        longitude: -7.33333
        name: Villablanca
        names_en: ~
        names_es: ~
        population: 2286
        timezone: Europe/Madrid
      - 
        alternate_names: 
          - Vilches
        ascii_name: Vilches
        geonamesid: 2509615
        latitude: 38.2
        longitude: -3.5
        name: Vilches
        names_en: ~
        names_es: ~
        population: 4929
        timezone: Europe/Madrid
      - 
        alternate_names: ~
        ascii_name: Vicar
        geonamesid: 2509650
        latitude: 36.83155
        longitude: -2.64273
        name: Vícar
        names_en: ~
        names_es: ~
        population: 22853
        timezone: Europe/Madrid
      - 
        alternate_names: ~
        ascii_name: Viator
        geonamesid: 2509660
        latitude: 36.89006
        longitude: -2.42695
        name: Viator
        names_en: ~
        names_es: ~
        population: 3945
        timezone: Europe/Madrid
      - 
        alternate_names: ~
        ascii_name: Vera
        geonamesid: 2509693
        latitude: 37.24345
        longitude: -1.85905
        name: Vera
        names_en: ~
        names_es: ~
        population: 13985
        timezone: Europe/Madrid
      - 
        alternate_names: 
          - "Velez Rubio"
          - Velez-Rubio
          - Vélez-Rubio
        ascii_name: "Velez Rubio"
        geonamesid: 2509768
        latitude: 37.65
        longitude: -2.06667
        name: "Vélez Rubio"
        names_en: 
          - "Velez Rubio"
          - Velez-Rubio
        names_es: 
          - Vélez-Rubio
        population: 7045
        timezone: Europe/Madrid
      - 
        alternate_names: 
          - Veles-Malaga
          - Velez-Malaga
          - Vélez-Màlaga
          - Vélez-Málaga
        ascii_name: Velez-Malaga
        geonamesid: 2509769
        latitude: 36.78333
        longitude: -4.1
        name: Vélez-Málaga
        names_en: 
          - Vélez-Málaga
        names_es: 
          - Vélez-Málaga
        population: 74190
        timezone: Europe/Madrid
      - 
        alternate_names: 
          - "Velez Benahudalla"
          - "Velez Benandalla"
          - "Velez de Benaudalla"
          - "Velez de Benaudilla"
        ascii_name: "Velez de Benaudalla"
        geonamesid: 2509771
        latitude: 36.83333
        longitude: -3.51667
        name: "Vélez de Benaudalla"
        names_en: ~
        names_es: ~
        population: 2618
        timezone: Europe/Madrid
      - 
        alternate_names: 
          - "Velez Blanco"
          - Velez-Blanco
          - "Vélez Blanco"
        ascii_name: "Velez Blanco"
        geonamesid: 2509772
        latitude: 37.68333
        longitude: -2.08333
        name: "Vélez Blanco"
        names_en: 
          - "Velez Blanco"
          - Velez-Blanco
        names_es: ~
        population: 2044
        timezone: Europe/Madrid
      - 
        alternate_names: 
          - "Vejer de la Frontera"
        ascii_name: "Vejer de la Frontera"
        geonamesid: 2509783
        latitude: 36.25
        longitude: -5.96667
        name: "Vejer de la Frontera"
        names_en: 
          - "Vejer de la Frontera"
        names_es: 
          - "Vejer de la Frontera"
        population: 12973
        timezone: Europe/Madrid
      - 
        alternate_names: 
          - "Valverde del Camino"
        ascii_name: "Valverde del Camino"
        geonamesid: 2509835
        latitude: 37.56667
        longitude: -6.75
        name: "Valverde del Camino"
        names_en: ~
        names_es: ~
        population: 12780
        timezone: Europe/Madrid
      - 
        alternate_names: ~
        ascii_name: Valenzuela
        geonamesid: 2509944
        latitude: 37.7756
        longitude: -4.22038
        name: Valenzuela
        names_en: ~
        names_es: ~
        population: 1387
        timezone: Europe/Madrid
      - 
        alternate_names: 
          - Valencina
          - "Valencina de la Concepcion"
          - "Valencina de la Concepción"
          - "Valencina del Alcor"
        ascii_name: "Valencina de la Concepcion"
        geonamesid: 2509946
        latitude: 37.41667
        longitude: -6.06667
        name: "Valencina de la Concepción"
        names_en: ~
        names_es: ~
        population: 7343
        timezone: Europe/Madrid
      - 
        alternate_names: ~
        ascii_name: Valdes
        geonamesid: 2509974
        latitude: 36.75835
        longitude: -4.24235
        name: Valdés
        names_en: ~
        names_es: ~
        population: 13529
        timezone: Europe/Madrid
      - 
        alternate_names: 
          - Valdepenas
          - "Valdepenas de Jaen"
          - Valdepeñas
          - "Valdepeñas de Jaén"
        ascii_name: "Valdepenas de Jaen"
        geonamesid: 2509980
        latitude: 37.58333
        longitude: -3.81667
        name: "Valdepeñas de Jaén"
        names_en: ~
        names_es: ~
        population: 4331
        timezone: Europe/Madrid
      - 
        alternate_names: 
          - Utrera
          - Утрера
        ascii_name: Utrera
        geonamesid: 2510073
        latitude: 37.18611
        longitude: -5.78667
        name: Utrera
        names_en: ~
        names_es: ~
        population: 50665
        timezone: Europe/Madrid
      - 
        alternate_names: 
          - Umbrete
        ascii_name: Umbrete
        geonamesid: 2510098
        latitude: 37.36667
        longitude: -6.15
        name: Umbrete
        names_en: ~
        names_es: ~
        population: 5527
        timezone: Europe/Madrid
      - 
        alternate_names: ~
        ascii_name: Ugijar
        geonamesid: 2510103
        latitude: 36.96087
        longitude: -3.05523
        name: Ugíjar
        names_en: ~
        names_es: ~
        population: 2546
        timezone: Europe/Madrid
      - 
        alternate_names: 
          - Ubrique
        ascii_name: Ubrique
        geonamesid: 2510112
        latitude: 36.68333
        longitude: -5.45
        name: Ubrique
        names_en: 
          - Ubrique
        names_es: 
          - Ubrique
        population: 16979
        timezone: Europe/Madrid
      - 
        alternate_names: 
          - Ubeda
          - ubeda
          - Úbeda
          - ウベダ
        ascii_name: Ubeda
        geonamesid: 2510116
        latitude: 38.01667
        longitude: -3.36667
        name: Úbeda
        names_en: 
          - Úbeda
        names_es: 
          - Úbeda
        population: 35649
        timezone: Europe/Madrid
      - 
        alternate_names: ~
        ascii_name: Turre
        geonamesid: 2510124
        latitude: 37.15224
        longitude: -1.89497
        name: Turre
        names_en: ~
        names_es: ~
        population: 2746
        timezone: Europe/Madrid
      - 
        alternate_names: 
          - Trigueros
        ascii_name: Trigueros
        geonamesid: 2510165
        latitude: 37.38333
        longitude: -6.83333
        name: Trigueros
        names_en: ~
        names_es: ~
        population: 7221
        timezone: Europe/Madrid
      - 
        alternate_names: 
          - Trebujena
        ascii_name: Trebujena
        geonamesid: 2510186
        latitude: 36.86667
        longitude: -6.16667
        name: Trebujena
        names_en: 
          - Trebujena
        names_es: 
          - Trebujena
        population: 6806
        timezone: Europe/Madrid
      - 
        alternate_names: ~
        ascii_name: Torrox
        geonamesid: 2510245
        latitude: 36.75793
        longitude: -3.95233
        name: Torrox
        names_en: ~
        names_es: ~
        population: 16890
        timezone: Europe/Madrid
      - 
        alternate_names: ~
        ascii_name: Torres
        geonamesid: 2510266
        latitude: 37.78537
        longitude: -3.50902
        name: Torres
        names_en: ~
        names_es: ~
        population: 1749
        timezone: Europe/Madrid
      - 
        alternate_names: 
          - Torreperogil
        ascii_name: Torreperogil
        geonamesid: 2510270
        latitude: 38.03333
        longitude: -3.28333
        name: Torreperogil
        names_en: ~
        names_es: ~
        population: 6786
        timezone: Europe/Madrid
      - 
        alternate_names: 
          - Toremolinos-Malaga
          - Toremolinos-Málaga
          - Torremolinos
          - Torremolinos-Malaga
        ascii_name: Torremolinos
        geonamesid: 2510281
        latitude: 36.62035
        longitude: -4.49976
        name: Torremolinos
        names_en: 
          - Torremolinos
        names_es: 
          - Torremolinos
        population: 65448
        timezone: Europe/Madrid
      - 
        alternate_names: 
          - Torredongimeno
          - Torredonjimeno
        ascii_name: Torredonjimeno
        geonamesid: 2510301
        latitude: 37.76667
        longitude: -3.95
        name: Torredonjimeno
        names_en: ~
        names_es: ~
        population: 14181
        timezone: Europe/Madrid
      - 
        alternate_names: 
          - "Torre del Compo"
        ascii_name: "Torre del Campo"
        geonamesid: 2510310
        latitude: 37.77051
        longitude: -3.89731
        name: "Torre del Campo"
        names_en: ~
        names_es: ~
        population: 14627
        timezone: Europe/Madrid
      - 
        alternate_names: ~
        ascii_name: Torre-Cardela
        geonamesid: 2510328
        latitude: 37.50456
        longitude: -3.35609
        name: Torre-Cardela
        names_en: ~
        names_es: ~
        population: 1107
        timezone: Europe/Madrid
      - 
        alternate_names: 
          - Torrecampo
        ascii_name: Torrecampo
        geonamesid: 2510329
        latitude: 38.46667
        longitude: -4.66667
        name: Torrecampo
        names_en: ~
        names_es: ~
        population: 1384
        timezone: Europe/Madrid
      - 
        alternate_names: 
          - Torreblascopedro
        ascii_name: Torreblascopedro
        geonamesid: 2510330
        latitude: 38.0
        longitude: -3.63333
        name: Torreblascopedro
        names_en: ~
        names_es: ~
        population: 2713
        timezone: Europe/Madrid
      - 
        alternate_names: 
          - Tomares
        ascii_name: Tomares
        geonamesid: 2510394
        latitude: 37.38333
        longitude: -6.03333
        name: Tomares
        names_en: ~
        names_es: ~
        population: 22772
        timezone: Europe/Madrid
      - 
        alternate_names: 
          - Tolox
        ascii_name: Tolox
        geonamesid: 2510398
        latitude: 36.7
        longitude: -4.9
        name: Tolox
        names_en: 
          - Tolox
        names_es: 
          - Tolox
        population: 2261
        timezone: Europe/Madrid
      - 
        alternate_names: 
          - Tocina
        ascii_name: Tocina
        geonamesid: 2510419
        latitude: 37.61667
        longitude: -5.71667
        name: Tocina
        names_en: ~
        names_es: ~
        population: 9067
        timezone: Europe/Madrid
      - 
        alternate_names: 
          - Tijola
          - Tíjola
        ascii_name: Tijola
        geonamesid: 2510463
        latitude: 37.35
        longitude: -2.43333
        name: Tíjola
        names_en: ~
        names_es: ~
        population: 3724
        timezone: Europe/Madrid
      - 
        alternate_names: 
          - Teba
        ascii_name: Teba
        geonamesid: 2510580
        latitude: 36.96667
        longitude: -4.93333
        name: Teba
        names_en: ~
        names_es: ~
        population: 4304
        timezone: Europe/Madrid
      - 
        alternate_names: 
          - Tarifa
          - Тарифа
        ascii_name: Tarifa
        geonamesid: 2510599
        latitude: 36.0125
        longitude: -5.60556
        name: Tarifa
        names_en: 
          - Tarifa
        names_es: 
          - Tarifa
        population: 17793
        timezone: Europe/Madrid
      - 
        alternate_names: 
          - Tabernas
        ascii_name: Tabernas
        geonamesid: 2510746
        latitude: 37.05
        longitude: -2.38333
        name: Tabernas
        names_en: ~
        names_es: ~
        population: 3241
        timezone: Europe/Madrid
      - 
        alternate_names: 
          - "Sorihuela del Guadalimar"
        ascii_name: "Sorihuela del Guadalimar"
        geonamesid: 2510787
        latitude: 38.23333
        longitude: -3.05
        name: "Sorihuela del Guadalimar"
        names_en: ~
        names_es: ~
        population: 1232
        timezone: Europe/Madrid
      - 
        alternate_names: 
          - Sorbas
        ascii_name: Sorbas
        geonamesid: 2510793
        latitude: 37.11667
        longitude: -2.11667
        name: Sorbas
        names_en: ~
        names_es: ~
        population: 2679
        timezone: Europe/Madrid
      - 
        alternate_names: 
          - "Sierra de Yeguas"
        ascii_name: "Sierra de Yeguas"
        geonamesid: 2510895
        latitude: 37.11667
        longitude: -4.86667
        name: "Sierra de Yeguas"
        names_en: ~
        names_es: ~
        population: 3311
        timezone: Europe/Madrid
      - 
        alternate_names: 
          - Hispalis
          - "Lungsod ng Sevilla"
          - Sebilla
          - Sebille
        ascii_name: Sevilla
        geonamesid: 2510911
        latitude: 37.37722
        longitude: -5.98694
        name: Sevilla
        names_en: 
          - Seville
        names_es: 
          - Sevilla
        population: 703206
        timezone: Europe/Madrid
      - 
        alternate_names: 
          - Setenil
        ascii_name: "Setenil de las Bodegas"
        geonamesid: 2510915
        latitude: 36.86397
        longitude: -5.18177
        name: "Setenil de las Bodegas"
        names_en: ~
        names_es: ~
        population: 3016
        timezone: Europe/Madrid
      - 
        alternate_names: 
          - Seron
          - Serón
        ascii_name: Seron
        geonamesid: 2510944
        latitude: 37.35
        longitude: -2.51667
        name: Serón
        names_en: ~
        names_es: ~
        population: 2432
        timezone: Europe/Madrid
      - 
        alternate_names: 
          - "Segura de la Sierra"
        ascii_name: "Segura de la Sierra"
        geonamesid: 2510968
        latitude: 38.3
        longitude: -2.65
        name: "Segura de la Sierra"
        names_en: ~
        names_es: ~
        population: 1773
        timezone: Europe/Madrid
      - 
        alternate_names: 
          - Sayalonga
        ascii_name: Sayalonga
        geonamesid: 2511009
        latitude: 36.8
        longitude: -4.01667
        name: Sayalonga
        names_en: ~
        names_es: ~
        population: 1366
        timezone: Europe/Madrid
      - 
        alternate_names: 
          - "Santo Tome"
          - "Santo Tomé"
        ascii_name: "Santo Tome"
        geonamesid: 2511038
        latitude: 38.03333
        longitude: -3.1
        name: "Santo Tomé"
        names_en: ~
        names_es: ~
        population: 2273
        timezone: Europe/Madrid
      - 
        alternate_names: 
          - "Santisteban del Puerto"
        ascii_name: "Santisteban del Puerto"
        geonamesid: 2511063
        latitude: 38.25
        longitude: -3.2
        name: "Santisteban del Puerto"
        names_en: ~
        names_es: ~
        population: 4756
        timezone: Europe/Madrid
      - 
        alternate_names: 
          - Santiponce
        ascii_name: Santiponce
        geonamesid: 2511064
        latitude: 37.43333
        longitude: -6.03333
        name: Santiponce
        names_en: ~
        names_es: ~
        population: 7561
        timezone: Europe/Madrid
      - 
        alternate_names: 
          - "Santa Eufemia"
        ascii_name: "Santa Eufemia"
        geonamesid: 2511167
        latitude: 38.6
        longitude: -4.9
        name: "Santa Eufemia"
        names_en: ~
        names_es: ~
        population: 1015
        timezone: Europe/Madrid
      - 
        alternate_names: 
          - Santaella
        ascii_name: Santaella
        geonamesid: 2511170
        latitude: 37.56667
        longitude: -4.85
        name: Santaella
        names_en: ~
        names_es: ~
        population: 5933
        timezone: Europe/Madrid
      - 
        alternate_names: 
          - "San Roque"
        ascii_name: "San Roque"
        geonamesid: 2511239
        latitude: 36.20944
        longitude: -5.38528
        name: "San Roque"
        names_en: ~
        names_es: ~
        population: 29249
        timezone: Europe/Madrid
      - 
        alternate_names: 
          - "Sanlucar la Mayor"
          - "Sanlúcar la Mayor"
        ascii_name: "Sanlucar la Mayor"
        geonamesid: 2511304
        latitude: 37.38333
        longitude: -6.2
        name: "Sanlúcar la Mayor"
        names_en: ~
        names_es: ~
        population: 12749
        timezone: Europe/Madrid
      - 
        alternate_names: 
          - "Sanlucar de Barrameda"
          - Sanlukar-de-Barrameda
          - "Sanlúcar de Barrameda"
          - "Sunlucar de Barrameda"
        ascii_name: "Sanlucar de Barrameda"
        geonamesid: 2511306
        latitude: 36.78333
        longitude: -6.35
        name: "Sanlúcar de Barrameda"
        names_en: 
          - "Sanlúcar de Barrameda"
        names_es: 
          - "Sanlúcar de Barrameda"
        population: 65805
        timezone: Europe/Madrid
      - 
        alternate_names: 
          - "Juan del Puerto"
          - "San Juan"
          - "San Juan del Puerto"
        ascii_name: "San Juan del Puerto"
        geonamesid: 2511326
        latitude: 37.31667
        longitude: -6.84139
        name: "San Juan del Puerto"
        names_en: ~
        names_es: ~
        population: 6834
        timezone: Europe/Madrid
      - 
        alternate_names: 
          - "San Juan de Aznalfarache"
        ascii_name: "San Juan de Aznalfarache"
        geonamesid: 2511329
        latitude: 37.36667
        longitude: -6.03333
        name: "San Juan de Aznalfarache"
        names_en: ~
        names_es: ~
        population: 20779
        timezone: Europe/Madrid
      - 
        alternate_names: 
          - "San Fernanando"
          - "San Fernando"
          - San-Fernando
        ascii_name: "San Fernando"
        geonamesid: 2511388
        latitude: 36.46667
        longitude: -6.2
        name: "San Fernando"
        names_en: 
          - "San Fernando"
        names_es: 
          - "San Fernando"
        population: 96366
        timezone: Europe/Madrid
      - 
        alternate_names: 
          - "San Bartolome de la Torre"
          - "San Bartolomé de la Torre"
        ascii_name: "San Bartolome de la Torre"
        geonamesid: 2511441
        latitude: 37.45
        longitude: -7.1
        name: "San Bartolomé de la Torre"
        names_en: ~
        names_es: ~
        population: 2981
        timezone: Europe/Madrid
      - 
        alternate_names: 
          - Salteras
        ascii_name: Salteras
        geonamesid: 2511495
        latitude: 37.41667
        longitude: -6.1
        name: Salteras
        names_en: ~
        names_es: ~
        population: 3814
        timezone: Europe/Madrid
      - 
        alternate_names: 
          - Salobrena
          - Salobreña
        ascii_name: Salobrena
        geonamesid: 2511503
        latitude: 36.73333
        longitude: -3.58333
        name: Salobreña
        names_en: 
          - Salobreña
        names_es: 
          - Salobreña
        population: 12747
        timezone: Europe/Madrid
      - 
        alternate_names: 
          - Salar
        ascii_name: Salar
        geonamesid: 2511551
        latitude: 37.15
        longitude: -4.05
        name: Salar
        names_en: ~
        names_es: ~
        population: 2772
        timezone: Europe/Madrid
      - 
        alternate_names: 
          - Sabiote
        ascii_name: Sabiote
        geonamesid: 2511633
        latitude: 38.06667
        longitude: -3.3
        name: Sabiote
        names_en: ~
        names_es: ~
        population: 4134
        timezone: Europe/Madrid
      - 
        alternate_names: 
          - Rute
          - "Rute foersamling"
          - "Rute församling"
        ascii_name: Rute
        geonamesid: 2511649
        latitude: 37.3269
        longitude: -4.36827
        name: Rute
        names_en: 
          - Rute
        names_es: 
          - Rute
        population: 10559
        timezone: Europe/Madrid
      - 
        alternate_names: 
          - Rus
        ascii_name: Rus
        geonamesid: 2511651
        latitude: 38.05
        longitude: -3.45
        name: Rus
        names_en: ~
        names_es: ~
        population: 3727
        timezone: Europe/Madrid
      - 
        alternate_names: 
          - Rota
          - Рота
        ascii_name: Rota
        geonamesid: 2511700
        latitude: 36.61667
        longitude: -6.35
        name: Rota
        names_en: 
          - Rota
        names_es: 
          - Rota
        population: 28516
        timezone: Europe/Madrid
      - 
        alternate_names: 
          - Roketas-de-Mar
          - Roquetas
          - "Roquetas de Mar"
          - Рокетас-де-Мар
        ascii_name: "Roquetas de Mar"
        geonamesid: 2511716
        latitude: 36.76419
        longitude: -2.61475
        name: "Roquetas de Mar"
        names_en: 
          - "Roquetas de Mar"
        names_es: 
          - "Roquetas de Mar"
        population: 82665
        timezone: Europe/Madrid
      - 
        alternate_names: 
          - Ronda
          - Ронда
        ascii_name: Ronda
        geonamesid: 2511730
        latitude: 36.74231
        longitude: -5.16709
        name: Ronda
        names_en: 
          - Ronda
        names_es: 
          - Ronda
        population: 36827
        timezone: Europe/Madrid
      - 
        alternate_names: 
          - Rioja
        ascii_name: Rioja
        geonamesid: 2511824
        latitude: 36.95
        longitude: -2.45
        name: Rioja
        names_en: ~
        names_es: ~
        population: 1331
        timezone: Europe/Madrid
      - 
        alternate_names: 
          - Riogordo
          - Ríogordo
        ascii_name: Riogordo
        geonamesid: 2511825
        latitude: 36.91667
        longitude: -4.3
        name: Ríogordo
        names_en: ~
        names_es: ~
        population: 2954
        timezone: Europe/Madrid
      - 
        alternate_names: 
          - Rinkon-de-la-Viktorija
          - Ринкон-де-ла-Виктория
        ascii_name: "Rincon de la Victoria"
        geonamesid: 2511852
        latitude: 36.71715
        longitude: -4.27583
        name: "Rincón de la Victoria"
        names_en: ~
        names_es: ~
        population: 38666
        timezone: Europe/Madrid
      - 
        alternate_names: 
          - Quesada
        ascii_name: Quesada
        geonamesid: 2512107
        latitude: 37.85
        longitude: -3.06667
        name: Quesada
        names_en: ~
        names_es: ~
        population: 5987
        timezone: Europe/Madrid
      - 
        alternate_names: ~
        ascii_name: Quentar
        geonamesid: 2512110
        latitude: 37.19253
        longitude: -3.46653
        name: Quéntar
        names_en: ~
        names_es: ~
        population: 1022
        timezone: Europe/Madrid
      - 
        alternate_names: 
          - Parullena
          - Purullena
        ascii_name: Purullena
        geonamesid: 2512131
        latitude: 37.31667
        longitude: -3.18333
        name: Purullena
        names_en: ~
        names_es: ~
        population: 2215
        timezone: Europe/Madrid
      - 
        alternate_names: 
          - Purchena
        ascii_name: Purchena
        geonamesid: 2512133
        latitude: 37.35
        longitude: -2.36667
        name: Purchena
        names_en: ~
        names_es: ~
        population: 1598
        timezone: Europe/Madrid
      - 
        alternate_names: 
          - Pulpi
          - Pulpí
        ascii_name: Pulpi
        geonamesid: 2512152
        latitude: 37.4
        longitude: -1.75
        name: Pulpí
        names_en: 
          - Pulpí
        names_es: 
          - Pulpí
        population: 7434
        timezone: Europe/Madrid
      - 
        alternate_names: ~
        ascii_name: Pulianas
        geonamesid: 2512155
        latitude: 37.22302
        longitude: -3.60832
        name: Pulianas
        names_en: ~
        names_es: ~
        population: 4855
        timezone: Europe/Madrid
      - 
        alternate_names: 
          - "Puerto Serrano"
        ascii_name: "Puerto Serrano"
        geonamesid: 2512164
        latitude: 36.93333
        longitude: -5.55
        name: "Puerto Serrano"
        names_en: 
          - "Puerto Serrano"
        names_es: 
          - "Puerto Serrano"
        population: 6807
        timezone: Europe/Madrid
      - 
        alternate_names: 
          - Puehrto-Real'
          - "Puerto Real"
          - Пуэрто-Реаль
        ascii_name: "Puerto Real"
        geonamesid: 2512169
        latitude: 36.52819
        longitude: -6.19011
        name: "Puerto Real"
        names_en: 
          - "Puerto Real"
        names_es: 
          - "Puerto Real"
        population: 40183
        timezone: Europe/Madrid
      - 
        alternate_names: ~
        ascii_name: Puente-Genil
        geonamesid: 2512232
        latitude: 37.38333
        longitude: -4.78333
        name: Puente-Genil
        names_en: ~
        names_es: ~
        population: 30033
        timezone: Europe/Madrid
      - 
        alternate_names: 
          - "Puente de Genave"
          - "Puente de Génave"
          - Puente-Genave
          - Puente-Génave
        ascii_name: "Puente de Genave"
        geonamesid: 2512238
        latitude: 38.35
        longitude: -2.8
        name: "Puente de Génave"
        names_en: ~
        names_es: ~
        population: 2064
        timezone: Europe/Madrid
      - 
        alternate_names: 
          - "Puebla de Guzman"
          - "Puebla de Guzmán"
        ascii_name: "Puebla de Guzman"
        geonamesid: 2512264
        latitude: 37.61667
        longitude: -7.25
        name: "Puebla de Guzmán"
        names_en: ~
        names_es: ~
        population: 3083
        timezone: Europe/Madrid
      - 
        alternate_names: 
          - Porcuna
          - Pruna
        ascii_name: Pruna
        geonamesid: 2512272
        latitude: 36.96667
        longitude: -5.21667
        name: Pruna
        names_en: ~
        names_es: ~
        population: 3047
        timezone: Europe/Madrid
      - 
        alternate_names: 
          - Priego
        ascii_name: "Priego de Cordoba"
        geonamesid: 2512282
        latitude: 37.43807
        longitude: -4.19523
        name: "Priego de Córdoba"
        names_en: ~
        names_es: ~
        population: 23513
        timezone: Europe/Madrid
      - 
        alternate_names: 
          - "Prado del Rey"
        ascii_name: "Prado del Rey"
        geonamesid: 2512294
        latitude: 36.78333
        longitude: -5.56667
        name: "Prado del Rey"
        names_en: 
          - "Prado del Rey"
        names_es: 
          - "Prado del Rey"
        population: 5851
        timezone: Europe/Madrid
      - 
        alternate_names: 
          - Pozoblanco
        ascii_name: Pozoblanco
        geonamesid: 2512340
        latitude: 38.36667
        longitude: -4.85
        name: Pozoblanco
        names_en: ~
        names_es: ~
        population: 17669
        timezone: Europe/Madrid
      - 
        alternate_names: 
          - "Pozo Alcon"
          - "Pozo Alcor"
          - "Pozo Alcón"
        ascii_name: "Pozo Alcon"
        geonamesid: 2512343
        latitude: 37.7
        longitude: -2.93333
        name: "Pozo Alcón"
        names_en: ~
        names_es: ~
        population: 5414
        timezone: Europe/Madrid
      - 
        alternate_names: 
          - Posadas
        ascii_name: Posadas
        geonamesid: 2512367
        latitude: 37.8
        longitude: -5.1
        name: Posadas
        names_en: ~
        names_es: ~
        population: 7364
        timezone: Europe/Madrid
      - 
        alternate_names: 
          - Porcuna
        ascii_name: Porcuna
        geonamesid: 2512408
        latitude: 37.86667
        longitude: -4.18333
        name: Porcuna
        names_en: ~
        names_es: ~
        population: 6951
        timezone: Europe/Madrid
      - 
        alternate_names: 
          - Polopos
        ascii_name: Polopos
        geonamesid: 2512423
        latitude: 36.8
        longitude: -3.3
        name: Polopos
        names_en: ~
        names_es: ~
        population: 1573
        timezone: Europe/Madrid
      - 
        alternate_names: 
          - Pizarro
        ascii_name: Pizarra
        geonamesid: 2512490
        latitude: 36.76543
        longitude: -4.70833
        name: Pizarra
        names_en: 
          - Pizarro
        names_es: ~
        population: 7345
        timezone: Europe/Madrid
      - 
        alternate_names: 
          - "Pinos Puente"
        ascii_name: "Pinos Puente"
        geonamesid: 2512509
        latitude: 37.25
        longitude: -3.75
        name: "Pinos Puente"
        names_en: ~
        names_es: ~
        population: 13515
        timezone: Europe/Madrid
      - 
        alternate_names: ~
        ascii_name: "Pinos Genil"
        geonamesid: 2512511
        latitude: 37.16346
        longitude: -3.50215
        name: "Pinos Genil"
        names_en: ~
        names_es: ~
        population: 1236
        timezone: Europe/Madrid
      - 
        alternate_names: 
          - Pinar
          - Piñar
        ascii_name: Pinar
        geonamesid: 2512558
        latitude: 37.43333
        longitude: -3.43333
        name: Piñar
        names_en: ~
        names_es: ~
        population: 1110
        timezone: Europe/Madrid
      - 
        alternate_names: 
          - Pilas
        ascii_name: Pilas
        geonamesid: 2512578
        latitude: 37.30278
        longitude: -6.29833
        name: Pilas
        names_en: ~
        names_es: ~
        population: 13386
        timezone: Europe/Madrid
      - 
        alternate_names: ~
        ascii_name: Periana
        geonamesid: 2512660
        latitude: 36.92931
        longitude: -4.19163
        name: Periana
        names_en: ~
        names_es: ~
        population: 3404
        timezone: Europe/Madrid
      - 
        alternate_names: 
          - Penarroya-Pueblonuevo
          - Peñarroya-Pueblonuevo
          - "Pueblonuevo del Terrible"
        ascii_name: Penarroya-Pueblonuevo
        geonamesid: 2512730
        latitude: 38.3
        longitude: -5.26667
        name: Peñarroya-Pueblonuevo
        names_en: ~
        names_es: ~
        population: 11883
        timezone: Europe/Madrid
      - 
        alternate_names: ~
        ascii_name: Penaflor
        geonamesid: 2512746
        latitude: 37.71667
        longitude: -5.35
        name: Peñaflor
        names_en: ~
        names_es: ~
        population: 3688
        timezone: Europe/Madrid
      - 
        alternate_names: ~
        ascii_name: Peligros
        geonamesid: 2512767
        latitude: 37.23231
        longitude: -3.62901
        name: Peligros
        names_en: ~
        names_es: ~
        population: 10910
        timezone: Europe/Madrid
      - 
        alternate_names: 
          - Pegalajar
          - Pegalapar
        ascii_name: Pegalajar
        geonamesid: 2512784
        latitude: 37.73333
        longitude: -3.65
        name: Pegalajar
        names_en: ~
        names_es: ~
        population: 3095
        timezone: Europe/Madrid
      - 
        alternate_names: 
          - "Pedro Martinez"
          - "Pedro Martínez"
        ascii_name: "Pedro Martinez"
        geonamesid: 2512796
        latitude: 37.5
        longitude: -3.21667
        name: "Pedro Martínez"
        names_en: ~
        names_es: ~
        population: 1229
        timezone: Europe/Madrid
      - 
        alternate_names: 
          - Pedroche
        ascii_name: Pedroche
        geonamesid: 2512805
        latitude: 38.43333
        longitude: -4.76667
        name: Pedroche
        names_en: ~
        names_es: ~
        population: 1711
        timezone: Europe/Madrid
      - 
        alternate_names: 
          - "Pedro Abad"
        ascii_name: "Pedro Abad"
        geonamesid: 2512812
        latitude: 37.96667
        longitude: -4.45
        name: "Pedro Abad"
        names_en: ~
        names_es: ~
        population: 2922
        timezone: Europe/Madrid
      - 
        alternate_names: 
          - Pedrera
        ascii_name: Pedrera
        geonamesid: 2512824
        latitude: 37.21667
        longitude: -4.9
        name: Pedrera
        names_en: ~
        names_es: ~
        population: 5049
        timezone: Europe/Madrid
      - 
        alternate_names: 
          - "Peal de Becerro"
        ascii_name: "Peal de Becerro"
        geonamesid: 2512844
        latitude: 37.91667
        longitude: -3.11667
        name: "Peal de Becerro"
        names_en: ~
        names_es: ~
        population: 5484
        timezone: Europe/Madrid
      - 
        alternate_names: 
          - Paymogo
        ascii_name: Paymogo
        geonamesid: 2512846
        latitude: 37.75
        longitude: -7.33333
        name: Paymogo
        names_en: ~
        names_es: ~
        population: 1310
        timezone: Europe/Madrid
      - 
        alternate_names: 
          - "Paterna de Rivera"
          - "Paterna de la Rivera"
        ascii_name: "Paterna de Rivera"
        geonamesid: 2512857
        latitude: 36.51667
        longitude: -5.86667
        name: "Paterna de Rivera"
        names_en: 
          - "Paterna de Rivera"
        names_es: 
          - "Paterna de Rivera"
        population: 5306
        timezone: Europe/Madrid
      - 
        alternate_names: 
          - "Paterna del Camino"
          - "Paterna del Campo"
        ascii_name: "Paterna del Campo"
        geonamesid: 2512860
        latitude: 37.41667
        longitude: -6.4
        name: "Paterna del Campo"
        names_en: ~
        names_es: ~
        population: 3625
        timezone: Europe/Madrid
      - 
        alternate_names: 
          - Paradas
        ascii_name: Paradas
        geonamesid: 2512933
        latitude: 37.3
        longitude: -5.5
        name: Paradas
        names_en: ~
        names_es: ~
        population: 7084
        timezone: Europe/Madrid
      - 
        alternate_names: 
          - Palos
          - "Palos de la Frontera"
        ascii_name: "Palos de la Frontera"
        geonamesid: 2512950
        latitude: 37.22917
        longitude: -6.8925
        name: "Palos de la Frontera"
        names_en: 
          - "Palos de la Frontera"
        names_es: 
          - "Palos de la Frontera"
        population: 7956
        timezone: Europe/Madrid
      - 
        alternate_names: 
          - Palomares
          - "Palomares del Rio"
          - "Palomares del Río"
        ascii_name: "Palomares del Rio"
        geonamesid: 2512964
        latitude: 37.31667
        longitude: -6.05
        name: "Palomares del Río"
        names_en: ~
        names_es: ~
        population: 4782
        timezone: Europe/Madrid
      - 
        alternate_names: 
          - Pal'ma-del'-Rio
          - "Palma del Rio"
          - "Palma del Río"
          - Пальма-дель-Рио
        ascii_name: "Palma del Rio"
        geonamesid: 2512990
        latitude: 37.7
        longitude: -5.28333
        name: "Palma del Río"
        names_en: ~
        names_es: ~
        population: 21588
        timezone: Europe/Madrid
      - 
        alternate_names: 
          - Palenciana
        ascii_name: Palenciana
        geonamesid: 2512998
        latitude: 37.25
        longitude: -4.58333
        name: Palenciana
        names_en: ~
        names_es: ~
        population: 1562
        timezone: Europe/Madrid
      - 
        alternate_names: ~
        ascii_name: Padul
        geonamesid: 2513035
        latitude: 37.02462
        longitude: -3.62678
        name: Padul
        names_en: ~
        names_es: ~
        population: 7266
        timezone: Europe/Madrid
      - 
        alternate_names: ~
        ascii_name: Otura
        geonamesid: 2513045
        latitude: 37.08846
        longitude: -3.63321
        name: Otura
        names_en: ~
        names_es: ~
        population: 5362
        timezone: Europe/Madrid
      - 
        alternate_names: 
          - Otivar
          - Otívar
        ascii_name: Otivar
        geonamesid: 2513049
        latitude: 36.81667
        longitude: -3.68333
        name: Otívar
        names_en: ~
        names_es: ~
        population: 1055
        timezone: Europe/Madrid
      - 
        alternate_names: 
          - Osuna
        ascii_name: Osuna
        geonamesid: 2513052
        latitude: 37.23333
        longitude: -5.11667
        name: Osuna
        names_en: ~
        names_es: ~
        population: 17851
        timezone: Europe/Madrid
      - 
        alternate_names: 
          - Orgiva
          - Orjiva
          - Órgiva
          - Órjiva
        ascii_name: Orjiva
        geonamesid: 2513073
        latitude: 36.9
        longitude: -3.41667
        name: Órjiva
        names_en: 
          - Órgiva
        names_es: 
          - Órgiva
        population: 5217
        timezone: Europe/Madrid
      - 
        alternate_names: 
          - Oria
        ascii_name: Oria
        geonamesid: 2513079
        latitude: 37.48333
        longitude: -2.3
        name: Oria
        names_en: ~
        names_es: ~
        population: 2402
        timezone: Europe/Madrid
      - 
        alternate_names: ~
        ascii_name: Orcera
        geonamesid: 2513094
        latitude: 38.31742
        longitude: -2.66487
        name: Orcera
        names_en: ~
        names_es: ~
        population: 2116
        timezone: Europe/Madrid
      - 
        alternate_names: 
          - Orce
        ascii_name: Orce
        geonamesid: 2513097
        latitude: 37.71667
        longitude: -2.46667
        name: Orce
        names_en: ~
        names_es: ~
        population: 1336
        timezone: Europe/Madrid
      - 
        alternate_names: 
          - Olvera
        ascii_name: Olvera
        geonamesid: 2513120
        latitude: 36.93333
        longitude: -5.26667
        name: Olvera
        names_en: 
          - Olvera
        names_es: 
          - Olvera
        population: 8515
        timezone: Europe/Madrid
      - 
        alternate_names: 
          - Olivares
        ascii_name: Olivares
        geonamesid: 2513140
        latitude: 37.41667
        longitude: -6.15
        name: Olivares
        names_en: ~
        names_es: ~
        population: 8759
        timezone: Europe/Madrid
      - 
        alternate_names: 
          - Ojen
          - Ojén
        ascii_name: Ojen
        geonamesid: 2513163
        latitude: 36.56667
        longitude: -4.85
        name: Ojén
        names_en: ~
        names_es: ~
        population: 2347
        timezone: Europe/Madrid
      - 
        alternate_names: ~
        ascii_name: Ogijares
        geonamesid: 2513167
        latitude: 37.11913
        longitude: -3.60772
        name: Ogíjares
        names_en: ~
        names_es: ~
        population: 13119
        timezone: Europe/Madrid
      - 
        alternate_names: 
          - Obejo
          - Ovejo
        ascii_name: Obejo
        geonamesid: 2513179
        latitude: 38.13333
        longitude: -4.8
        name: Obejo
        names_en: ~
        names_es: ~
        population: 1464
        timezone: Europe/Madrid
      - 
        alternate_names: 
          - Nueva-Carteya
        ascii_name: Nueva-Carteya
        geonamesid: 2513184
        latitude: 37.58333
        longitude: -4.46667
        name: Nueva-Carteya
        names_en: ~
        names_es: ~
        population: 5561
        timezone: Europe/Madrid
      - 
        alternate_names: 
          - Noalejo
        ascii_name: Noalejo
        geonamesid: 2513217
        latitude: 37.53333
        longitude: -3.65
        name: Noalejo
        names_en: ~
        names_es: ~
        population: 2161
        timezone: Europe/Madrid
      - 
        alternate_names: 
          - Nikhar
          - Нихар
        ascii_name: Nijar
        geonamesid: 2513222
        latitude: 36.96655
        longitude: -2.20595
        name: Níjar
        names_en: ~
        names_es: ~
        population: 26516
        timezone: Europe/Madrid
      - 
        alternate_names: 
          - Niebla
        ascii_name: Niebla
        geonamesid: 2513230
        latitude: 37.36667
        longitude: -6.68333
        name: Niebla
        names_en: ~
        names_es: ~
        population: 3962
        timezone: Europe/Madrid
      - 
        alternate_names: 
          - Nerva
        ascii_name: Nerva
        geonamesid: 2513237
        latitude: 37.7
        longitude: -6.53333
        name: Nerva
        names_en: ~
        names_es: ~
        population: 6009
        timezone: Europe/Madrid
      - 
        alternate_names: 
          - Nerja
        ascii_name: Nerja
        geonamesid: 2513240
        latitude: 36.75855
        longitude: -3.88727
        name: Nerja
        names_en: 
          - Nerja
        names_es: 
          - Nerja
        population: 21811
        timezone: Europe/Madrid
      - 
        alternate_names: 
          - Motril
          - Motril'
          - Мотриль
        ascii_name: Motril
        geonamesid: 2513477
        latitude: 36.75
        longitude: -3.51667
        name: Motril
        names_en: 
          - Motril
        names_es: 
          - Motril
        population: 60279
        timezone: Europe/Madrid
      - 
        alternate_names: 
          - Moron
          - "Moron de la Frontera"
          - Moron-de-la-Frontera
          - Morón
        ascii_name: "Moron de la Frontera"
        geonamesid: 2513509
        latitude: 37.13333
        longitude: -5.45
        name: "Morón de la Frontera"
        names_en: 
          - "Morón de la Frontera"
        names_es: 
          - "Morón de la Frontera"
        population: 28455
        timezone: Europe/Madrid
      - 
        alternate_names: 
          - "Moraleda de Zafayona"
        ascii_name: "Moraleda de Zafayona"
        geonamesid: 2513579
        latitude: 37.16667
        longitude: -3.96667
        name: "Moraleda de Zafayona"
        names_en: ~
        names_es: ~
        population: 2730
        timezone: Europe/Madrid
      - 
        alternate_names: ~
        ascii_name: Monturque
        geonamesid: 2513589
        latitude: 37.47186
        longitude: -4.58164
        name: Monturque
        names_en: ~
        names_es: ~
        population: 2032
        timezone: Europe/Madrid
      - 
        alternate_names: 
          - Montoro
        ascii_name: Montoro
        geonamesid: 2513595
        latitude: 38.01667
        longitude: -4.38333
        name: Montoro
        names_en: ~
        names_es: ~
        population: 9480
        timezone: Europe/Madrid
      - 
        alternate_names: 
          - Montizon
          - Montizón
        ascii_name: Montizon
        geonamesid: 2513597
        latitude: 38.33333
        longitude: -3.1
        name: Montizón
        names_en: ~
        names_es: ~
        population: 2001
        timezone: Europe/Madrid
      - 
        alternate_names: ~
        ascii_name: Montillana
        geonamesid: 2513599
        latitude: 37.5
        longitude: -3.66667
        name: Montillana
        names_en: ~
        names_es: ~
        population: 1300
        timezone: Europe/Madrid
      - 
        alternate_names: 
          - Montil'ja
          - Montilla
          - Монтилья
        ascii_name: Montilla
        geonamesid: 2513601
        latitude: 37.58333
        longitude: -4.63333
        name: Montilla
        names_en: 
          - Montilla
        names_es: 
          - Montilla
        population: 23840
        timezone: Europe/Madrid
      - 
        alternate_names: ~
        ascii_name: Montemayor
        geonamesid: 2513632
        latitude: 37.65
        longitude: -4.68333
        name: Montemayor
        names_en: ~
        names_es: ~
        population: 3946
        timezone: Europe/Madrid
      - 
        alternate_names: 
          - Montellano
        ascii_name: Montellano
        geonamesid: 2513637
        latitude: 37.0
        longitude: -5.56667
        name: Montellano
        names_en: ~
        names_es: ~
        population: 6851
        timezone: Europe/Madrid
      - 
        alternate_names: ~
        ascii_name: Montejicar
        geonamesid: 2513638
        latitude: 37.56667
        longitude: -3.5
        name: Montejicar
        names_en: ~
        names_es: ~
        population: 2647
        timezone: Europe/Madrid
      - 
        alternate_names: ~
        ascii_name: Montefrio
        geonamesid: 2513640
        latitude: 37.32308
        longitude: -4.00898
        name: Montefrío
        names_en: ~
        names_es: ~
        population: 6631
        timezone: Europe/Madrid
      - 
        alternate_names: 
          - "Montalban de Cordoba"
          - "Montalbán de Córdoba"
        ascii_name: "Montalban de Cordoba"
        geonamesid: 2513671
        latitude: 37.58333
        longitude: -4.75
        name: "Montalbán de Córdoba"
        names_en: ~
        names_es: ~
        population: 4665
        timezone: Europe/Madrid
      - 
        alternate_names: ~
        ascii_name: Monda
        geonamesid: 2513699
        latitude: 36.63027
        longitude: -4.83192
        name: Monda
        names_en: ~
        names_es: ~
        population: 2078
        timezone: Europe/Madrid
      - 
        alternate_names: 
          - Monachil
        ascii_name: Monachil
        geonamesid: 2513709
        latitude: 37.13333
        longitude: -3.53333
        name: Monachil
        names_en: ~
        names_es: ~
        population: 5843
        timezone: Europe/Madrid
      - 
        alternate_names: 
          - Molvizar
          - Molvízar
        ascii_name: Molvizar
        geonamesid: 2513713
        latitude: 36.78333
        longitude: -3.61667
        name: Molvízar
        names_en: ~
        names_es: ~
        population: 2704
        timezone: Europe/Madrid
      - 
        alternate_names: 
          - Mollina
        ascii_name: Mollina
        geonamesid: 2513717
        latitude: 37.13333
        longitude: -4.66667
        name: Mollina
        names_en: ~
        names_es: ~
        population: 4082
        timezone: Europe/Madrid
      - 
        alternate_names: ~
        ascii_name: Mojacar
        geonamesid: 2513786
        latitude: 37.1402
        longitude: -1.85102
        name: Mojácar
        names_en: ~
        names_es: ~
        population: 5154
        timezone: Europe/Madrid
      - 
        alternate_names: 
          - Moguer
        ascii_name: Moguer
        geonamesid: 2513791
        latitude: 37.27583
        longitude: -6.83556
        name: Moguer
        names_en: 
          - Moguer
        names_es: 
          - Moguer
        population: 19569
        timezone: Europe/Madrid
      - 
        alternate_names: ~
        ascii_name: Moclinejo
        geonamesid: 2513800
        latitude: 36.77134
        longitude: -4.25514
        name: Moclinejo
        names_en: ~
        names_es: ~
        population: 1167
        timezone: Europe/Madrid
      - 
        alternate_names: ~
        ascii_name: Moclin
        geonamesid: 2513801
        latitude: 37.33959
        longitude: -3.78651
        name: Moclín
        names_en: ~
        names_es: ~
        population: 4173
        timezone: Europe/Madrid
      - 
        alternate_names: 
          - Mijas
          - Mikhas
          - Михас
        ascii_name: Mijas
        geonamesid: 2513882
        latitude: 36.59575
        longitude: -4.63728
        name: Mijas
        names_en: 
          - Mijas
        names_es: 
          - Mijas
        population: 73787
        timezone: Europe/Madrid
      - 
        alternate_names: 
          - Mengibar
        ascii_name: Mengibar
        geonamesid: 2513931
        latitude: 37.96667
        longitude: -3.8
        name: Mengibar
        names_en: ~
        names_es: ~
        population: 8999
        timezone: Europe/Madrid
      - 
        alternate_names: 
          - "Medina Sidonia"
          - Medina-Sidonia
        ascii_name: "Medina Sidonia"
        geonamesid: 2513961
        latitude: 36.45
        longitude: -5.91667
        name: "Medina Sidonia"
        names_en: 
          - Medina-Sidonia
        names_es: 
          - Medina-Sidonia
        population: 11683
        timezone: Europe/Madrid
      - 
        alternate_names: 
          - Martos
          - Мартос
        ascii_name: Martos
        geonamesid: 2514073
        latitude: 37.71667
        longitude: -3.96667
        name: Martos
        names_en: ~
        names_es: ~
        population: 24655
        timezone: Europe/Madrid
      - 
        alternate_names: 
          - "Martin de la Jara"
          - "Martín de la Jara"
        ascii_name: "Martin de la Jara"
        geonamesid: 2514084
        latitude: 37.11667
        longitude: -4.98333
        name: "Martín de la Jara"
        names_en: ~
        names_es: ~
        population: 2783
        timezone: Europe/Madrid
      - 
        alternate_names: 
          - Marmolejo
        ascii_name: Marmolejo
        geonamesid: 2514107
        latitude: 38.05
        longitude: -4.16667
        name: Marmolejo
        names_en: ~
        names_es: ~
        population: 7643
        timezone: Europe/Madrid
      - 
        alternate_names: 
          - Marinaleda
        ascii_name: Marinaleda
        geonamesid: 2514120
        latitude: 37.36667
        longitude: -4.96667
        name: Marinaleda
        names_en: ~
        names_es: ~
        population: 2698
        timezone: Europe/Madrid
      - 
        alternate_names: 
          - Maria
          - María
        ascii_name: Maria
        geonamesid: 2514139
        latitude: 37.71667
        longitude: -2.16667
        name: María
        names_en: ~
        names_es: ~
        population: 1560
        timezone: Europe/Madrid
      - 
        alternate_names: 
          - Marchena
        ascii_name: Marchena
        geonamesid: 2514158
        latitude: 37.33333
        longitude: -5.4
        name: Marchena
        names_en: 
          - Marchena
        names_es: 
          - Marchena
        population: 19768
        timezone: Europe/Madrid
      - 
        alternate_names: 
          - Marbel'ja
          - Marbela
          - Marbella
          - marbya
        ascii_name: Marbella
        geonamesid: 2514169
        latitude: 36.51543
        longitude: -4.88583
        name: Marbella
        names_en: 
          - Marbella
        names_es: 
          - Marbella
        population: 134623
        timezone: Europe/Madrid
      - 
        alternate_names: ~
        ascii_name: Maracena
        geonamesid: 2514176
        latitude: 37.20764
        longitude: -3.63493
        name: Maracena
        names_en: ~
        names_es: ~
        population: 20815
        timezone: Europe/Madrid
      - 
        alternate_names: 
          - Manzanilla
        ascii_name: Manzanilla
        geonamesid: 2514185
        latitude: 37.38333
        longitude: -6.41667
        name: Manzanilla
        names_en: ~
