--- 
geonamesid: 2661886
iso: SE
name: Sweden
names_en: 
  - Sweden
  - "Kingdom of Sweden"
names_es: 
  - Suecia
regions: 
  - 
    ascii_name: Norrbotten
    cities: 
      - 
        alternate_names: 
          - Toere
          - Tore
          - Töre
          - Tøre
        ascii_name: Toere
        geonamesid: 602261
        latitude: 65.91243
        longitude: 22.65128
        name: Töre
        names_en: ~
        names_es: ~
        population: 1146
        timezone: Europe/Stockholm
      - 
        alternate_names: 
          - "Sodra Sunderbyn"
          - "Soedra Sunderbyn"
          - Sunderbyn
          - "Södra Sunderbyn"
        ascii_name: "Sodra Sunderbyn"
        geonamesid: 602804
        latitude: 65.65983
        longitude: 21.94004
        name: "Södra Sunderbyn"
        names_en: ~
        names_es: ~
        population: 2875
        timezone: Europe/Stockholm
      - 
        alternate_names: ~
        ascii_name: Ranea
        geonamesid: 603035
        latitude: 65.85482
        longitude: 22.29126
        name: Råneå
        names_en: ~
        names_es: ~
        population: 1987
        timezone: Europe/Stockholm
      - 
        alternate_names: ~
        ascii_name: Rosvik
        geonamesid: 603261
        latitude: 65.43333
        longitude: 21.7
        name: Rosvik
        names_en: ~
        names_es: ~
        population: 1766
        timezone: Europe/Stockholm
      - 
        alternate_names: ~
        ascii_name: Rolfs
        geonamesid: 603291
        latitude: 65.85
        longitude: 23.11667
        name: Rolfs
        names_en: ~
        names_es: ~
        population: 1116
        timezone: Europe/Stockholm
      - 
        alternate_names: ~
        ascii_name: Roknas
        geonamesid: 603292
        latitude: 65.35
        longitude: 21.2
        name: Roknäs
        names_en: ~
        names_es: ~
        population: 1242
        timezone: Europe/Stockholm
      - 
        alternate_names: ~
        ascii_name: Saevast
        geonamesid: 603448
        latitude: 65.77002
        longitude: 21.73113
        name: Sävast
        names_en: ~
        names_es: ~
        population: 3121
        timezone: Europe/Stockholm
      - 
        alternate_names: 
          - Piitime
          - Pitea
          - Pitejas
          - Piteo
        ascii_name: Pitea
        geonamesid: 603570
        latitude: 65.31717
        longitude: 21.47944
        name: Piteå
        names_en: 
          - Piteå
        names_es: ~
        population: 22044
        timezone: Europe/Stockholm
      - 
        alternate_names: 
          - Pajala
        ascii_name: Pajala
        geonamesid: 603761
        latitude: 67.21284
        longitude: 23.36607
        name: Pajala
        names_en: 
          - Pajala
        names_es: ~
        population: 1985
        timezone: Europe/Stockholm
      - 
        alternate_names: 
          - Matarenki
          - OEvertornea
          - "Ofer Torne"
          - "Ofver Tornea"
        ascii_name: OEvertornea
        geonamesid: 603814
        latitude: 66.38778
        longitude: 23.65425
        name: Övertorneå
        names_en: ~
        names_es: ~
        population: 1965
        timezone: Europe/Stockholm
      - 
        alternate_names: ~
        ascii_name: Norrfjarden
        geonamesid: 604006
        latitude: 65.41667
        longitude: 21.45
        name: Norrfjärden
        names_en: ~
        names_es: ~
        population: 1423
        timezone: Europe/Stockholm
      - 
        alternate_names: 
          - Mal'mberge
          - Mal'mberger
          - Malmberget
          - Мальмберге
        ascii_name: Malmberget
        geonamesid: 604419
        latitude: 67.17529
        longitude: 20.65495
        name: Malmberget
        names_en: 
          - Malmberget
        names_es: ~
        population: 6017
        timezone: Europe/Stockholm
      - 
        alternate_names: 
          - Lulea
          - Luleju
          - Luleo
          - Luleå
        ascii_name: Lulea
        geonamesid: 604490
        latitude: 65.58415
        longitude: 22.15465
        name: Luleå
        names_en: 
          - Luleå
        names_es: 
          - Luleå
        population: 45551
        timezone: Europe/Stockholm
      - 
        alternate_names: 
          - Giron
          - Kiiruna
          - Kiruna
          - Кируна
        ascii_name: Kiruna
        geonamesid: 605155
        latitude: 67.85572
        longitude: 20.22513
        name: Kiruna
        names_en: ~
        names_es: ~
        population: 18154
        timezone: Europe/Stockholm
      - 
        alternate_names: 
          - Kaihnuu
          - Kainuu
        ascii_name: Kalix
        geonamesid: 605393
        latitude: 65.85298
        longitude: 23.15645
        name: Kalix
        names_en: ~
        names_es: ~
        population: 7340
        timezone: Europe/Stockholm
      - 
        alternate_names: ~
        ascii_name: Hortlax
        geonamesid: 605647
        latitude: 65.28333
        longitude: 21.38333
        name: Hortlax
        names_en: ~
        names_es: ~
        population: 1247
        timezone: Europe/Stockholm
      - 
        alternate_names: 
          - Haaparanta
          - Haparanda
          - KHAPARANDA
          - ХАПАРАНДА
        ascii_name: Haparanda
        geonamesid: 605859
        latitude: 65.83549
        longitude: 24.13676
        name: Haparanda
        names_en: 
          - Haparanda
        names_es: ~
        population: 4778
        timezone: Europe/Stockholm
      - 
        alternate_names: 
          - Gammelstad
          - Gammelstaden
        ascii_name: Gammelstad
        geonamesid: 606072
        latitude: 65.63931
        longitude: 22.01145
        name: Gammelstad
        names_en: ~
        names_es: ~
        population: 4892
        timezone: Europe/Stockholm
      - 
        alternate_names: 
          - Ellivare
          - Gaellivare
          - Gällivare
          - Jaellivaara
        ascii_name: Gaellivare
        geonamesid: 606086
        latitude: 67.13387
        longitude: 20.65278
        name: Gällivare
        names_en: 
          - Gällivare
        names_es: ~
        population: 8480
        timezone: Europe/Stockholm
      - 
        alternate_names: 
          - Puuti
          - Suttes
        ascii_name: Boden
        geonamesid: 606531
        latitude: 65.82518
        longitude: 21.68864
        name: Boden
        names_en: ~
        names_es: ~
        population: 18225
        timezone: Europe/Stockholm
      - 
        alternate_names: ~
        ascii_name: Bergsviken
        geonamesid: 606638
        latitude: 65.3
        longitude: 21.38333
        name: Bergsviken
        names_en: ~
        names_es: ~
        population: 2317
        timezone: Europe/Stockholm
      - 
        alternate_names: ~
        ascii_name: Bergnaset
        geonamesid: 606649
        latitude: 65.57791
        longitude: 22.10844
        name: Bergnäset
        names_en: ~
        names_es: ~
        population: 3674
        timezone: Europe/Stockholm
      - 
        alternate_names: 
          - Elfsby
        ascii_name: AElvsbyn
        geonamesid: 606834
        latitude: 65.67624
        longitude: 21.00162
        name: Älvsbyn
        names_en: ~
        names_es: ~
        population: 5042
        timezone: Europe/Stockholm
      - 
        alternate_names: 
          - Jahkamahkke
          - Jockmock
          - Jokimukka
          - Jokkinokk
        ascii_name: Jokkmokk
        geonamesid: 2702997
        latitude: 66.60665
        longitude: 19.82324
        name: Jokkmokk
        names_en: ~
        names_es: ~
        population: 2976
        timezone: Europe/Stockholm
      - 
        alternate_names: ~
        ascii_name: Arvidsjaur
        geonamesid: 2725136
        latitude: 65.59033
        longitude: 19.16682
        name: Arvidsjaur
        names_en: ~
        names_es: ~
        population: 4644
        timezone: Europe/Stockholm
      - 
        alternate_names: ~
        ascii_name: Arjeplog
        geonamesid: 2725372
        latitude: 66.05173
        longitude: 17.88606
        name: Arjeplog
        names_en: ~
        names_es: ~
        population: 1947
        timezone: Europe/Stockholm
    geonamesid: 604010
    name: Norrbotten
    names_en: 
      - "Norrbotten County"
      - Norrbotten
    names_es: ~
  - 
    ascii_name: Vaestmanland
    cities: 
      - 
        alternate_names: 
          - Arosia
          - Vaesteras
          - Vesteros
          - Vesterosa
        ascii_name: Vasteras
        geonamesid: 2664454
        latitude: 59.61617
        longitude: 16.55276
        name: Västerås
        names_en: 
          - Västerås
        names_es: ~
        population: 107194
        timezone: Europe/Stockholm
      - 
        alternate_names: ~
        ascii_name: Tyringe
        geonamesid: 2666771
        latitude: 59.33333
        longitude: 15.91667
        name: Tyringe
        names_en: ~
        names_es: ~
        population: 4573
        timezone: Europe/Stockholm
      - 
        alternate_names: ~
        ascii_name: Tillberga
        geonamesid: 2669086
        latitude: 59.68333
        longitude: 16.61667
        name: Tillberga
        names_en: ~
        names_es: ~
        population: 2096
        timezone: Europe/Stockholm
      - 
        alternate_names: ~
        ascii_name: Surahammar
        geonamesid: 2670613
        latitude: 59.70725
        longitude: 16.22188
        name: Surahammar
        names_en: ~
        names_es: ~
        population: 6276
        timezone: Europe/Stockholm
      - 
        alternate_names: ~
        ascii_name: Skultuna
        geonamesid: 2677062
        latitude: 59.71667
        longitude: 16.41667
        name: Skultuna
        names_en: ~
        names_es: ~
        population: 3249
        timezone: Europe/Stockholm
      - 
        alternate_names: ~
        ascii_name: Skinnskatteberg
        geonamesid: 2677593
        latitude: 59.83028
        longitude: 15.69337
        name: Skinnskatteberg
        names_en: ~
        names_es: ~
        population: 2395
        timezone: Europe/Stockholm
      - 
        alternate_names: ~
        ascii_name: Sala
        geonamesid: 2680662
        latitude: 59.91993
        longitude: 16.60655
        name: Sala
        names_en: ~
        names_es: ~
        population: 12015
        timezone: Europe/Stockholm
      - 
        alternate_names: ~
        ascii_name: Ramnas
        geonamesid: 2683436
        latitude: 59.76667
        longitude: 16.2
        name: Ramnäs
        names_en: ~
        names_es: ~
        population: 1489
        timezone: Europe/Stockholm
      - 
        alternate_names: 
          - Norbergby
        ascii_name: Norberg
        geonamesid: 2689452
        latitude: 60.06505
        longitude: 15.92366
        name: Norberg
        names_en: ~
        names_es: ~
        population: 4634
        timezone: Europe/Stockholm
      - 
        alternate_names: 
          - Kungsoer
          - Kungsor
          - Kungsör
          - Kungsør
        ascii_name: Kungsoer
        geonamesid: 2698681
        latitude: 59.42245
        longitude: 16.09656
        name: Kungsör
        names_en: ~
        names_es: ~
        population: 5610
        timezone: Europe/Stockholm
      - 
        alternate_names: 
          - Koeping
          - Koping
          - Köping
          - Køping
        ascii_name: Koping
        geonamesid: 2699791
        latitude: 59.51404
        longitude: 15.99255
        name: Köping
        names_en: ~
        names_es: ~
        population: 16617
        timezone: Europe/Stockholm
      - 
        alternate_names: ~
        ascii_name: Kolsva
        geonamesid: 2699879
        latitude: 59.6
        longitude: 15.83333
        name: Kolsva
        names_en: ~
        names_es: ~
        population: 2539
        timezone: Europe/Stockholm
      - 
        alternate_names: ~
        ascii_name: Kolback
        geonamesid: 2700011
        latitude: 59.56667
        longitude: 16.25
        name: Kolbäck
        names_en: ~
        names_es: ~
        population: 1853
        timezone: Europe/Stockholm
      - 
        alternate_names: 
          - Hockasen
          - Hoekasen
          - Hokasen
          - Höckåsen
        ascii_name: Hokasen
        geonamesid: 2705562
        latitude: 59.66667
        longitude: 16.58333
        name: Hökåsen
        names_en: ~
        names_es: ~
        population: 2827
        timezone: Europe/Stockholm
      - 
        alternate_names: ~
        ascii_name: Hallstahammar
        geonamesid: 2708429
        latitude: 59.61395
        longitude: 16.22846
        name: Hallstahammar
        names_en: ~
        names_es: ~
        population: 10300
        timezone: Europe/Stockholm
      - 
        alternate_names: 
          - "Fagersta Bruk"
        ascii_name: Fagersta
        geonamesid: 2715656
        latitude: 60.00418
        longitude: 15.79316
        name: Fagersta
        names_en: ~
        names_es: ~
        population: 10432
        timezone: Europe/Stockholm
      - 
        alternate_names: 
          - Arboga
        ascii_name: Arboga
        geonamesid: 2725471
        latitude: 59.39387
        longitude: 15.83882
        name: Arboga
        names_en: 
          - Arboga
        names_es: ~
        population: 10369
        timezone: Europe/Stockholm
    geonamesid: 2664179
    name: Västmanland
    names_en: 
      - "Västmanland County"
      - Västmanland
    names_es: ~
  - 
    ascii_name: Vaesternorrland
    cities: 
      - 
        alternate_names: 
          - Vi
          - Viforsen
        ascii_name: Vi
        geonamesid: 2663161
        latitude: 62.3
        longitude: 17.16667
        name: Vi
        names_en: ~
        names_es: ~
        population: 4757
        timezone: Europe/Stockholm
      - 
        alternate_names: ~
        ascii_name: Timra
        geonamesid: 2669047
        latitude: 62.48703
        longitude: 17.3257
        name: Timrå
        names_en: ~
        names_es: ~
        population: 10168
        timezone: Europe/Stockholm
      - 
        alternate_names: 
          - Sundsvall
          - Sundsvall'
          - Сундсвалль
        ascii_name: Sundsvall
        geonamesid: 2670781
        latitude: 62.39129
        longitude: 17.3063
        name: Sundsvall
        names_en: 
          - Sundsvall
        names_es: 
          - Sundsvall
        population: 48463
        timezone: Europe/Stockholm
      - 
        alternate_names: 
          - Sund
          - Sundsbruk
        ascii_name: Sundsbruk
        geonamesid: 2670833
        latitude: 62.45806
        longitude: 17.34889
        name: Sundsbruk
        names_en: ~
        names_es: ~
        population: 2098
        timezone: Europe/Stockholm
      - 
        alternate_names: 
          - Stockvik
          - Stockviksverken
        ascii_name: Stockvik
        geonamesid: 2673693
        latitude: 62.33667
        longitude: 17.36583
        name: Stockvik
        names_en: ~
        names_es: ~
        population: 2165
        timezone: Europe/Stockholm
      - 
        alternate_names: 
          - Soeraker
          - Soraker
          - Söråker
          - Søråker
        ascii_name: Soraker
        geonamesid: 2675280
        latitude: 62.505
        longitude: 17.51333
        name: Söråker
        names_en: ~
        names_es: ~
        population: 2271
        timezone: Europe/Stockholm
      - 
        alternate_names: 
          - Solleftea
          - Sollefteå
        ascii_name: Solleftea
        geonamesid: 2675416
        latitude: 63.16667
        longitude: 17.26667
        name: Sollefteå
        names_en: ~
        names_es: ~
        population: 8530
        timezone: Europe/Stockholm
      - 
        alternate_names: ~
        ascii_name: Skottsund
        geonamesid: 2677239
        latitude: 62.29056
        longitude: 17.38694
        name: Skottsund
        names_en: ~
        names_es: ~
        population: 1052
        timezone: Europe/Stockholm
      - 
        alternate_names: 
          - OErnskoeldsvik
          - Ornskoldsvik
          - Örnsköldsvik
          - Ørnskøldsvik
        ascii_name: Ornskoldsvik
        geonamesid: 2686469
        latitude: 63.29091
        longitude: 18.71525
        name: Örnsköldsvik
        names_en: ~
        names_es: ~
        population: 27749
        timezone: Europe/Stockholm
      - 
        alternate_names: ~
        ascii_name: Nordingra
        geonamesid: 2689344
        latitude: 62.93333
        longitude: 18.31667
        name: Nordingrå
        names_en: ~
        names_es: ~
        population: 1500
        timezone: Europe/Stockholm
      - 
        alternate_names: ~
        ascii_name: Nolby
        geonamesid: 2689520
        latitude: 62.2875
        longitude: 17.36917
        name: Nolby
        names_en: ~
        names_es: ~
        population: 1200
        timezone: Europe/Stockholm
      - 
        alternate_names: 
          - Njurunda
        ascii_name: Njurundabommen
        geonamesid: 2689580
        latitude: 62.26339
        longitude: 17.38354
        name: Njurundabommen
        names_en: ~
        names_es: ~
        population: 1959
        timezone: Europe/Stockholm
      - 
        alternate_names: 
          - Matfors
        ascii_name: Matfors
        geonamesid: 2692349
        latitude: 62.35
        longitude: 17.03333
        name: Matfors
        names_en: ~
        names_es: ~
        population: 3239
        timezone: Europe/Stockholm
      - 
        alternate_names: 
          - Kvissle
          - Kvissleby
          - Kvitsle
        ascii_name: Kvissleby
        geonamesid: 2698242
        latitude: 62.29361
        longitude: 17.375
        name: Kvissleby
        names_en: ~
        names_es: ~
        population: 2633
        timezone: Europe/Stockholm
      - 
        alternate_names: ~
        ascii_name: Kramfors
        geonamesid: 2699394
        latitude: 62.93161
        longitude: 17.77646
        name: Kramfors
        names_en: ~
        names_es: ~
        population: 6235
        timezone: Europe/Stockholm
      - 
        alternate_names: 
          - Koepmanholmen
          - Kopmanholmen
          - Kopmansholmen
          - Köpmanholmen
        ascii_name: Kopmanholmen
        geonamesid: 2699777
        latitude: 63.16667
        longitude: 18.56667
        name: Köpmanholmen
        names_en: ~
        names_es: ~
        population: 1267
        timezone: Europe/Stockholm
      - 
        alternate_names: ~
        ascii_name: Johannedal
        geonamesid: 2703038
        latitude: 62.43361
        longitude: 17.37111
        name: Johannedal
        names_en: ~
        names_es: ~
        population: 2592
        timezone: Europe/Stockholm
      - 
        alternate_names: 
          - Husum
        ascii_name: Husum
        geonamesid: 2704114
        latitude: 63.33333
        longitude: 19.16667
        name: Husum
        names_en: ~
        names_es: ~
        population: 1709
        timezone: Europe/Stockholm
      - 
        alternate_names: 
          - Haernoesand
          - Hernosand
          - Hernösand
          - Härnösand
        ascii_name: Harnosand
        geonamesid: 2707684
        latitude: 62.63228
        longitude: 17.93794
        name: Härnösand
        names_en: 
          - Härnösand
        names_es: ~
        population: 17016
        timezone: Europe/Stockholm
      - 
        alternate_names: ~
        ascii_name: Fransta
        geonamesid: 2713797
        latitude: 62.5
        longitude: 16.15
        name: Fränsta
        names_en: ~
        names_es: ~
        population: 1243
        timezone: Europe/Stockholm
      - 
        alternate_names: ~
        ascii_name: Bredbyn
        geonamesid: 2719466
        latitude: 63.44655
        longitude: 18.11019
        name: Bredbyn
        names_en: ~
        names_es: ~
        population: 1227
        timezone: Europe/Stockholm
      - 
        alternate_names: 
          - Bollsta
          - Bollstabruk
        ascii_name: Bollstabruk
        geonamesid: 2720670
        latitude: 63.0
        longitude: 17.68333
        name: Bollstabruk
        names_en: ~
        names_es: ~
        population: 2118
        timezone: Europe/Stockholm
      - 
        alternate_names: ~
        ascii_name: Bjasta
        geonamesid: 2722320
        latitude: 63.2
        longitude: 18.5
        name: Bjästa
        names_en: ~
        names_es: ~
        population: 1785
        timezone: Europe/Stockholm
      - 
        alternate_names: ~
        ascii_name: Bergeforsen
        geonamesid: 2722836
        latitude: 62.53333
        longitude: 17.38333
        name: Bergeforsen
        names_en: ~
        names_es: ~
        population: 1535
        timezone: Europe/Stockholm
      - 
        alternate_names: ~
        ascii_name: As
        geonamesid: 2725073
        latitude: 63.36667
        longitude: 16.58333
        name: Ås
        names_en: ~
        names_es: ~
        population: 1097
        timezone: Europe/Stockholm
      - 
        alternate_names: ~
        ascii_name: Ange
        geonamesid: 2725924
        latitude: 62.52495
        longitude: 15.65904
        name: Ånge
        names_en: ~
        names_es: ~
        population: 2956
        timezone: Europe/Stockholm
    geonamesid: 2664292
    name: Västernorrland
    names_en: 
      - "Västernorrland County"
      - Västernorrland
    names_es: ~
  - 
    ascii_name: Vaesterbotten
    cities: 
      - 
        alternate_names: ~
        ascii_name: Viken
        geonamesid: 601972
        latitude: 64.72587
        longitude: 20.91548
        name: Viken
        names_en: ~
        names_es: ~
        population: 3753
        timezone: Europe/Stockholm
      - 
        alternate_names: 
          - Ursvik
        ascii_name: Ursviken
        geonamesid: 602137
        latitude: 64.71261
        longitude: 21.1658
        name: Ursviken
        names_en: ~
        names_es: ~
        population: 4054
        timezone: Europe/Stockholm
      - 
        alternate_names: 
          - Owmeo
          - Umea
          - Umeo
          - Umeå
        ascii_name: Umea
        geonamesid: 602150
        latitude: 63.82842
        longitude: 20.25972
        name: Umeå
        names_en: 
          - Umeå
        names_es: 
          - Umeå
        population: 74005
        timezone: Europe/Stockholm
      - 
        alternate_names: 
          - Taftea
          - Teftea
          - Tefteå
          - Täfteå
        ascii_name: Taftea
        geonamesid: 602426
        latitude: 63.83333
        longitude: 20.48333
        name: Täfteå
        names_en: ~
        names_es: ~
        population: 1029
        timezone: Europe/Stockholm
      - 
        alternate_names: 
          - Storavik
          - Storvik
          - Storåvik
        ascii_name: Storvik
        geonamesid: 602566
        latitude: 65.15
        longitude: 20.73333
        name: Storvik
        names_en: ~
        names_es: ~
        population: 2251
        timezone: Europe/Stockholm
      - 
        alternate_names: ~
        ascii_name: Skelleftehamn
        geonamesid: 602909
        latitude: 64.68333
        longitude: 21.23333
        name: Skelleftehamn
        names_en: ~
        names_es: ~
        population: 3120
        timezone: Europe/Stockholm
      - 
        alternate_names: 
          - Heletti
          - Shelefteo
          - Shellefteo
          - Skelleftea
        ascii_name: Skelleftea
        geonamesid: 602913
        latitude: 64.75067
        longitude: 20.95279
        name: Skellefteå
        names_en: 
          - Skellefteå
        names_es: ~
        population: 30839
        timezone: Europe/Stockholm
      - 
        alternate_names: ~
        ascii_name: Saevar
        geonamesid: 603037
        latitude: 63.90383
        longitude: 20.55014
        name: Sävar
        names_en: ~
        names_es: ~
        population: 2672
        timezone: Europe/Stockholm
      - 
        alternate_names: ~
        ascii_name: Robertsfors
        geonamesid: 603303
        latitude: 64.19324
        longitude: 20.84806
        name: Robertsfors
        names_en: ~
        names_es: ~
        population: 2010
        timezone: Europe/Stockholm
      - 
        alternate_names: 
          - Robacksby
          - Rodback
          - Röbäcksby
          - Rödbäck
        ascii_name: Roback
        geonamesid: 603304
        latitude: 63.81159
        longitude: 20.18326
        name: Röbäck
        names_en: ~
        names_es: ~
        population: 2300
        timezone: Europe/Stockholm
      - 
        alternate_names: ~
        ascii_name: Obbola
        geonamesid: 603919
        latitude: 63.7
        longitude: 20.31667
        name: Obbola
        names_en: ~
        names_es: ~
        population: 2175
        timezone: Europe/Stockholm
      - 
        alternate_names: ~
        ascii_name: Langsele
        geonamesid: 604779
        latitude: 64.81667
        longitude: 20.25
        name: Långsele
        names_en: ~
        names_es: ~
        population: 1620
        timezone: Europe/Stockholm
      - 
        alternate_names: ~
        ascii_name: Kage
        geonamesid: 605428
        latitude: 64.83571
        longitude: 20.98453
        name: Kåge
        names_en: ~
        names_es: ~
        population: 2205
        timezone: Europe/Stockholm
      - 
        alternate_names: ~
        ascii_name: Holmsund
        geonamesid: 605676
        latitude: 63.70602
        longitude: 20.36409
        name: Holmsund
        names_en: ~
        names_es: ~
        population: 5482
        timezone: Europe/Stockholm
      - 
        alternate_names: ~
        ascii_name: Forsbacka
        geonamesid: 606141
        latitude: 64.76667
        longitude: 20.5
        name: Forsbacka
        names_en: ~
        names_es: ~
        population: 1748
        timezone: Europe/Stockholm
      - 
        alternate_names: ~
        ascii_name: Ersmark
        geonamesid: 606249
        latitude: 63.88333
        longitude: 20.31667
        name: Ersmark
        names_en: ~
        names_es: ~
        population: 1486
        timezone: Europe/Stockholm
      - 
        alternate_names: ~
        ascii_name: Byske
        geonamesid: 606350
        latitude: 64.95258
        longitude: 21.2058
        name: Byske
        names_en: ~
        names_es: ~
        population: 1731
        timezone: Europe/Stockholm
      - 
        alternate_names: ~
        ascii_name: Burtraesk
        geonamesid: 606363
        latitude: 64.51667
        longitude: 20.65
        name: Burträsk
        names_en: ~
        names_es: ~
        population: 1632
        timezone: Europe/Stockholm
      - 
        alternate_names: ~
        ascii_name: Burea
        geonamesid: 606370
        latitude: 64.61667
        longitude: 21.2
        name: Bureå
        names_en: ~
        names_es: ~
        population: 2345
        timezone: Europe/Stockholm
      - 
        alternate_names: 
          - Boliden
        ascii_name: Boliden
        geonamesid: 606507
        latitude: 64.86667
        longitude: 20.38333
        name: Boliden
        names_en: ~
        names_es: ~
        population: 1515
        timezone: Europe/Stockholm
      - 
        alternate_names: ~
        ascii_name: "Soedra Bergsbyn"
        geonamesid: 606642
        latitude: 64.71421
        longitude: 21.08929
        name: "Södra Bergsbyn"
        names_en: ~
        names_es: ~
        population: 1818
        timezone: Europe/Stockholm
      - 
        alternate_names: ~
        ascii_name: Backa
        geonamesid: 606714
        latitude: 64.98333
        longitude: 21.06667
        name: Backa
        names_en: ~
        names_es: ~
        population: 1516
        timezone: Europe/Stockholm
      - 
        alternate_names: ~
        ascii_name: Vindeln
        geonamesid: 2662851
        latitude: 64.20175
        longitude: 19.71945
        name: Vindeln
        names_en: ~
        names_es: ~
        population: 2356
        timezone: Europe/Stockholm
      - 
        alternate_names: 
          - Vilhelmina
          - Vualtjere
        ascii_name: Vilhelmina
        geonamesid: 2662935
        latitude: 64.62684
        longitude: 16.65628
        name: Vilhelmina
        names_en: ~
        names_es: ~
        population: 3633
        timezone: Europe/Stockholm
      - 
        alternate_names: ~
        ascii_name: Vannasby
        geonamesid: 2665090
        latitude: 63.93333
        longitude: 19.83333
        name: Vännäsby
        names_en: ~
        names_es: ~
        population: 1522
        timezone: Europe/Stockholm
      - 
        alternate_names: ~
        ascii_name: Vaennaes
        geonamesid: 2665093
        latitude: 63.90676
        longitude: 19.75712
        name: Vännäs
        names_en: ~
        names_es: ~
        population: 4100
        timezone: Europe/Stockholm
      - 
        alternate_names: 
          - Luspie
        ascii_name: Storuman
        geonamesid: 2671530
        latitude: 65.0959
        longitude: 17.11731
        name: Storuman
        names_en: ~
        names_es: ~
        population: 2255
        timezone: Europe/Stockholm
      - 
        alternate_names: 
          - Sorsele
          - Suarsa
        ascii_name: Sorsele
        geonamesid: 2675079
        latitude: 65.53484
        longitude: 17.53702
        name: Sorsele
        names_en: 
          - Sorsele
        names_es: 
          - Sorsele
        population: 1288
        timezone: Europe/Stockholm
      - 
        alternate_names: 
          - Soderfors
          - Soederfors
          - Söderfors
          - Søderfors
        ascii_name: Soderfors
        geonamesid: 2676238
        latitude: 64.81667
        longitude: 18.05
        name: Söderfors
        names_en: ~
        names_es: ~
        population: 1597
        timezone: Europe/Stockholm
      - 
        alternate_names: 
          - Sjoberg
          - Sjoeberg
          - Sjöberg
          - Sjøberg
        ascii_name: Sjoberg
        geonamesid: 2678926
        latitude: 64.83333
        longitude: 16.25
        name: Sjöberg
        names_en: ~
        names_es: ~
        population: 4234
        timezone: Europe/Stockholm
      - 
        alternate_names: 
          - Naarene
          - Norsjo
          - Norsjoe
          - Norsjö
        ascii_name: Norsjoe
        geonamesid: 2688172
        latitude: 64.91206
        longitude: 19.48153
        name: Norsjö
        names_en: ~
        names_es: ~
        population: 2102
        timezone: Europe/Stockholm
      - 
        alternate_names: ~
        ascii_name: Nordmaling
        geonamesid: 2689336
        latitude: 63.56852
        longitude: 19.50244
        name: Nordmaling
        names_en: ~
        names_es: ~
        population: 2619
        timezone: Europe/Stockholm
      - 
        alternate_names: 
          - Mullsjo
          - Mullsjoe
          - Mullsjö
          - Mullsjø
        ascii_name: Mullsjo
        geonamesid: 2690901
        latitude: 63.7
        longitude: 19.7
        name: Mullsjö
        names_en: ~
        names_es: ~
        population: 5508
        timezone: Europe/Stockholm
      - 
        alternate_names: ~
        ascii_name: Mala
        geonamesid: 2693152
        latitude: 65.18501
        longitude: 18.74243
        name: Malå
        names_en: ~
        names_es: ~
        population: 2089
        timezone: Europe/Stockholm
      - 
        alternate_names: 
          - Lyoksele
        ascii_name: Lycksele
        geonamesid: 2693347
        latitude: 64.59537
        longitude: 18.67351
        name: Lycksele
        names_en: ~
        names_es: ~
        population: 8597
        timezone: Europe/Stockholm
      - 
        alternate_names: 
          - Insjo
          - Insjoen
          - Insjon
          - Insjö
        ascii_name: Insjon
        geonamesid: 2703546
        latitude: 64.4
        longitude: 17.48333
        name: Insjön
        names_en: ~
        names_es: ~
        population: 2150
        timezone: Europe/Stockholm
      - 
        alternate_names: 
          - Hoernefors
          - Hornefors
          - Hörnefors
          - Hørnefors
        ascii_name: Hoernefors
        geonamesid: 2704956
        latitude: 63.62312
        longitude: 19.90856
        name: Hörnefors
        names_en: ~
        names_es: ~
        population: 2573
        timezone: Europe/Stockholm
      - 
        alternate_names: ~
        ascii_name: Fristad
        geonamesid: 2713659
        latitude: 65.2
        longitude: 16.71667
        name: Fristad
        names_en: ~
        names_es: ~
        population: 4808
        timezone: Europe/Stockholm
      - 
        alternate_names: 
          - Bergvattnet
          - Doeoerte
          - Dorotea
          - Döörte
        ascii_name: Dorotea
        geonamesid: 2717401
        latitude: 64.26185
        longitude: 16.41306
        name: Dorotea
        names_en: ~
        names_es: ~
        population: 1571
        timezone: Europe/Stockholm
      - 
        alternate_names: 
          - Asele
          - Sjeltie
          - Åsele
        ascii_name: Asele
        geonamesid: 2724958
        latitude: 64.16667
        longitude: 17.33333
        name: Åsele
        names_en: ~
        names_es: ~
        population: 1920
        timezone: Europe/Stockholm
    geonamesid: 2664415
    name: Västerbotten
    names_en: 
      - "Västerbotten County"
      - Västerbotten
    names_es: ~
  - 
    ascii_name: Vaermland
    cities: 
      - 
        alternate_names: ~
        ascii_name: Valberg
        geonamesid: 2665708
        latitude: 59.4
        longitude: 13.16667
        name: Vålberg
        names_en: ~
        names_es: ~
        population: 2805
        timezone: Europe/Stockholm
      - 
        alternate_names: ~
        ascii_name: Torsby
        geonamesid: 2667876
        latitude: 60.13527
        longitude: 13.0082
        name: Torsby
        names_en: ~
        names_es: ~
        population: 4012
        timezone: Europe/Stockholm
      - 
        alternate_names: 
          - Tocksfors
          - Toecksfors
          - Töcksfors
          - Tøcksfors
        ascii_name: Toecksfors
        geonamesid: 2668552
        latitude: 59.50816
        longitude: 11.84431
        name: Töcksfors
        names_en: ~
        names_es: ~
        population: 1062
        timezone: Europe/Stockholm
      - 
        alternate_names: ~
        ascii_name: Sunne
        geonamesid: 2670710
        latitude: 59.83764
        longitude: 13.14302
        name: Sunne
        names_en: ~
        names_es: ~
        population: 4903
        timezone: Europe/Stockholm
      - 
        alternate_names: ~
        ascii_name: Storfors
        geonamesid: 2672053
        latitude: 59.53183
        longitude: 14.27201
        name: Storfors
        names_en: ~
        names_es: ~
        population: 2442
        timezone: Europe/Stockholm
      - 
        alternate_names: 
          - Slottsbron
          - Solttsbron
        ascii_name: Slottsbron
        geonamesid: 2676700
        latitude: 59.33333
        longitude: 13.1
        name: Slottsbron
        names_en: ~
        names_es: ~
        population: 1048
        timezone: Europe/Stockholm
      - 
        alternate_names: ~
        ascii_name: Skoghall
        geonamesid: 2677456
        latitude: 59.32324
        longitude: 13.46552
        name: Skoghall
        names_en: ~
        names_es: ~
        population: 12845
        timezone: Europe/Stockholm
      - 
        alternate_names: ~
        ascii_name: Skattkarr
        geonamesid: 2677869
        latitude: 59.41667
        longitude: 13.63333
        name: Skattkärr
        names_en: ~
        names_es: ~
        population: 2105
        timezone: Europe/Stockholm
      - 
        alternate_names: ~
        ascii_name: Saeffle
        geonamesid: 2680764
        latitude: 59.13229
        longitude: 12.92888
        name: Säffle
        names_en: ~
        names_es: ~
        population: 9156
        timezone: Europe/Stockholm
      - 
        alternate_names: ~
        ascii_name: Munkfors
        geonamesid: 2690829
        latitude: 59.83856
        longitude: 13.54361
        name: Munkfors
        names_en: ~
        names_es: ~
        population: 3224
        timezone: Europe/Stockholm
      - 
        alternate_names: ~
        ascii_name: Molkom
        geonamesid: 2691510
        latitude: 59.6
        longitude: 13.7
        name: Molkom
        names_en: ~
        names_es: ~
        population: 1883
        timezone: Europe/Stockholm
      - 
        alternate_names: 
          - Lesjoefors
          - Lesjofors
          - Lesjöfors
          - Lesjøfors
        ascii_name: Lesjofors
        geonamesid: 2696479
        latitude: 59.98333
        longitude: 14.18333
        name: Lesjöfors
        names_en: ~
        names_es: ~
        population: 1117
        timezone: Europe/Stockholm
      - 
        alternate_names: 
          - Kristinekhamn
          - Кристинехамн
        ascii_name: Kristinehamn
        geonamesid: 2699282
        latitude: 59.30978
        longitude: 14.10808
        name: Kristinehamn
        names_en: ~
        names_es: ~
        population: 17836
        timezone: Europe/Stockholm
      - 
        alternate_names: ~
        ascii_name: Kil
        geonamesid: 2700960
        latitude: 59.50722
        longitude: 13.31395
        name: Kil
        names_en: ~
        names_es: ~
        population: 7826
        timezone: Europe/Stockholm
      - 
        alternate_names: 
          - Carolostadium
          - Karlctad
          - Karlstad
          - Karlstadas
        ascii_name: Karlstad
        geonamesid: 2701680
        latitude: 59.3793
        longitude: 13.50357
        name: Karlstad
        names_en: 
          - Karlstad
        names_es: 
          - Karlstad
        population: 59266
        timezone: Europe/Stockholm
      - 
        alternate_names: 
          - Hagsfors
        ascii_name: Hagfors
        geonamesid: 2709214
        latitude: 60.02378
        longitude: 13.67214
        name: Hagfors
        names_en: ~
        names_es: ~
        population: 5403
        timezone: Europe/Stockholm
      - 
        alternate_names: ~
        ascii_name: Grums
        geonamesid: 2710343
        latitude: 59.3466
        longitude: 13.10906
        name: Grums
        names_en: ~
        names_es: ~
        population: 5231
        timezone: Europe/Stockholm
      - 
        alternate_names: ~
        ascii_name: Forshaga
        geonamesid: 2713971
        latitude: 59.52541
        longitude: 13.48127
        name: Forshaga
        names_en: ~
        names_es: ~
        population: 6355
        timezone: Europe/Stockholm
      - 
        alternate_names: ~
        ascii_name: Filipstad
        geonamesid: 2715081
        latitude: 59.71236
        longitude: 14.16831
        name: Filipstad
        names_en: ~
        names_es: ~
        population: 6177
        timezone: Europe/Stockholm
      - 
        alternate_names: ~
        ascii_name: Ekshaerad
        geonamesid: 2716443
        latitude: 60.17275
        longitude: 13.49647
        name: Ekshärad
        names_en: ~
        names_es: ~
        population: 1122
        timezone: Europe/Stockholm
      - 
        alternate_names: ~
        ascii_name: Edsvalla
        geonamesid: 2716825
        latitude: 59.43333
        longitude: 13.18333
        name: Edsvalla
        names_en: ~
        names_es: ~
        population: 1029
        timezone: Europe/Stockholm
      - 
        alternate_names: ~
        ascii_name: Deje
        geonamesid: 2717842
        latitude: 59.6
        longitude: 13.46667
        name: Deje
        names_en: ~
        names_es: ~
        population: 2783
        timezone: Europe/Stockholm
      - 
        alternate_names: ~
        ascii_name: Charlottenberg
        geonamesid: 2718393
        latitude: 59.88422
        longitude: 12.30398
        name: Charlottenberg
        names_en: ~
        names_es: ~
        population: 2048
        timezone: Europe/Stockholm
      - 
        alternate_names: 
          - Bjoerneborg
          - Bjorneborg
          - Bjorneborgs
          - "Bjorneborgs bruk"
        ascii_name: Bjorneborg
        geonamesid: 2721828
        latitude: 59.25
        longitude: 14.25
        name: Björneborg
        names_en: ~
        names_es: ~
        population: 1195
        timezone: Europe/Stockholm
      - 
        alternate_names: 
          - Arvika
          - Арвика
        ascii_name: Arvika
        geonamesid: 2725123
        latitude: 59.65528
        longitude: 12.58518
        name: Arvika
        names_en: ~
        names_es: ~
        population: 13666
        timezone: Europe/Stockholm
      - 
        alternate_names: 
          - Arjange
          - Arjeng
          - Årjeng
          - Årjänge
        ascii_name: Arjaeng
        geonamesid: 2725379
        latitude: 59.39217
        longitude: 12.13336
        name: Årjäng
        names_en: ~
        names_es: ~
        population: 3172
        timezone: Europe/Stockholm
      - 
        alternate_names: 
          - Amot
          - Amotfors
          - Amotsfors
          - Åmot
        ascii_name: Amotfors
        geonamesid: 2726163
        latitude: 59.76667
        longitude: 12.36667
        name: Åmotfors
        names_en: ~
        names_es: ~
        population: 1476
        timezone: Europe/Stockholm
    geonamesid: 2664870
    name: Värmland
    names_en: 
      - "Värmland County"
      - Värmland
    names_es: ~
  - 
    ascii_name: Uppsala
    cities: 
      - 
        alternate_names: ~
        ascii_name: Alunda
        geonamesid: 2599289
        latitude: 60.26667
        longitude: 18.4
        name: Alunda
        names_en: ~
        names_es: ~
        population: 2224
        timezone: Europe/Stockholm
      - 
        alternate_names: ~
        ascii_name: Anneberg
        geonamesid: 2599299
        latitude: 60.24167
        longitude: 18.41667
        name: Anneberg
        names_en: ~
        names_es: ~
        population: 1398
        timezone: Europe/Stockholm
      - 
        alternate_names: 
          - Bjoerklinge
          - Bjorklinge
          - Björklinge
          - Bjørklinge
        ascii_name: Bjorklinge
        geonamesid: 2599415
        latitude: 60.25
        longitude: 18.46667
        name: Björklinge
        names_en: ~
        names_es: ~
        population: 3186
        timezone: Europe/Stockholm
      - 
        alternate_names: ~
        ascii_name: Marieberg
        geonamesid: 2599418
        latitude: 60.23333
        longitude: 18.5
        name: Marieberg
        names_en: ~
        names_es: ~
        population: 1181
        timezone: Europe/Stockholm
      - 
        alternate_names: ~
        ascii_name: Vattholma
        geonamesid: 2663585
        latitude: 60.01667
        longitude: 17.73333
        name: Vattholma
        names_en: ~
        names_es: ~
        population: 1413
        timezone: Europe/Stockholm
      - 
        alternate_names: 
          - Uppsala
          - Uppsalir
          - Upsala
          - Upsalia
        ascii_name: Uppsala
        geonamesid: 2666199
        latitude: 59.8585
        longitude: 17.64543
        name: Uppsala
        names_en: 
          - Uppsala
        names_es: 
          - Uppsala
        population: 127734
        timezone: Europe/Stockholm
      - 
        alternate_names: ~
        ascii_name: Gimo
        geonamesid: 2667328
        latitude: 60.17304
        longitude: 18.18507
        name: Gimo
        names_en: ~
        names_es: ~
        population: 2702
        timezone: Europe/Stockholm
      - 
        alternate_names: ~
        ascii_name: Tierp
        geonamesid: 2669098
        latitude: 60.34269
        longitude: 17.51812
        name: Tierp
        names_en: ~
        names_es: ~
        population: 5377
        timezone: Europe/Stockholm
      - 
        alternate_names: ~
        ascii_name: Tarnsjo
        geonamesid: 2669342
        latitude: 60.15
        longitude: 16.93333
        name: Tärnsjö
        names_en: ~
        names_es: ~
        population: 1262
        timezone: Europe/Stockholm
      - 
        alternate_names: 
          - Storvreld
          - Storvreta
        ascii_name: Storvreta
        geonamesid: 2671490
        latitude: 59.96667
        longitude: 17.7
        name: Storvreta
        names_en: ~
        names_es: ~
        population: 6083
        timezone: Europe/Stockholm
      - 
        alternate_names: 
          - Stutskar
          - Stutskär
        ascii_name: Skutskaer
        geonamesid: 2677019
        latitude: 60.64104
        longitude: 17.40915
        name: Skutskär
        names_en: ~
        names_es: ~
        population: 6136
        timezone: Europe/Stockholm
      - 
        alternate_names: ~
        ascii_name: Saevja
        geonamesid: 2679721
        latitude: 59.82083
        longitude: 17.69899
        name: Sävja
        names_en: ~
        names_es: ~
        population: 9414
        timezone: Europe/Stockholm
      - 
        alternate_names: 
          - OEsthammar
          - Osthammar
          - Östhammar
          - Østhammar
        ascii_name: OEsthammar
        geonamesid: 2685699
        latitude: 60.25909
        longitude: 18.37408
        name: Östhammar
        names_en: ~
        names_es: ~
        population: 4598
        timezone: Europe/Stockholm
      - 
        alternate_names: 
          - OEstervala
          - Ostervala
          - Östervåla
          - Østervåla
        ascii_name: OEstervala
        geonamesid: 2685724
        latitude: 60.18333
        longitude: 17.18333
        name: Östervåla
        names_en: ~
        names_es: ~
        population: 1570
        timezone: Europe/Stockholm
      - 
        alternate_names: 
          - OEsterbybruk
          - Osterbybruk
          - Österbybruk
          - Østerbybruk
        ascii_name: Osterbybruk
        geonamesid: 2685903
        latitude: 60.2
        longitude: 17.9
        name: Österbybruk
        names_en: ~
        names_es: ~
        population: 2230
        timezone: Europe/Stockholm
      - 
        alternate_names: 
          - OErsundsbro
          - Orsundsbro
          - Orundsbro
          - Örsundsbro
        ascii_name: Orsundsbro
        geonamesid: 2686286
        latitude: 59.73333
        longitude: 17.3
        name: Örsundsbro
        names_en: ~
        names_es: ~
        population: 1773
        timezone: Europe/Stockholm
      - 
        alternate_names: 
          - OEregrund
          - Oregrund
          - Öregrund
          - Øregrund
        ascii_name: Oregrund
        geonamesid: 2686649
        latitude: 60.33333
        longitude: 18.43333
        name: Öregrund
        names_en: ~
        names_es: ~
        population: 1552
        timezone: Europe/Stockholm
      - 
        alternate_names: 
          - OErbyhus
          - Orbyhus
          - Örbyhus
          - Ørbyhus
        ascii_name: Orbyhus
        geonamesid: 2686674
        latitude: 60.23333
        longitude: 17.7
        name: Örbyhus
        names_en: ~
        names_es: ~
        population: 1905
        timezone: Europe/Stockholm
      - 
        alternate_names: ~
        ascii_name: Morgongava
        geonamesid: 2691326
        latitude: 59.93333
        longitude: 16.95
        name: Morgongåva
        names_en: ~
        names_es: ~
        population: 1351
        timezone: Europe/Stockholm
      - 
        alternate_names: ~
        ascii_name: Knivsta
        geonamesid: 2700199
        latitude: 59.72564
        longitude: 17.78753
        name: Knivsta
        names_en: ~
        names_es: ~
        population: 6898
        timezone: Europe/Stockholm
      - 
        alternate_names: 
          - Karlholm
          - Karlholmsbruk
        ascii_name: Karlholmsbruk
        geonamesid: 2701792
        latitude: 60.51667
        longitude: 17.61667
        name: Karlholmsbruk
        names_en: ~
        names_es: ~
        population: 1187
        timezone: Europe/Stockholm
      - 
        alternate_names: ~
        ascii_name: Irsta
        geonamesid: 2703525
        latitude: 59.7
        longitude: 16.93333
        name: Irsta
        names_en: ~
        names_es: ~
        population: 2534
        timezone: Europe/Stockholm
      - 
        alternate_names: ~
        ascii_name: Hummelsta
        geonamesid: 2704327
        latitude: 59.61667
        longitude: 16.95
        name: Hummelsta
        names_en: ~
        names_es: ~
        population: 1005
        timezone: Europe/Stockholm
      - 
        alternate_names: ~
        ascii_name: Heby
        geonamesid: 2707057
        latitude: 59.93815
        longitude: 16.86217
        name: Heby
        names_en: ~
        names_es: ~
        population: 2687
        timezone: Europe/Stockholm
      - 
        alternate_names: ~
        ascii_name: Grillby
        geonamesid: 2710731
        latitude: 59.61667
        longitude: 17.25
        name: Grillby
        names_en: ~
        names_es: ~
        population: 1001
        timezone: Europe/Stockholm
      - 
        alternate_names: 
          - Enkoeping
          - Enkoping
          - Enköping
          - Enkøping
        ascii_name: Enkoping
        geonamesid: 2716166
        latitude: 59.63607
        longitude: 17.07768
        name: Enköping
        names_en: ~
        names_es: ~
        population: 19733
        timezone: Europe/Stockholm
      - 
        alternate_names: ~
        ascii_name: Dalby
        geonamesid: 2718245
        latitude: 59.53333
        longitude: 17.35
        name: Dalby
        names_en: ~
        names_es: ~
        population: 5517
        timezone: Europe/Stockholm
      - 
        alternate_names: ~
        ascii_name: Balsta
        geonamesid: 2723567
        latitude: 59.5671
        longitude: 17.52781
        name: Bålsta
        names_en: ~
        names_es: ~
        population: 13495
        timezone: Europe/Stockholm
      - 
        alternate_names: ~
        ascii_name: AElvkarleby
        geonamesid: 2726285
        latitude: 60.57081
        longitude: 17.44895
        name: Älvkarleby
        names_en: ~
        names_es: ~
        population: 1648
        timezone: Europe/Stockholm
      - 
        alternate_names: ~
        ascii_name: Alsike
        geonamesid: 2726470
        latitude: 59.75
        longitude: 17.75
        name: Alsike
        names_en: ~
        names_es: ~
        population: 1682
        timezone: Europe/Stockholm
    geonamesid: 2666218
    name: Uppsala
    names_en: 
      - "Uppsala County"
      - Uppsala
    names_es: ~
  - 
    ascii_name: Stockholm
    cities: 
      - 
        alternate_names: 
          - Waxholm
        ascii_name: Vaxholm
        geonamesid: 2663540
        latitude: 59.40225
        longitude: 18.35317
        name: Vaxholm
        names_en: ~
        names_es: ~
        population: 4817
        timezone: Europe/Stockholm
      - 
        alternate_names: ~
        ascii_name: Vasterhaninge
        geonamesid: 2664339
        latitude: 59.11667
        longitude: 18.1
        name: Västerhaninge
        names_en: ~
        names_es: ~
        population: 14620
        timezone: Europe/Stockholm
      - 
        alternate_names: ~
        ascii_name: Varsta
        geonamesid: 2664783
        latitude: 59.16667
        longitude: 17.8
        name: Vårsta
        names_en: ~
        names_es: ~
        population: 2353
        timezone: Europe/Stockholm
      - 
        alternate_names: ~
        ascii_name: Vallentuna
        geonamesid: 2665452
        latitude: 59.53436
        longitude: 18.07758
        name: Vallentuna
        names_en: ~
        names_es: ~
        population: 26733
        timezone: Europe/Stockholm
      - 
        alternate_names: 
          - "Uplands Vasby"
          - "Uplands Väsby"
          - Vasby
          - "Vasby Villastad"
        ascii_name: "Upplands Vaesby"
        geonamesid: 2666238
        latitude: 59.51839
        longitude: 17.91128
        name: "Upplands Väsby"
        names_en: ~
        names_es: ~
        population: 36534
        timezone: Europe/Stockholm
      - 
        alternate_names: 
          - Tumba
          - Тумба
        ascii_name: Tumba
        geonamesid: 2667094
        latitude: 59.19858
        longitude: 17.83317
        name: Tumba
        names_en: ~
        names_es: ~
        population: 35780
        timezone: Europe/Stockholm
      - 
        alternate_names: ~
        ascii_name: Taby
        geonamesid: 2669772
        latitude: 59.4439
        longitude: 18.06872
        name: Täby
        names_en: ~
        names_es: ~
        population: 58123
        timezone: Europe/Stockholm
      - 
        alternate_names: 
          - Sundyberg
        ascii_name: Sundbyberg
        geonamesid: 2670879
        latitude: 59.36128
        longitude: 17.97114
        name: Sundbyberg
        names_en: ~
        names_es: ~
        population: 34529
        timezone: Europe/Stockholm
      - 
        alternate_names: 
          - Estocolm
          - Estocolme
          - Estocolmo
          - "Estocolmo - Stockholm"
        ascii_name: Stockholm
        geonamesid: 2673730
        latitude: 59.33258
        longitude: 18.0649
        name: Stockholm
        names_en: 
          - Stockholm
        names_es: 
          - Estocolmo
        population: 1253309
        timezone: Europe/Stockholm
      - 
        alternate_names: ~
        ascii_name: Stenhamra
        geonamesid: 2674209
        latitude: 59.33333
        longitude: 17.66667
        name: Stenhamra
        names_en: ~
        names_es: ~
        population: 3280
        timezone: Europe/Stockholm
      - 
        alternate_names: ~
        ascii_name: Solna
        geonamesid: 2675397
        latitude: 59.36004
        longitude: 18.00086
        name: Solna
        names_en: ~
        names_es: ~
        population: 66909
        timezone: Europe/Stockholm
      - 
        alternate_names: ~
        ascii_name: Sollentuna
        geonamesid: 2675408
        latitude: 59.42804
        longitude: 17.95093
        name: Sollentuna
        names_en: ~
        names_es: ~
        population: 58897
        timezone: Europe/Stockholm
      - 
        alternate_names: 
          - S'odertale
          - S'odertele
          - S'odertelie
          - Soedertaelje
        ascii_name: Soedertaelje
        geonamesid: 2676176
        latitude: 59.19554
        longitude: 17.62525
        name: Södertälje
        names_en: 
          - Södertälje
        names_es: ~
        population: 60279
        timezone: Europe/Stockholm
      - 
        alternate_names: 
          - Skanninge
          - Skenninge
          - Skänninge
        ascii_name: Skanninge
        geonamesid: 2678265
        latitude: 59.93333
        longitude: 18.48333
        name: Skänninge
        names_en: ~
        names_es: ~
        population: 3242
        timezone: Europe/Stockholm
      - 
        alternate_names: 
          - Sigtuna
          - "Sigtuna jaras"
          - "Sigtuna járás"
          - Сигтуна
        ascii_name: Sigtuna
        geonamesid: 2679302
        latitude: 59.61731
        longitude: 17.72361
        name: Sigtuna
        names_en: 
          - Sigtuna
        names_es: 
          - Sigtuna
        population: 7204
        timezone: Europe/Stockholm
      - 
        alternate_names: ~
        ascii_name: Segeltorp
        geonamesid: 2679567
        latitude: 59.27597
        longitude: 17.93072
        name: Segeltorp
        names_en: ~
        names_es: ~
        population: 10536
        timezone: Europe/Stockholm
      - 
        alternate_names: 
          - Saltsjobaden
          - Saltsjoebaden
          - Saltsjöbaden
          - Saltsjøbaden
        ascii_name: Saltsjobaden
        geonamesid: 2680460
        latitude: 59.28333
        longitude: 18.3
        name: Saltsjöbaden
        names_en: ~
        names_es: ~
        population: 8937
        timezone: Europe/Stockholm
      - 
        alternate_names: ~
        ascii_name: Rosersberg
        geonamesid: 2681576
        latitude: 59.58333
        longitude: 17.88333
        name: Rosersberg
        names_en: ~
        names_es: ~
        population: 1641
        timezone: Europe/Stockholm
      - 
        alternate_names: 
          - Rimbo
        ascii_name: Rimbo
        geonamesid: 2682570
        latitude: 59.75
        longitude: 18.36667
        name: Rimbo
        names_en: ~
        names_es: ~
        population: 4606
        timezone: Europe/Stockholm
      - 
        alternate_names: 
          - Resaro
          - Resaroe
          - Resarö
          - Resarø
        ascii_name: Resaro
        geonamesid: 2682706
        latitude: 59.4291
        longitude: 18.33386
        name: Resarö
        names_en: ~
        names_es: ~
        population: 2347
        timezone: Europe/Stockholm
      - 
        alternate_names: ~
        ascii_name: Pershagen
        geonamesid: 2684231
        latitude: 59.16667
        longitude: 17.65
        name: Pershagen
        names_en: ~
        names_es: ~
        population: 2214
        timezone: Europe/Stockholm
      - 
        alternate_names: 
          - OEsmo
          - Osmo
          - Ösmo
          - Øsmo
        ascii_name: Osmo
        geonamesid: 2686153
        latitude: 58.98333
        longitude: 17.9
        name: Ösmo
        names_en: ~
        names_es: ~
        population: 3606
        timezone: Europe/Stockholm
      - 
        alternate_names: 
          - Nynaeshamn
          - Nynashamm
          - Nynäshamm
          - Nynäshamn
        ascii_name: Nynashamn
        geonamesid: 2687636
        latitude: 58.90337
        longitude: 17.94793
        name: Nynäshamn
        names_en: ~
        names_es: ~
        population: 13616
        timezone: Europe/Stockholm
      - 
        alternate_names: ~
        ascii_name: Nykvarn
        geonamesid: 2687690
        latitude: 59.8
        longitude: 18.3
        name: Nykvarn
        names_en: ~
        names_es: ~
        population: 6032
        timezone: Europe/Stockholm
      - 
        alternate_names: 
          - Norrtelge
          - Norrtelje
        ascii_name: Norrtalje
        geonamesid: 2688250
        latitude: 59.75799
        longitude: 18.70496
        name: Norrtälje
        names_en: ~
        names_es: ~
        population: 16914
        timezone: Europe/Stockholm
      - 
        alternate_names: ~
        ascii_name: Nacka
        geonamesid: 2690580
        latitude: 59.31053
        longitude: 18.16372
        name: Nacka
        names_en: ~
        names_es: ~
        population: 25170
        timezone: Europe/Stockholm
      - 
        alternate_names: ~
        ascii_name: Mortnas
        geonamesid: 2691230
        latitude: 59.31667
        longitude: 18.45
        name: Mörtnäs
        names_en: ~
        names_es: ~
        population: 1291
        timezone: Europe/Stockholm
      - 
        alternate_names: 
          - Moelnbo
          - Molnbo
          - Mölnbo
          - Mølnbo
        ascii_name: Molnbo
        geonamesid: 2691462
        latitude: 59.05
        longitude: 17.41667
        name: Mölnbo
        names_en: ~
        names_es: ~
        population: 1011
        timezone: Europe/Stockholm
      - 
        alternate_names: 
          - Marsta
          - Mersta
          - Märsta
          - Мерста
        ascii_name: Marsta
        geonamesid: 2692475
        latitude: 59.61667
        longitude: 17.85
        name: Märsta
        names_en: ~
        names_es: ~
        population: 23194
        timezone: Europe/Stockholm
      - 
        alternate_names: 
          - Lidingo
          - "Lidingo Villastad"
          - Lidingoe
          - Lidingö
        ascii_name: Lidingoe
        geonamesid: 2696334
        latitude: 59.36667
        longitude: 18.13333
        name: Lidingö
        names_en: ~
        names_es: ~
        population: 43000
        timezone: Europe/Stockholm
      - 
        alternate_names: ~
        ascii_name: Kungsaengen
        geonamesid: 2698733
        latitude: 59.47857
        longitude: 17.74834
        name: Kungsängen
        names_en: ~
        names_es: ~
        population: 7367
        timezone: Europe/Stockholm
      - 
        alternate_names: ~
        ascii_name: Kummelnas
        geonamesid: 2698745
        latitude: 59.35
        longitude: 18.28333
        name: Kummelnäs
        names_en: ~
        names_es: ~
        population: 3360
        timezone: Europe/Stockholm
      - 
        alternate_names: 
          - Kista
          - Киста
        ascii_name: Kista
        geonamesid: 2700791
        latitude: 59.40316
        longitude: 17.94479
        name: Kista
        names_en: ~
        names_es: ~
        population: 120000
        timezone: Europe/Stockholm
      - 
        alternate_names: 
          - Jordbro
        ascii_name: Jordbro
        geonamesid: 2702908
        latitude: 59.14972
        longitude: 18.11667
        name: Jordbro
        names_en: ~
        names_es: ~
        population: 9316
        timezone: Europe/Stockholm
      - 
        alternate_names: ~
        ascii_name: Jakobsberg
        geonamesid: 2703396
        latitude: 59.42268
        longitude: 17.83508
        name: Jakobsberg
        names_en: ~
        names_es: ~
        population: 24046
        timezone: Europe/Stockholm
      - 
        alternate_names: ~
        ascii_name: Huddinge
        geonamesid: 2704620
        latitude: 59.23705
        longitude: 17.98192
        name: Huddinge
        names_en: ~
        names_es: ~
        population: 90182
        timezone: Europe/Stockholm
      - 
        alternate_names: 
          - Hoeloe
          - Holo
          - Hölö
          - Hølø
        ascii_name: Holo
        geonamesid: 2705127
        latitude: 59.28333
        longitude: 18.66667
        name: Hölö
        names_en: ~
        names_es: ~
        population: 1199
        timezone: Europe/Stockholm
      - 
        alternate_names: ~
        ascii_name: Hemmesta
        geonamesid: 2706713
        latitude: 59.31667
        longitude: 18.5
        name: Hemmesta
        names_en: ~
        names_es: ~
        population: 4577
        timezone: Europe/Stockholm
      - 
        alternate_names: ~
        ascii_name: Haninge
        geonamesid: 2707953
        latitude: 59.16775
        longitude: 18.14478
        name: Haninge
        names_en: ~
        names_es: ~
        population: 74968
        timezone: Europe/Stockholm
      - 
        alternate_names: ~
        ascii_name: Handen
        geonamesid: 2708016
        latitude: 59.16809
        longitude: 18.13796
        name: Handen
        names_en: ~
        names_es: ~
        population: 11524
        timezone: Europe/Stockholm
      - 
        alternate_names: 
          - Hallstavik
        ascii_name: Hallstavik
        geonamesid: 2708426
        latitude: 60.05
        longitude: 18.6
        name: Hallstavik
        names_en: ~
        names_es: ~
        population: 4530
        timezone: Europe/Stockholm
      - 
        alternate_names: 
          - Gustarsberg
        ascii_name: Gustavsberg
        geonamesid: 2709628
        latitude: 59.32684
        longitude: 18.38975
        name: Gustavsberg
        names_en: ~
        names_es: ~
        population: 9682
        timezone: Europe/Stockholm
      - 
        alternate_names: 
          - Ekero
          - Ekeroe
          - Ekerö
          - Ekerø
        ascii_name: Ekeroe
        geonamesid: 2716586
        latitude: 59.291
        longitude: 17.81212
        name: Ekerö
        names_en: 
          - Ekerö
        names_es: ~
        population: 9931
        timezone: Europe/Stockholm
      - 
        alternate_names: ~
        ascii_name: Djursholm
        geonamesid: 2717517
        latitude: 59.39926
        longitude: 18.05619
        name: Djursholm
        names_en: ~
        names_es: ~
        population: 8856
        timezone: Europe/Stockholm
      - 
        alternate_names: 
          - Dalaro
          - Dalaroe
          - Dalarö
          - Dalarø
        ascii_name: Dalaro
        geonamesid: 2718271
        latitude: 59.13306
        longitude: 18.40639
        name: Dalarö
        names_en: ~
        names_es: ~
        population: 1190
        timezone: Europe/Stockholm
      - 
        alternate_names: ~
        ascii_name: Bro
        geonamesid: 2719245
        latitude: 59.51667
        longitude: 17.63333
        name: Bro
        names_en: ~
        names_es: ~
        population: 6359
        timezone: Europe/Stockholm
      - 
        alternate_names: ~
        ascii_name: Brevik
        geonamesid: 2719312
        latitude: 59.35
        longitude: 18.2
        name: Brevik
        names_en: ~
        names_es: ~
        population: 8024
        timezone: Europe/Stockholm
      - 
        alternate_names: 
          - Bredvik
          - Brevik
        ascii_name: Brevik
        geonamesid: 2719318
        latitude: 59.21667
        longitude: 18.38333
        name: Brevik
        names_en: ~
        names_es: ~
        population: 1817
        timezone: Europe/Stockholm
      - 
        alternate_names: 
          - Bo
          - Boo
        ascii_name: Boo
        geonamesid: 2721259
        latitude: 59.33333
        longitude: 18.28333
        name: Boo
        names_en: ~
        names_es: ~
        population: 21776
        timezone: Europe/Stockholm
      - 
        alternate_names: 
          - Bjoerkoe
          - Bjorko
          - Björkö
          - Bjørkø
        ascii_name: Bjorko
        geonamesid: 2722026
        latitude: 59.75
        longitude: 19.0
        name: Björkö
        names_en: ~
        names_es: ~
        population: 1409
        timezone: Europe/Stockholm
      - 
        alternate_names: ~
        ascii_name: Bergshamra
        geonamesid: 2722742
        latitude: 59.38083
        longitude: 18.03427
        name: Bergshamra
        names_en: ~
        names_es: ~
        population: 7300
        timezone: Europe/Stockholm
      - 
        alternate_names: 
          - Arno
          - Arnoe
          - Arnö
          - Arnø
        ascii_name: Arno
        geonamesid: 2725271
        latitude: 60.11667
        longitude: 18.63333
        name: Arnö
        names_en: ~
        names_es: ~
        population: 3925
        timezone: Europe/Stockholm
      - 
        alternate_names: ~
        ascii_name: Alta
        geonamesid: 2726394
        latitude: 59.26667
        longitude: 18.18333
        name: Älta
        names_en: ~
        names_es: ~
        population: 9274
        timezone: Europe/Stockholm
      - 
        alternate_names: 
          - Akersberga
          - Акерсберга
        ascii_name: Akersberga
        geonamesid: 2727234
        latitude: 59.47944
        longitude: 18.29967
        name: Åkersberga
        names_en: ~
        names_es: ~
        population: 26785
        timezone: Europe/Stockholm
      - 
        alternate_names: ~
        ascii_name: Fisksatra
        geonamesid: 3336566
        latitude: 59.28333
        longitude: 18.26667
        name: Fisksätra
        names_en: ~
        names_es: ~
        population: 6864
        timezone: Europe/Stockholm
      - 
        alternate_names: ~
        ascii_name: Salem
        geonamesid: 6930653
        latitude: 59.20186
        longitude: 17.76646
        name: Salem
        names_en: ~
        names_es: ~
        population: 12000
        timezone: Europe/Stockholm
    geonamesid: 2673722
    name: Stockholm
    names_en: 
      - "Stockholm County"
      - Stockholm
      - "Greater Stockholm"
    names_es: ~
  - 
    ascii_name: Soedermanland
    cities: 
      - 
        alternate_names: ~
        ascii_name: Vingaker
        geonamesid: 2662830
        latitude: 59.0433
        longitude: 15.87374
        name: Vingåker
        names_en: ~
        names_es: ~
        population: 4362
        timezone: Europe/Stockholm
      - 
        alternate_names: 
          - Vagnharad
          - Vagnhärad
        ascii_name: Vagnharad
        geonamesid: 2665844
        latitude: 58.95
        longitude: 17.51667
        name: Vagnhärad
        names_en: ~
        names_es: ~
        population: 3221
        timezone: Europe/Stockholm
      - 
        alternate_names: ~
        ascii_name: Trosa
        geonamesid: 2667253
        latitude: 58.89621
        longitude: 17.54812
        name: Trosa
        names_en: ~
        names_es: ~
        population: 4633
        timezone: Europe/Stockholm
      - 
        alternate_names: 
          - Torshalla
          - Torshälla
        ascii_name: Torshalla
        geonamesid: 2667847
        latitude: 59.41667
        longitude: 16.46667
        name: Torshälla
        names_en: ~
        names_es: ~
        population: 7614
        timezone: Europe/Stockholm
      - 
        alternate_names: ~
        ascii_name: Svalsta
        geonamesid: 2670536
        latitude: 58.73333
        longitude: 16.86667
        name: Svalsta
        names_en: ~
        names_es: ~
        population: 1020
        timezone: Europe/Stockholm
      - 
        alternate_names: 
          - Strangnass
          - Strängnäss
        ascii_name: Strangnas
        geonamesid: 2671392
        latitude: 59.37741
        longitude: 17.03119
        name: Strängnäs
        names_en: ~
        names_es: ~
        population: 12555
        timezone: Europe/Stockholm
      - 
        alternate_names: ~
        ascii_name: Stigtomta
        geonamesid: 2673829
        latitude: 58.8
        longitude: 16.78333
        name: Stigtomta
        names_en: ~
        names_es: ~
        population: 1948
        timezone: Europe/Stockholm
      - 
        alternate_names: ~
        ascii_name: Stallarholmen
        geonamesid: 2674594
        latitude: 59.36667
        longitude: 17.2
        name: Stallarholmen
        names_en: ~
        names_es: ~
        population: 1487
        timezone: Europe/Stockholm
      - 
        alternate_names: ~
        ascii_name: Skogstorp
        geonamesid: 2677370
        latitude: 59.33333
        longitude: 16.46667
        name: Skogstorp
        names_en: ~
        names_es: ~
        population: 2180
        timezone: Europe/Stockholm
      - 
        alternate_names: 
          - Oxeloesund
          - Oxelosund
          - Oxelösund
          - Oxeløsund
        ascii_name: Oxelosund
        geonamesid: 2684653
        latitude: 58.67057
        longitude: 17.10152
        name: Oxelösund
        names_en: ~
        names_es: ~
        population: 10690
        timezone: Europe/Stockholm
      - 
        alternate_names: ~
        ascii_name: Olstorp
        geonamesid: 2686979
        latitude: 58.81667
        longitude: 16.63333
        name: Olstorp
        names_en: ~
        names_es: ~
        population: 1017
        timezone: Europe/Stockholm
      - 
        alternate_names: 
          - Nykoeping
          - Nykoping
          - Nyköping
          - Nykøping
        ascii_name: Nykoping
        geonamesid: 2687700
        latitude: 58.753
        longitude: 17.00788
        name: Nyköping
        names_en: 
          - Nyköping
        names_es: ~
        population: 27582
        timezone: Europe/Stockholm
      - 
        alternate_names: 
          - Mariefred
          - Мариефред
        ascii_name: Mariefred
        geonamesid: 2692633
        latitude: 59.26667
        longitude: 17.21667
        name: Mariefred
        names_en: 
          - Mariefred
        names_es: ~
        population: 3813
        timezone: Europe/Stockholm
      - 
        alternate_names: 
          - Malmkoeping
          - Malmkoping
          - Malmköping
          - Malmkøping
        ascii_name: Malmkoping
        geonamesid: 2692972
        latitude: 59.13333
        longitude: 16.73333
        name: Malmköping
        names_en: ~
        names_es: ~
        population: 2000
        timezone: Europe/Stockholm
      - 
        alternate_names: 
          - Kvicksund
          - Kvieksund
        ascii_name: Kvicksund
        geonamesid: 2698295
        latitude: 59.45
        longitude: 16.31667
        name: Kvicksund
        names_en: ~
        names_es: ~
        population: 1714
        timezone: Europe/Stockholm
      - 
        alternate_names: 
          - Cathrineholm
          - "Katrineholms station"
          - Katrinekhol'm
          - Катринехольм
        ascii_name: Katrineholm
        geonamesid: 2701223
        latitude: 58.99587
        longitude: 16.20721
        name: Katrineholm
        names_en: ~
        names_es: ~
        population: 21108
        timezone: Europe/Stockholm
      - 
        alternate_names: ~
        ascii_name: Halleforsnas
        geonamesid: 2708663
        latitude: 59.16667
        longitude: 16.5
        name: Hälleforsnäs
        names_en: ~
        names_es: ~
        population: 1747
        timezone: Europe/Stockholm
      - 
        alternate_names: 
          - Hallbybrunn
          - Hällbybrunn
          - "Sveriges Chicago"
        ascii_name: Hallbybrunn
        geonamesid: 2708710
        latitude: 59.38333
        longitude: 16.43333
        name: Hällbybrunn
        names_en: ~
        names_es: ~
        population: 3374
        timezone: Europe/Stockholm
      - 
        alternate_names: ~
        ascii_name: Gnesta
        geonamesid: 2711798
        latitude: 59.04751
        longitude: 17.31191
        name: Gnesta
        names_en: ~
        names_es: ~
        population: 5208
        timezone: Europe/Stockholm
      - 
        alternate_names: ~
        ascii_name: Flen
        geonamesid: 2714401
        latitude: 59.05834
        longitude: 16.58781
        name: Flen
        names_en: ~
        names_es: ~
        population: 6114
        timezone: Europe/Stockholm
      - 
        alternate_names: 
          - Ehskil'stuna
          - Eskilstuna
          - Эскильстуна
        ascii_name: Eskilstuna
        geonamesid: 2715953
        latitude: 59.36661
        longitude: 16.5077
        name: Eskilstuna
        names_en: 
          - Eskilstuna
        names_es: ~
        population: 59016
        timezone: Europe/Stockholm
      - 
        alternate_names: ~
        ascii_name: Bara
        geonamesid: 2723488
        latitude: 58.68333
        longitude: 17.06667
        name: Bara
        names_en: ~
        names_es: ~
        population: 3270
        timezone: Europe/Stockholm
      - 
        alternate_names: ~
        ascii_name: Arla
        geonamesid: 2725348
        latitude: 59.28333
        longitude: 16.66667
        name: Ärla
        names_en: ~
        names_es: ~
        population: 1281
        timezone: Europe/Stockholm
      - 
        alternate_names: ~
        ascii_name: "Akers Styckebruk"
        geonamesid: 2727222
        latitude: 59.25
        longitude: 17.08333
        name: "Åkers Styckebruk"
        names_en: ~
        names_es: ~
        population: 2730
        timezone: Europe/Stockholm
    geonamesid: 2676207
    name: Södermanland
    names_en: 
      - "Södermanland County"
      - Södermanland
    names_es: ~
  - 
    ascii_name: OEstergoetland
    cities: 
      - 
        alternate_names: ~
        ascii_name: Vikingstad
        geonamesid: 2662996
        latitude: 58.38304
        longitude: 15.43201
        name: Vikingstad
        names_en: ~
        names_es: ~
        population: 2072
        timezone: Europe/Stockholm
      - 
        alternate_names: ~
        ascii_name: Valdemarsvik
        geonamesid: 2665675
        latitude: 58.2031
        longitude: 16.60225
        name: Valdemarsvik
        names_en: ~
        names_es: ~
        population: 2885
        timezone: Europe/Stockholm
      - 
        alternate_names: 
          - Vadstena
          - Vadstenium
          - Вадстена
        ascii_name: Vadstena
        geonamesid: 2665902
        latitude: 58.44863
        longitude: 14.88969
        name: Vadstena
        names_en: 
          - Vadstena
        names_es: ~
        population: 5700
        timezone: Europe/Stockholm
      - 
        alternate_names: 
          - Svartinge
          - "Svartinge Villasamhalle"
          - Svärtinge
          - "Svärtinge Villasamhälle"
        ascii_name: Svartinge
        geonamesid: 2670278
        latitude: 58.65
        longitude: 16.0
        name: Svärtinge
        names_en: ~
        names_es: ~
        population: 2410
        timezone: Europe/Stockholm
      - 
        alternate_names: ~
        ascii_name: Sturefors
        geonamesid: 2671060
        latitude: 58.33333
        longitude: 15.73333
        name: Sturefors
        names_en: ~
        names_es: ~
        population: 2228
        timezone: Europe/Stockholm
      - 
        alternate_names: ~
        ascii_name: Stenstorp
        geonamesid: 2673952
        latitude: 58.48333
        longitude: 15.06667
        name: Stenstorp
        names_en: ~
        names_es: ~
        population: 1630
        timezone: Europe/Stockholm
      - 
        alternate_names: 
          - Soderkoping
          - Soederkoeping
          - Söderköping
          - Søderkøping
        ascii_name: Soederkoeping
        geonamesid: 2676215
        latitude: 58.48057
        longitude: 16.32221
        name: Söderköping
        names_en: ~
        names_es: ~
        population: 6951
        timezone: Europe/Stockholm
      - 
        alternate_names: ~
        ascii_name: Skarblacka
        geonamesid: 2678173
        latitude: 58.56667
        longitude: 15.9
        name: Skärblacka
        names_en: ~
        names_es: ~
        population: 4048
        timezone: Europe/Stockholm
      - 
        alternate_names: ~
        ascii_name: Ryd
        geonamesid: 2680985
        latitude: 58.66667
        longitude: 15.08333
        name: Ryd
        names_en: ~
        names_es: ~
        population: 1446
        timezone: Europe/Stockholm
      - 
        alternate_names: ~
        ascii_name: Rimforsa
        geonamesid: 2682569
        latitude: 58.13624
        longitude: 15.6865
        name: Rimforsa
        names_en: ~
        names_es: ~
        population: 2181
        timezone: Europe/Stockholm
      - 
        alternate_names: 
          - OEdeshoeg
          - Odeshog
          - Ödeshög
          - Ødeshøg
        ascii_name: OEdeshoeg
        geonamesid: 2687420
        latitude: 58.22949
        longitude: 14.65294
        name: Ödeshög
        names_en: ~
        names_es: ~
        population: 2651
        timezone: Europe/Stockholm
      - 
        alternate_names: 
          - Norcheping
          - Norrkoeping
          - Norrkoping
          - Norrköping
        ascii_name: Norrkoping
        geonamesid: 2688368
        latitude: 58.59419
        longitude: 16.1826
        name: Norrköping
        names_en: 
          - Norrköping
        names_es: ~
        population: 82903
        timezone: Europe/Stockholm
      - 
        alternate_names: 
          - "Commune de Motala"
          - Motala
          - Mutala
          - Мутала
        ascii_name: Motala
        geonamesid: 2690960
        latitude: 58.53706
        longitude: 15.03649
        name: Motala
        names_en: 
          - Motala
        names_es: ~
        population: 29715
        timezone: Europe/Stockholm
      - 
        alternate_names: 
          - Mjoelby
          - Mjolby
          - Mjölby
          - Mjølby
        ascii_name: Mjolby
        geonamesid: 2691743
        latitude: 58.32595
        longitude: 15.12365
        name: Mjölby
        names_en: ~
        names_es: ~
        population: 11560
        timezone: Europe/Stockholm
      - 
        alternate_names: ~
        ascii_name: Mantorp
        geonamesid: 2692748
        latitude: 58.35
        longitude: 15.28333
        name: Mantorp
        names_en: ~
        names_es: ~
        population: 3326
        timezone: Europe/Stockholm
      - 
        alternate_names: 
          - Malmen
        ascii_name: Malmslatt
        geonamesid: 2692943
        latitude: 58.41102
        longitude: 15.51647
        name: Malmslätt
        names_en: ~
        names_es: ~
        population: 5358
        timezone: Europe/Stockholm
      - 
        alternate_names: 
          - Ljugsbro
          - Ljungsbro
        ascii_name: Ljungsbro
        geonamesid: 2694529
        latitude: 58.51667
        longitude: 15.5
        name: Ljungsbro
        names_en: ~
        names_es: ~
        population: 6510
        timezone: Europe/Stockholm
      - 
        alternate_names: 
          - Lincheping
          - Lincopia
          - Linkoeping
          - Linkoping
        ascii_name: Linkoping
        geonamesid: 2694762
        latitude: 58.41667
        longitude: 15.61667
        name: Linköping
        names_en: 
          - Linköping
        names_es: ~
        population: 96732
        timezone: Europe/Stockholm
      - 
        alternate_names: ~
        ascii_name: Linghem
        geonamesid: 2694779
        latitude: 58.43333
        longitude: 15.78333
        name: Linghem
        names_en: ~
        names_es: ~
        population: 2484
        timezone: Europe/Stockholm
      - 
        alternate_names: 
          - Lindo
          - Lindoe
          - Lindohall
          - Lindö
        ascii_name: Lindo
        geonamesid: 2694838
        latitude: 58.61667
        longitude: 16.25
        name: Lindö
        names_en: ~
        names_es: ~
        population: 4842
        timezone: Europe/Stockholm
      - 
        alternate_names: ~
        ascii_name: Krokek
        geonamesid: 2699206
        latitude: 58.66667
        longitude: 16.4
        name: Krokek
        names_en: ~
        names_es: ~
        population: 4154
        timezone: Europe/Stockholm
      - 
        alternate_names: ~
        ascii_name: Kisa
        geonamesid: 2700800
        latitude: 57.98781
        longitude: 15.63303
        name: Kisa
        names_en: ~
        names_es: ~
        population: 3697
        timezone: Europe/Stockholm
      - 
        alternate_names: ~
        ascii_name: Kimstad
        geonamesid: 2700858
        latitude: 58.53333
        longitude: 15.96667
        name: Kimstad
        names_en: ~
        names_es: ~
        population: 1492
        timezone: Europe/Stockholm
      - 
        alternate_names: ~
        ascii_name: Jursla
        geonamesid: 2702776
        latitude: 58.66667
        longitude: 16.18333
        name: Jursla
        names_en: ~
        names_es: ~
        population: 1647
        timezone: Europe/Stockholm
      - 
        alternate_names: ~
        ascii_name: Hestra
        geonamesid: 2706485
        latitude: 57.96
        longitude: 15.07
        name: Hestra
        names_en: ~
        names_es: ~
        population: 1326
        timezone: Europe/Stockholm
      - 
        alternate_names: ~
        ascii_name: Herrestad
        geonamesid: 2706543
        latitude: 58.38333
        longitude: 14.8
        name: Herrestad
        names_en: ~
        names_es: ~
        population: 2412
        timezone: Europe/Stockholm
      - 
        alternate_names: ~
        ascii_name: Gusum
        geonamesid: 2709600
        latitude: 58.26667
        longitude: 16.48333
        name: Gusum
        names_en: ~
        names_es: ~
        population: 1211
        timezone: Europe/Stockholm
      - 
        alternate_names: ~
        ascii_name: Finspang
        geonamesid: 2714903
        latitude: 58.70578
        longitude: 15.76739
        name: Finspång
        names_en: ~
        names_es: ~
        population: 12415
        timezone: Europe/Stockholm
      - 
        alternate_names: ~
        ascii_name: Ekangen
        geonamesid: 2716758
        latitude: 58.46667
        longitude: 15.63333
        name: Ekängen
        names_en: ~
        names_es: ~
        population: 1100
        timezone: Europe/Stockholm
      - 
        alternate_names: ~
        ascii_name: Boxholm
        geonamesid: 2720037
        latitude: 58.19719
        longitude: 15.05376
        name: Boxholm
        names_en: ~
        names_es: ~
        population: 3182
        timezone: Europe/Stockholm
      - 
        alternate_names: 
          - Borensberg
        ascii_name: Borensberg
        geonamesid: 2720485
        latitude: 58.56667
        longitude: 15.28333
        name: Borensberg
        names_en: ~
        names_es: ~
        population: 2712
        timezone: Europe/Stockholm
      - 
        alternate_names: ~
        ascii_name: Berg
        geonamesid: 2722996
        latitude: 58.48831
        longitude: 15.52969
        name: Berg
        names_en: ~
        names_es: ~
        population: 1229
        timezone: Europe/Stockholm
      - 
        alternate_names: 
          - Atvid
          - Åtvid
        ascii_name: Atvidaberg
        geonamesid: 2724321
        latitude: 58.20152
        longitude: 15.9977
        name: Åtvidaberg
        names_en: ~
        names_es: ~
        population: 6947
        timezone: Europe/Stockholm
      - 
        alternate_names: ~
        ascii_name: Aby
        geonamesid: 2727594
        latitude: 58.66667
        longitude: 16.18333
        name: Åby
        names_en: ~
        names_es: ~
        population: 4805
        timezone: Europe/Stockholm
    geonamesid: 2685867
    name: Östergötland
    names_en: 
      - "Östergötland County"
      - Östergötland
    names_es: ~
  - 
    ascii_name: OErebro
    cities: 
      - 
        alternate_names: ~
        ascii_name: Vintrosa
        geonamesid: 2662758
        latitude: 59.25
        longitude: 14.95
        name: Vintrosa
        names_en: ~
        names_es: ~
        population: 1333
        timezone: Europe/Stockholm
      - 
        alternate_names: ~
        ascii_name: Stora
        geonamesid: 2673621
        latitude: 59.71667
        longitude: 15.13333
        name: Storå
        names_en: ~
        names_es: ~
        population: 2010
        timezone: Europe/Stockholm
      - 
        alternate_names: 
          - Skoellersta
          - Skollersta
          - Sköllersta
          - Skøllersta
        ascii_name: Skollersta
        geonamesid: 2677356
        latitude: 59.15
        longitude: 15.33333
        name: Sköllersta
        names_en: ~
        names_es: ~
        population: 1103
        timezone: Europe/Stockholm
      - 
        alternate_names: 
          - Palsboda
          - Pålsboda
        ascii_name: Palsboda
        geonamesid: 2684485
        latitude: 59.06667
        longitude: 15.33333
        name: Pålsboda
        names_en: ~
        names_es: ~
        population: 1524
        timezone: Europe/Stockholm
      - 
        alternate_names: 
          - Erebro
          - Erebru
          - OErebro
          - "OErebro kommuna"
        ascii_name: Orebro
        geonamesid: 2686657
        latitude: 59.27412
        longitude: 15.2066
        name: Örebro
        names_en: 
          - Örebro
        names_es: ~
        population: 98573
        timezone: Europe/Stockholm
      - 
        alternate_names: ~
        ascii_name: Odensbacken
        geonamesid: 2687454
        latitude: 59.16667
        longitude: 15.53333
        name: Odensbacken
        names_en: ~
        names_es: ~
        population: 1384
        timezone: Europe/Stockholm
      - 
        alternate_names: ~
        ascii_name: As
        geonamesid: 2689204
        latitude: 59.53333
        longitude: 14.98333
        name: Ås
        names_en: ~
        names_es: ~
        population: 1097
        timezone: Europe/Stockholm
      - 
        alternate_names: ~
        ascii_name: Nora
        geonamesid: 2689471
        latitude: 59.51926
        longitude: 15.03979
        name: Nora
        names_en: ~
        names_es: ~
        population: 6496
        timezone: Europe/Stockholm
      - 
        alternate_names: ~
        ascii_name: Lindesberg
        geonamesid: 2694893
        latitude: 59.59202
        longitude: 15.2304
        name: Lindesberg
        names_en: ~
        names_es: ~
        population: 8752
        timezone: Europe/Stockholm
      - 
        alternate_names: ~
        ascii_name: Laxa
        geonamesid: 2696804
        latitude: 58.9863
        longitude: 14.61904
        name: Laxå
        names_en: ~
        names_es: ~
        population: 3307
        timezone: Europe/Stockholm
      - 
        alternate_names: ~
        ascii_name: Kumla
        geonamesid: 2698767
        latitude: 59.1277
        longitude: 15.14341
        name: Kumla
        names_en: ~
        names_es: ~
        population: 12756
        timezone: Europe/Stockholm
      - 
        alternate_names: 
          - "Kopparberg Koping"
          - "Kopparberg Köping"
          - "Kopparbergs Koping"
          - "Kopparbergs Köping"
        ascii_name: Kopparberg
        geonamesid: 2699768
        latitude: 59.87597
        longitude: 14.99436
        name: Kopparberg
        names_en: ~
        names_es: ~
        population: 3189
        timezone: Europe/Stockholm
      - 
        alternate_names: 
          - Kariskoga
          - Karlskoga
        ascii_name: Karlskoga
        geonamesid: 2701715
        latitude: 59.32667
        longitude: 14.52386
        name: Karlskoga
        names_en: 
          - Karlskoga
        names_es: ~
        population: 26949
        timezone: Europe/Stockholm
      - 
        alternate_names: 
          - Hovsta
        ascii_name: Hovsta
        geonamesid: 2704638
        latitude: 59.35
        longitude: 15.21667
        name: Hovsta
        names_en: ~
        names_es: ~
        population: 2773
        timezone: Europe/Stockholm
      - 
        alternate_names: ~
        ascii_name: Hallsberg
        geonamesid: 2708511
        latitude: 59.0657
        longitude: 15.11174
        name: Hallsberg
        names_en: ~
        names_es: ~
        population: 7418
        timezone: Europe/Stockholm
      - 
        alternate_names: ~
        ascii_name: Haellefors
        geonamesid: 2708665
        latitude: 59.78388
        longitude: 14.52197
        name: Hällefors
        names_en: ~
        names_es: ~
        population: 4797
        timezone: Europe/Stockholm
      - 
        alternate_names: 
          - Hallabrottet
          - Hallebrottet
          - Hällabrottet
          - Hällebrottet
        ascii_name: Hallabrottet
        geonamesid: 2708821
        latitude: 59.11667
        longitude: 15.2
        name: Hällabrottet
        names_en: ~
        names_es: ~
        population: 1806
        timezone: Europe/Stockholm
      - 
        alternate_names: ~
        ascii_name: Garphyttan
        geonamesid: 2712642
        latitude: 59.30429
        longitude: 14.94623
        name: Garphyttan
        names_en: ~
        names_es: ~
        population: 1557
        timezone: Europe/Stockholm
      - 
        alternate_names: 
          - Froevi
          - Frovi
          - Frövi
          - Frøvi
        ascii_name: Frovi
        geonamesid: 2713516
        latitude: 59.46667
        longitude: 15.36667
        name: Frövi
        names_en: ~
        names_es: ~
        population: 2493
        timezone: Europe/Stockholm
      - 
        alternate_names: ~
        ascii_name: Fjugesta
        geonamesid: 2714618
        latitude: 59.17375
        longitude: 14.87227
        name: Fjugesta
        names_en: ~
        names_es: ~
        population: 2063
        timezone: Europe/Stockholm
      - 
        alternate_names: ~
        ascii_name: Fellingsbro
        geonamesid: 2715164
        latitude: 59.43333
        longitude: 15.58333
        name: Fellingsbro
        names_en: ~
        names_es: ~
        population: 1485
        timezone: Europe/Stockholm
      - 
        alternate_names: ~
        ascii_name: Degerfors
        geonamesid: 2717884
        latitude: 59.23797
        longitude: 14.43077
        name: Degerfors
        names_en: ~
        names_es: ~
        population: 7418
        timezone: Europe/Stockholm
      - 
        alternate_names: ~
        ascii_name: Askersund
        geonamesid: 2724778
        latitude: 58.87988
        longitude: 14.9023
        name: Askersund
        names_en: ~
        names_es: ~
        population: 3937
        timezone: Europe/Stockholm
      - 
        alternate_names: ~
        ascii_name: Asbro
        geonamesid: 2725003
        latitude: 59.0
        longitude: 15.05
        name: Åsbro
        names_en: ~
        names_es: ~
        population: 1145
        timezone: Europe/Stockholm
    geonamesid: 2686655
    name: Örebro
    names_en: 
      - "Örebro County"
      - Örebro
    names_es: ~
  - 
    ascii_name: Kronoberg
    cities: 
      - 
        alternate_names: ~
        ascii_name: Vislanda
        geonamesid: 2662659
        latitude: 56.78333
        longitude: 14.45
        name: Vislanda
        names_en: ~
        names_es: ~
        population: 1773
        timezone: Europe/Stockholm
      - 
        alternate_names: 
          - Vaexjoe
          - Vekshe
          - Vexio
          - Vexiö
        ascii_name: Vaexjoe
        geonamesid: 2663536
        latitude: 56.87767
        longitude: 14.80906
        name: Växjö
        names_en: 
          - Växjö
        names_es: ~
        population: 59600
        timezone: Europe/Stockholm
      - 
        alternate_names: ~
        ascii_name: Tingsryd
        geonamesid: 2669019
        latitude: 56.5247
        longitude: 14.97902
        name: Tingsryd
        names_en: ~
        names_es: ~
        population: 3023
        timezone: Europe/Stockholm
      - 
        alternate_names: ~
        ascii_name: Stromsnasbruk
        geonamesid: 2671230
        latitude: 56.55
        longitude: 13.71667
        name: Strömsnäsbruk
        names_en: ~
        names_es: ~
        population: 2006
        timezone: Europe/Stockholm
      - 
        alternate_names: ~
        ascii_name: Rottne
        geonamesid: 2681368
        latitude: 57.01667
        longitude: 14.9
        name: Rottne
        names_en: ~
        names_es: ~
        population: 2224
        timezone: Europe/Stockholm
      - 
        alternate_names: ~
        ascii_name: Moheda
        geonamesid: 2691542
        latitude: 57.0
        longitude: 14.56667
        name: Moheda
        names_en: ~
        names_es: ~
        population: 1852
        timezone: Europe/Stockholm
      - 
        alternate_names: ~
        ascii_name: Markaryd
        geonamesid: 2692596
        latitude: 56.46135
        longitude: 13.59644
        name: Markaryd
        names_en: ~
        names_es: ~
        population: 3826
        timezone: Europe/Stockholm
      - 
        alternate_names: ~
        ascii_name: Ljungby
        geonamesid: 2694560
        latitude: 56.83324
        longitude: 13.94082
        name: Ljungby
        names_en: ~
        names_es: ~
        population: 14272
        timezone: Europe/Stockholm
      - 
        alternate_names: ~
        ascii_name: Lessebo
        geonamesid: 2696473
        latitude: 56.75185
        longitude: 15.26969
        name: Lessebo
        names_en: ~
        names_es: ~
        population: 2623
        timezone: Europe/Stockholm
      - 
        alternate_names: ~
        ascii_name: Lenhovda
        geonamesid: 2696608
        latitude: 57.0
        longitude: 15.28333
        name: Lenhovda
        names_en: ~
        names_es: ~
        population: 1714
        timezone: Europe/Stockholm
      - 
        alternate_names: 
          - Lamhult
          - Lammhult
        ascii_name: Lammhult
        geonamesid: 2697766
        latitude: 57.16667
        longitude: 14.58333
        name: Lammhult
        names_en: ~
        names_es: ~
        population: 1503
        timezone: Europe/Stockholm
      - 
        alternate_names: 
          - Lagan
        ascii_name: Lagan
        geonamesid: 2697944
        latitude: 56.91667
        longitude: 13.98333
        name: Lagan
        names_en: ~
        names_es: ~
        population: 1751
        timezone: Europe/Stockholm
      - 
        alternate_names: ~
        ascii_name: Hovmantorp
        geonamesid: 2704654
        latitude: 56.78333
        longitude: 15.13333
        name: Hovmantorp
        names_en: ~
        names_es: ~
        population: 3001
        timezone: Europe/Stockholm
      - 
        alternate_names: ~
        ascii_name: Gemla
        geonamesid: 2712377
        latitude: 56.86667
        longitude: 14.63333
        name: Gemla
        names_en: ~
        names_es: ~
        population: 1312
        timezone: Europe/Stockholm
      - 
        alternate_names: ~
        ascii_name: Braas
        geonamesid: 2720028
        latitude: 57.06667
        longitude: 15.05
        name: Braås
        names_en: ~
        names_es: ~
        population: 1567
        timezone: Europe/Stockholm
      - 
        alternate_names: ~
        ascii_name: Aseda
        geonamesid: 2724962
        latitude: 57.1701
        longitude: 15.3443
        name: Åseda
        names_en: ~
        names_es: ~
        population: 2430
        timezone: Europe/Stockholm
      - 
        alternate_names: ~
        ascii_name: Alvesta
        geonamesid: 2726314
        latitude: 56.89935
        longitude: 14.55559
        name: Alvesta
        names_en: ~
        names_es: ~
        population: 7647
        timezone: Europe/Stockholm
      - 
        alternate_names: ~
        ascii_name: AElmhult
        geonamesid: 2726576
        latitude: 56.55146
        longitude: 14.13827
        name: Älmhult
        names_en: ~
        names_es: ~
        population: 8518
        timezone: Europe/Stockholm
    geonamesid: 2699050
    name: Kronoberg
    names_en: 
      - "Kronoberg County"
      - Kronoberg
    names_es: ~
  - 
    ascii_name: Dalarna
    cities: 
      - 
        alternate_names: ~
        ascii_name: Vikarbyn
        geonamesid: 2663077
        latitude: 60.91667
        longitude: 15.01667
        name: Vikarbyn
        names_en: ~
        names_es: ~
        population: 1208
        timezone: Europe/Stockholm
      - 
        alternate_names: 
          - Vansboro
        ascii_name: Vansbro
        geonamesid: 2665063
        latitude: 60.50893
        longitude: 14.22458
        name: Vansbro
        names_en: ~
        names_es: ~
        population: 2030
        timezone: Europe/Stockholm
      - 
        alternate_names: ~
        ascii_name: Svardsjo
        geonamesid: 2670403
        latitude: 60.75
        longitude: 15.91667
        name: Svärdsjö
        names_en: ~
        names_es: ~
        population: 1288
        timezone: Europe/Stockholm
      - 
        alternate_names: ~
        ascii_name: Smedjebacken
        geonamesid: 2676586
        latitude: 60.14181
        longitude: 15.41416
        name: Smedjebacken
        names_en: ~
        names_es: ~
        population: 5121
        timezone: Europe/Stockholm
      - 
        alternate_names: ~
        ascii_name: Smedby
        geonamesid: 2676592
        latitude: 60.7
        longitude: 15.05
        name: Smedby
        names_en: ~
        names_es: ~
        population: 3530
        timezone: Europe/Stockholm
      - 
        alternate_names: ~
        ascii_name: Siljansnas
        geonamesid: 2679226
        latitude: 60.78333
