--- 
geonamesid: 163843
iso: SY
name: Syria
names_en: 
  - Syria
  - "Syrian Arab Republic"
names_es: 
  - Siria
regions: 
  - 
    ascii_name: Tartus
    cities: 
      - 
        alternate_names: 
          - Antaradus
          - Tartous
          - Tartouss
          - Tartoûs
        ascii_name: Tartouss
        geonamesid: 163345
        latitude: 34.88902
        longitude: 35.88659
        name: Tartouss
        names_en: 
          - Tartous
        names_es: ~
        population: 89457
        timezone: Asia/Damascus
      - 
        alternate_names: 
          - "Borj Safita"
          - "Borj Sâfîta"
          - Khokhu
          - Safita
        ascii_name: Satita
        geonamesid: 165060
        latitude: 34.81667
        longitude: 36.11667
        name: Satita
        names_en: ~
        names_es: ~
        population: 27815
        timezone: Asia/Damascus
      - 
        alternate_names: 
          - Bermana
          - "Dere Kish"
          - Draikich
          - Draykikh
        ascii_name: Duraykish
        geonamesid: 170572
        latitude: 34.88333
        longitude: 36.13333
        name: Duraykīsh
        names_en: ~
        names_es: ~
        population: 11918
        timezone: Asia/Damascus
      - 
        alternate_names: 
          - Banias
          - Banijas
          - Baniyas
          - Bulunyas
        ascii_name: Baniyas
        geonamesid: 171830
        latitude: 35.18333
        longitude: 35.95
        name: Bāniyās
        names_en: ~
        names_es: ~
        population: 39066
        timezone: Asia/Damascus
      - 
        alternate_names: ~
        ascii_name: ~
        geonamesid: 6943439
        latitude: 35.08638
        longitude: 36.20605
        name: "كاف الجاع"
        names_en: ~
        names_es: ~
        population: 3500
        timezone: Asia/Damascus
    geonamesid: 163342
    name: Tartus
    names_en: 
      - "Tartus Governorate"
      - Tartus
    names_es: ~
  - 
    ascii_name: "Damascus City"
    cities: 
      - 
        alternate_names: 
          - Aarbil
          - Aarbîl
          - Arbine
          - Irbin
        ascii_name: "`Irbin"
        geonamesid: 169372
        latitude: 33.5376
        longitude: 36.36856
        name: ‘Irbīn
        names_en: 
          - Irbin
        names_es: ~
        population: 42474
        timezone: Asia/Damascus
      - 
        alternate_names: 
          - Al-Sham
          - Al-Shām
          - Cham
          - Damas
        ascii_name: Damascus
        geonamesid: 170654
        latitude: 33.5102
        longitude: 36.29128
        name: Damascus
        names_en: 
          - Damascus
        names_es: 
          - Damasco
        population: 1569394
        timezone: Asia/Damascus
      - 
        alternate_names: 
          - Daraiya
          - Daraje
          - Daraya
          - Daraye
        ascii_name: Darayya
        geonamesid: 170892
        latitude: 33.45897
        longitude: 36.23742
        name: Dārayyā
        names_en: ~
        names_es: ~
        population: 71596
        timezone: Asia/Damascus
    geonamesid: 167541
    name: "Damascus City"
    names_en: 
      - "Damascus City"
    names_es: ~
  - 
    ascii_name: Idlib
    cities: 
      - 
        alternate_names: 
          - Sarakeb
          - Saraqeb
          - Saraqib
          - Saraquib
        ascii_name: Saraqib
        geonamesid: 164816
        latitude: 35.86361
        longitude: 36.80056
        name: Sarāqib
        names_en: ~
        names_es: ~
        population: 34231
        timezone: Asia/Damascus
      - 
        alternate_names: 
          - Salkine
          - Salkîne
          - Salqin
          - Salqine
        ascii_name: Salqin
        geonamesid: 164898
        latitude: 36.13809
        longitude: 36.45322
        name: Salqīn
        names_en: ~
        names_es: ~
        population: 31608
        timezone: Asia/Damascus
      - 
        alternate_names: 
          - "Ma`arrat Misrin"
          - "Ma`arrat Misriyn"
          - "Maarat Missrin"
          - "Maarrat al Masrin"
        ascii_name: "Ma`arrat Misrin"
        geonamesid: 167605
        latitude: 36.01337
        longitude: 36.67254
        name: "Ma‘arrat Mişrīn"
        names_en: ~
        names_es: ~
        population: 32163
        timezone: Asia/Damascus
      - 
        alternate_names: 
          - "Khan Cheykoun"
          - "Khan Shaykhun"
          - "Khan Sheikhun"
          - Khan-Sheikhoun
        ascii_name: "Khan Shaykhun"
        geonamesid: 168325
        latitude: 35.44063
        longitude: 36.64995
        name: "Khān Shaykhūn"
        names_en: ~
        names_es: ~
        population: 48975
        timezone: Asia/Damascus
      - 
        alternate_names: 
          - "Kafar Takharim"
          - "Kafer Harut"
          - "Kafer Taharim"
          - "Kafer Tahârim"
        ascii_name: "Kafr Takharim"
        geonamesid: 168629
        latitude: 36.11684
        longitude: 36.51528
        name: "Kafr Takhārīm"
        names_en: ~
        names_es: ~
        population: 22436
        timezone: Asia/Damascus
      - 
        alternate_names: 
          - "Kafer Nebal"
          - "Kafr Nabl"
          - "Kafr Nubl"
          - "Kafr Nubul"
        ascii_name: "Kafr Nabl"
        geonamesid: 168661
        latitude: 35.6
        longitude: 36.56667
        name: "Kafr Nabl"
        names_en: ~
        names_es: ~
        population: 24754
        timezone: Asia/Damascus
      - 
        alternate_names: 
          - "Djisr el Choghour"
          - "Jisr Al-Shughour"
          - "Jisr ash Shaghur"
          - "Jisr ash Shughur"
        ascii_name: "Jisr ash Shughur"
        geonamesid: 169023
        latitude: 35.81556
        longitude: 36.3175
        name: "Jisr ash Shughūr"
        names_en: ~
        names_es: ~
        population: 39311
        timezone: Asia/Damascus
      - 
        alternate_names: 
          - Idleb
          - Idlib
          - adlb
          - "mhafzt adlb"
        ascii_name: Idlib
        geonamesid: 169389
        latitude: 35.93062
        longitude: 36.63393
        name: Idlib
        names_en: 
          - Idlib
        names_es: ~
        population: 128840
        timezone: Asia/Damascus
      - 
        alternate_names: 
          - Binnesh
          - Binnich
          - Binnish
        ascii_name: Binnish
        geonamesid: 171451
        latitude: 35.95554
        longitude: 36.71393
        name: Binnish
        names_en: ~
        names_es: ~
        population: 30354
        timezone: Asia/Damascus
      - 
        alternate_names: 
          - "Ad Dana"
          - "Ad Danah"
          - "Ad Dānah"
          - "Ad Dānā"
        ascii_name: "Ad Dana"
        geonamesid: 174259
        latitude: 36.21252
        longitude: 36.76978
        name: "Ad Dānā"
        names_en: ~
        names_es: ~
        population: 21987
        timezone: Asia/Damascus
    geonamesid: 169387
    name: Idlib
    names_en: 
      - "Idlib Governorate"
      - Idlib
    names_es: ~
  - 
    ascii_name: Homs
    cities: 
      - 
        alternate_names: 
          - Talkalakh
          - "Tall Kalakh"
          - Telkalakh
          - "Tell Kalakh"
        ascii_name: "Tall Kalakh"
        geonamesid: 163533
        latitude: 34.66667
        longitude: 36.25
        name: "Tall Kalakh"
        names_en: ~
        names_es: ~
        population: 29754
        timezone: Asia/Damascus
      - 
        alternate_names: 
          - Talbisah
          - Talbiseh
          - Talbīsah
          - "Tall Bisih"
        ascii_name: Talbisah
        geonamesid: 163779
        latitude: 34.84063
        longitude: 36.73093
        name: Talbīsah
        names_en: ~
        names_es: ~
        population: 38491
        timezone: Asia/Damascus
      - 
        alternate_names: 
          - Pal'mira
          - Palmira
          - Palmuera
          - Palmyra
        ascii_name: Tadmur
        geonamesid: 163808
        latitude: 34.55
        longitude: 38.28333
        name: Tadmur
        names_en: 
          - Palmyra
        names_es: 
          - Palmira
        population: 51015
        timezone: Asia/Damascus
      - 
        alternate_names: 
          - "Al-Mukharram Fokani"
          - "Moukharram Faouqani"
          - "Moukharrem el Fouqani"
          - Muharram
        ascii_name: "Mukharram al Fawqani"
        geonamesid: 166719
        latitude: 34.81506
        longitude: 37.08614
        name: "Mukharram al Fawqānī"
        names_en: ~
        names_es: ~
        population: 9112
        timezone: Asia/Damascus
      - 
        alternate_names: 
          - "Kafer Laha"
          - "Kafer Lâha"
          - "Kafr Laha"
          - "Kafr Lahah"
        ascii_name: "Kafr Lahah"
        geonamesid: 168668
        latitude: 34.89464
        longitude: 36.49404
        name: "Kafr Lāḩah"
        names_en: ~
        names_es: ~
        population: 21819
        timezone: Asia/Damascus
      - 
        alternate_names: 
          - Emesa
          - Hims
          - Homs
          - Houmousse
        ascii_name: Hums
        geonamesid: 169577
        latitude: 34.72682
        longitude: 36.72339
        name: Hums
        names_en: 
          - Homs
        names_es: ~
        population: 775404
        timezone: Asia/Damascus
      - 
        alternate_names: 
          - Al-Rastan
          - "Ar Rastan"
          - Arethousa
          - Arethus
        ascii_name: "Ar Rastan"
        geonamesid: 172946
        latitude: 34.92653
        longitude: 36.73238
        name: "Ar Rastan"
        names_en: ~
        names_es: ~
        population: 53152
        timezone: Asia/Damascus
      - 
        alternate_names: 
          - "Al Qusayr"
          - "Al Quşayr"
          - Al'-Kusajra
          - Al-Kuseir
        ascii_name: "Al Qusayr"
        geonamesid: 173322
        latitude: 34.50914
        longitude: 36.57975
        name: "Al Quşayr"
        names_en: ~
        names_es: ~
        population: 41062
        timezone: Asia/Damascus
      - 
        alternate_names: 
          - "Al Qaryatayn"
          - "El Qaryatein"
          - Kariatein
          - Kariateine
        ascii_name: "Al Qaryatayn"
        geonamesid: 173361
        latitude: 34.23333
        longitude: 37.23333
        name: "Al Qaryatayn"
        names_en: ~
        names_es: ~
        population: 31748
        timezone: Asia/Damascus
    geonamesid: 169575
    name: Homs
    names_en: 
      - Homs
      - "Homs Governorate"
    names_es: ~
  - 
    ascii_name: Hama
    cities: 
      - 
        alternate_names: 
          - "Taibet el Imam"
          - "Taybat al Imam"
          - "Taybat al Imam `Ali"
          - "Tayyibat al Imam"
        ascii_name: "Tayyibat al Imam"
        geonamesid: 163270
        latitude: 35.26539
        longitude: 36.71148
        name: "Ţayyibat al Imām"
        names_en: ~
        names_es: ~
        population: 29259
        timezone: Asia/Damascus
      - 
        alternate_names: 
          - Soran
          - Souran
          - Sourane
          - Soûrâne
        ascii_name: Souran
        geonamesid: 163915
        latitude: 35.29138
        longitude: 36.74865
        name: Souran
        names_en: ~
        names_es: ~
        population: 30716
        timezone: Asia/Damascus
      - 
        alternate_names: 
          - Salamias
          - Salamiyah
          - Salamiyeh
          - Salamīyah
        ascii_name: Salamiyah
        geonamesid: 164947
        latitude: 35.01127
        longitude: 37.05324
        name: Salamīyah
        names_en: 
          - Salamiyah
        names_es: ~
        population: 94887
        timezone: Asia/Damascus
      - 
        alternate_names: 
          - Imranie
          - Massiaf
          - Massiyaf
          - Massiâf
        ascii_name: Masyaf
        geonamesid: 167046
        latitude: 35.05
        longitude: 36.35
        name: Maşyāf
        names_en: ~
        names_es: ~
        population: 32262
        timezone: Asia/Damascus
      - 
        alternate_names: 
          - "Kafer Zaita"
          - "Kafer Zaïta"
          - "Kafer Zita"
          - "Kafer ez Zaita"
        ascii_name: "Kafr Zayta"
        geonamesid: 168620
        latitude: 35.37382
        longitude: 36.60365
        name: "Kafr Zaytā"
        names_en: ~
        names_es: ~
        population: 21845
        timezone: Asia/Damascus
      - 
        alternate_names: 
          - Epiphaneia
          - Epiphania
          - Hama
          - Hamah
        ascii_name: Hamah
        geonamesid: 170017
        latitude: 35.13179
        longitude: 36.75783
        name: Ḩamāh
        names_en: 
          - Hama
        names_es: ~
        population: 460602
        timezone: Asia/Damascus
      - 
        alternate_names: 
          - Halfaya
          - Ḩalfāyā
        ascii_name: Halfaya
        geonamesid: 170044
        latitude: 35.25995
        longitude: 36.60572
        name: Ḩalfāyā
        names_en: ~
        names_es: ~
        population: 23403
        timezone: Asia/Damascus
    geonamesid: 170015
    name: Hama
    names_en: 
      - Hama
      - "Hama Governorate"
    names_es: ~
  - 
    ascii_name: Aleppo
    cities: 
      - 
        alternate_names: 
          - "Tall Rif`at"
          - "Tall Rif‘at"
          - "Tell Arfad"
          - "Tell Refaat"
        ascii_name: "Tall Rif`at"
        geonamesid: 163476
        latitude: 36.46667
        longitude: 37.1
        name: "Tall Rif‘at"
        names_en: ~
        names_es: ~
        population: 25658
        timezone: Asia/Damascus
      - 
        alternate_names: 
          - Tadef
          - Tader
          - Tadif
          - Teft
        ascii_name: Tadif
        geonamesid: 163811
        latitude: 36.33333
        longitude: 37.53333
        name: Tādif
        names_en: ~
        names_es: ~
        population: 34670
        timezone: Asia/Damascus
      - 
        alternate_names: 
          - Noubbel
          - Noubbol
          - Nubl
        ascii_name: Nubl
        geonamesid: 166331
        latitude: 36.3771
        longitude: 36.99238
        name: Nubl
        names_en: ~
        names_es: ~
        population: 25546
        timezone: Asia/Damascus
      - 
        alternate_names: 
          - Hierapolis
          - Manbej
          - Manbi
          - Manbij
        ascii_name: Manbij
        geonamesid: 167357
        latitude: 36.52667
        longitude: 37.95639
        name: Manbij
        names_en: ~
        names_es: ~
        population: 68888
        timezone: Asia/Damascus
      - 
        alternate_names: 
          - Carablus
          - Djarablous
          - Djerablous
          - Djérâbloûs
        ascii_name: Jarabulus
        geonamesid: 169179
        latitude: 36.8175
        longitude: 38.01111
        name: Jarābulus
        names_en: ~
        names_es: ~
        population: 24997
        timezone: Asia/Damascus
      - 
        alternate_names: 
          - Alep
          - Alepas
          - Alepo
          - "Alepo - hlb"
        ascii_name: Aleppo
        geonamesid: 170063
        latitude: 36.20278
        longitude: 37.15861
        name: Aleppo
        names_en: 
          - Aleppo
        names_es: 
          - Alepo
        population: 1602264
        timezone: Asia/Damascus
      - 
        alternate_names: 
          - "Dayr Hafir"
          - "Dayr Ḩāfir"
          - "Deir Hafer"
          - "Deir Hafero"
        ascii_name: "Dayr Hafir"
        geonamesid: 170785
        latitude: 36.15361
        longitude: 37.70667
        name: "Dayr Ḩāfir"
        names_en: ~
        names_es: ~
        population: 28905
        timezone: Asia/Damascus
      - 
        alternate_names: 
          - A`zaz
          - Aazaz
          - Aazâz
          - Azaz
        ascii_name: A`zaz
        geonamesid: 172082
        latitude: 36.58889
        longitude: 37.04417
        name: A‘zāz
        names_en: 
          - Azaz
        names_es: ~
        population: 66138
        timezone: Asia/Damascus
      - 
        alternate_names: 
          - Al-Safira
          - "As Safirah"
          - "As Safīrah"
          - Safir
        ascii_name: "As Safirah"
        geonamesid: 172503
        latitude: 36.07696
        longitude: 37.37251
        name: "As Safīrah"
        names_en: ~
        names_es: ~
        population: 95832
        timezone: Asia/Damascus
      - 
        alternate_names: 
          - "Al Bab"
          - "Al Balo"
          - "Al Bāb"
          - "Al Bālo"
        ascii_name: "Al Bab"
        geonamesid: 174018
        latitude: 36.3725
        longitude: 37.51778
        name: "Al Bāb"
        names_en: ~
        names_es: ~
        population: 130745
        timezone: Asia/Damascus
      - 
        alternate_names: 
          - Aafrine
          - Aafrîne
          - Afrin
          - Afrine
        ascii_name: "`Afrin"
        geonamesid: 174186
        latitude: 36.51598
        longitude: 36.86305
        name: ‘Afrīn
        names_en: 
          - Afrin
        names_es: ~
        population: 48693
        timezone: Asia/Damascus
    geonamesid: 170062
    name: Aleppo
    names_en: 
      - "Aleppo Governorate"
      - Aleppo
    names_es: ~
  - 
    ascii_name: Rif-dimashq
    cities: 
      - 
        alternate_names: 
          - Gebru
          - Jabrud
          - Jebru
          - Jebrud
        ascii_name: Yabrud
        geonamesid: 162627
        latitude: 33.96667
        longitude: 36.66667
        name: Yabrūd
        names_en: ~
        names_es: ~
        population: 40502
        timezone: Asia/Damascus
      - 
        alternate_names: 
          - Katana
          - Qatana
          - Qatanah
          - Qaţanah
        ascii_name: Qatana
        geonamesid: 165929
        latitude: 33.43544
        longitude: 36.08148
        name: Qaţanā
        names_en: ~
        names_es: ~
        population: 18511
        timezone: Asia/Damascus
      - 
        alternate_names: 
          - Kara
          - Karra
          - Qara
          - Qarah
        ascii_name: Qarah
        geonamesid: 166111
        latitude: 34.15
        longitude: 36.73333
        name: Qārah
        names_en: ~
        names_es: ~
        population: 20656
        timezone: Asia/Damascus
      - 
        alternate_names: 
          - Ma'alula
          - Ma`lula
          - Ma`lulah
          - Maaljulja
        ascii_name: Ma`lula
        geonamesid: 167375
        latitude: 33.8442
        longitude: 36.54689
        name: Ma‘lūlā
        names_en: ~
        names_es: ~
        population: 5000
        timezone: Asia/Damascus
      - 
        alternate_names: 
          - Djeroud
          - Djerud
          - Djéroud
          - Jairoud
        ascii_name: Jayrud
        geonamesid: 169113
        latitude: 33.81667
        longitude: 36.73333
        name: Jayrūd
        names_en: ~
        names_es: ~
        population: 32352
        timezone: Asia/Damascus
      - 
        alternate_names: 
          - "Arasta Bassal"
          - Harasta
          - "Harasta al Basal"
          - "Harasta el Bassal"
        ascii_name: Hirista
        geonamesid: 169897
        latitude: 33.55899
        longitude: 36.36432
        name: Ḩiristā
        names_en: ~
        names_es: ~
        population: 37348
        timezone: Asia/Damascus
      - 
        alternate_names: 
          - Douma
          - Duma
          - Dūmā
          - Дума
        ascii_name: Douma
        geonamesid: 170592
        latitude: 33.57175
        longitude: 36.4027
        name: Douma
        names_en: ~
        names_es: ~
        population: 111864
        timezone: Asia/Damascus
      - 
        alternate_names: 
          - "Az Zabadani"
          - "Az Zabadānī"
          - Zabadani
          - Zabdani
        ascii_name: "Az Zabadani"
        geonamesid: 172059
        latitude: 33.72565
        longitude: 36.09704
        name: "Az Zabadānī"
        names_en: ~
        names_es: ~
        population: 29549
        timezone: Asia/Damascus
      - 
        alternate_names: 
          - Al-Tal
          - "At Tall"
          - "Ett Tell"
          - Tal
        ascii_name: "At Tall"
        geonamesid: 172349
        latitude: 33.6099
        longitude: 36.30964
        name: "At Tall"
        names_en: ~
        names_es: ~
        population: 55561
        timezone: Asia/Damascus
      - 
        alternate_names: 
          - Al-Nabek
          - "An Nabk"
          - "En Nebk"
          - Kalamom
        ascii_name: "An Nabk"
        geonamesid: 173193
        latitude: 34.01667
        longitude: 36.73333
        name: "An Nabk"
        names_en: ~
        names_es: ~
        population: 49372
        timezone: Asia/Damascus
      - 
        alternate_names: 
          - "Al Qutayfah"
          - "Al Quţayfah"
          - Al-Kutaifeh
          - "El Qtaife"
        ascii_name: "Al Qutayfah"
        geonamesid: 173312
        latitude: 33.75
        longitude: 36.6
        name: "Al Quţayfah"
        names_en: ~
        names_es: ~
        population: 16118
        timezone: Asia/Damascus
      - 
        alternate_names: 
          - "Al Kiswah"
          - Kisoue
          - Kisoué
          - Kissoue
        ascii_name: "Al Kiswah"
        geonamesid: 173598
        latitude: 33.3572
        longitude: 36.24278
        name: "Al Kiswah"
        names_en: ~
        names_es: ~
        population: 23526
        timezone: Asia/Damascus
    geonamesid: 170652
    name: Rif-dimashq
    names_en: 
      - "Rif-dimashq Governorate"
      - Rif-dimashq
    names_es: ~
  - 
    ascii_name: "Deir ez-Zor"
    cities: 
      - 
        alternate_names: 
          - Sabikhan
          - Soubeikhane
          - Soubeïkhâne
          - Subaykhan
        ascii_name: Subaykhan
        geonamesid: 164025
        latitude: 34.85444
        longitude: 40.60833
        name: Subaykhān
        names_en: ~
        names_es: ~
        population: 25514
        timezone: Asia/Damascus
      - 
        alternate_names: 
          - Azaura
          - "Dayr al-Zor"
          - "Dayr az Zawr"
          - "Dayr az Zur"
        ascii_name: "Dayr az Zawr"
        geonamesid: 170794
        latitude: 35.33333
        longitude: 40.15
        name: "Dayr az Zawr"
        names_en: ~
        names_es: ~
        population: 242565
        timezone: Asia/Damascus
      - 
        alternate_names: 
          - "Al Mayadin"
          - "Al Mayādīn"
          - Al-Mayadeen
          - Audattha
        ascii_name: "Al Mayadin"
        geonamesid: 173480
        latitude: 35.01667
        longitude: 40.45
        name: "Al Mayādīn"
        names_en: ~
        names_es: ~
        population: 54534
        timezone: Asia/Damascus
      - 
        alternate_names: 
          - "Abou Kemal"
          - "Abu Kamal"
          - "Abu Kemal"
          - "Abu Kemāl"
        ascii_name: "Abu Kamal"
        geonamesid: 174448
        latitude: 34.45
        longitude: 40.91861
        name: "Abū Kamāl"
        names_en: ~
        names_es: ~
        population: 57572
        timezone: Asia/Damascus
      - 
        alternate_names: 
          - "Abou Hardane"
          - "Abou Hardâne"
          - "Abu Hardan"
          - "Abu Hardub"
        ascii_name: Hajin
        geonamesid: 174506
        latitude: 34.68972
        longitude: 40.83
        name: Hajīn
        names_en: ~
        names_es: ~
        population: 29237
        timezone: Asia/Damascus
    geonamesid: 170792
    name: "Deir ez-Zor"
    names_en: 
      - "Deir ez-Zor"
      - "Deir ez-Zor Governorate"
    names_es: ~
  - 
    ascii_name: Daraa
    cities: 
      - 
        alternate_names: 
          - Tafas
          - Tafass
          - Ţafas
        ascii_name: Tafas
        geonamesid: 163806
        latitude: 32.73564
        longitude: 36.06694
        name: Ţafas
        names_en: ~
        names_es: ~
        population: 31249
        timezone: Asia/Damascus
      - 
        alternate_names: 
          - "Ash Shaykh Maskin"
          - "Ash Shaykh Maskīn"
          - "Ash Shaykh Miskin"
          - "Ash Shaykh Miskīn"
        ascii_name: "Shaykh Miskin"
        geonamesid: 164328
        latitude: 32.82944
        longitude: 36.15933
        name: "Shaykh Miskīn"
        names_en: ~
        names_es: ~
        population: 25920
        timezone: Asia/Damascus
      - 
        alternate_names: 
          - Jacem
          - Jasem
          - Jasim
          - Jassem
        ascii_name: Qasim
        geonamesid: 165997
        latitude: 32.99233
        longitude: 36.06018
        name: Qāsim
        names_en: ~
        names_es: ~
        population: 30283
        timezone: Asia/Damascus
      - 
        alternate_names: 
          - Ezra
          - Ezraa
          - Ezrra
          - Izra`
        ascii_name: Izra`
        geonamesid: 169341
        latitude: 32.8706
        longitude: 36.25453
        name: Izra‘
        names_en: ~
        names_es: ~
        population: 13882
        timezone: Asia/Damascus
      - 
        alternate_names: 
          - "Enn Nakhl"
          - Ennkhel
          - Inkhel
          - Inkhil
        ascii_name: Inkhil
        geonamesid: 169375
        latitude: 33.0
        longitude: 36.11667
        name: Inkhil
        names_en: ~
        names_es: ~
        population: 29076
        timezone: Asia/Damascus
      - 
        alternate_names: 
          - Aere
          - Aeré
          - "As Sanamayn"
          - "Aş Şanamayn"
        ascii_name: "As Sanamayn"
        geonamesid: 172469
        latitude: 33.07312
        longitude: 36.18499
        name: "Aş Şanamayn"
        names_en: ~
        names_es: ~
        population: 25702
        timezone: Asia/Damascus
      - 
        alternate_names: 
          - "Al Harak"
          - "Al Ḩarāk"
          - "El Hrak"
          - "El Hrâk"
        ascii_name: "Al Harak"
        geonamesid: 173819
        latitude: 32.74932
        longitude: 36.30994
        name: "Al Ḩarāk"
        names_en: ~
        names_es: ~
        population: 23784
        timezone: Asia/Damascus
    geonamesid: 170903
    name: Daraa
    names_en: 
      - "Daraa Governorate"
      - Daraa
    names_es: ~
  - 
    ascii_name: As-Suwayda
    cities: 
      - 
        alternate_names: 
          - Chahba
          - Philippopolis
          - Phillipopolis
          - Philppopolis
        ascii_name: Shahba'
        geonamesid: 164626
        latitude: 32.85514
        longitude: 36.62896
        name: Shahbā’
        names_en: ~
        names_es: ~
        population: 14784
        timezone: Asia/Damascus
      - 
        alternate_names: 
          - Salakhed
          - Salakhid
          - Salâkhed
          - Şalākhid
        ascii_name: Salakhid
        geonamesid: 164952
        latitude: 32.87271
        longitude: 36.57271
        name: Şalākhid
        names_en: ~
        names_es: ~
        population: 12842
        timezone: Asia/Damascus
      - 
        alternate_names: 
          - Al-Sweida
          - "As Suwayda'"
          - "As Suwaydah"
          - "As Suwaydā’"
        ascii_name: "As Suwayda'"
        geonamesid: 172408
        latitude: 32.70896
        longitude: 36.56951
        name: "As Suwaydā’"
        names_en: ~
        names_es: ~
        population: 59052
        timezone: Asia/Damascus
    geonamesid: 172410
    name: As-Suwayda
    names_en: 
      - "As-Suwayda Governorate"
      - As-Suwayda
    names_es: ~
  - 
    ascii_name: Ar-Raqqah
    cities: 
      - 
        alternate_names: 
          - "Al Tabaqah"
          - Al-Tabbaqah
          - Al-Thawra
          - "At Tabqah"
        ascii_name: "Ath Thawrah"
        geonamesid: 172374
        latitude: 35.84688
        longitude: 38.54427
        name: "Ath Thawrah"
        names_en: ~
        names_es: ~
        population: 87880
        timezone: Asia/Damascus
      - 
        alternate_names: 
          - Al-Rakka
          - "Ar Raqqah"
          - Ar-Rakka
          - Ar-Raqqah
        ascii_name: "Ar Raqqah"
        geonamesid: 172955
        latitude: 35.95
        longitude: 39.01667
        name: "Ar Raqqah"
        names_en: 
          - "Ar Raqqah"
        names_es: 
          - Raqqa
        population: 177636
        timezone: Asia/Damascus
    geonamesid: 172957
    name: Ar-Raqqah
    names_en: 
      - "Ar-Raqqah Governorate"
      - Ar-Raqqah
    names_es: ~
  - 
    ascii_name: Quneitra
    cities: 
      - 
        alternate_names: 
          - "Al Qunaytirah"
          - "Al Qunayţirah"
          - "El Kuneitra"
          - "El Qnaitra"
        ascii_name: "Al Qunaytirah"
        geonamesid: 173334
        latitude: 33.12594
        longitude: 35.82461
        name: "Al Qunayţirah"
        names_en: ~
        names_es: ~
        population: 36143
        timezone: Asia/Damascus
    geonamesid: 173336
    name: Quneitra
    names_en: 
      - Quneitra
      - "Quneitra Governorate"
    names_es: ~
  - 
    ascii_name: Latakia
    cities: 
      - 
        alternate_names: 
          - Djeble
          - Djéblé
          - Jablah
          - Jableh
        ascii_name: Jablah
        geonamesid: 169304
        latitude: 35.35
        longitude: 35.91667
        name: Jablah
        names_en: ~
        names_es: ~
        population: 65915
        timezone: Asia/Damascus
      - 
        alternate_names: 
          - "Al Ladhiqiyah"
          - "Al Lādhiqīyah"
          - Al-Laziqiyah
          - "El Ladhaqiye"
        ascii_name: Latakia
        geonamesid: 173576
        latitude: 35.51667
        longitude: 35.78333
        name: Latakia
        names_en: 
          - Latakia
        names_es: 
          - Latakia
        population: 340181
        timezone: Asia/Damascus
    geonamesid: 173578
    name: Latakia
    names_en: 
      - "Latakia Governorate"
      - Latakia
    names_es: ~
  - 
    ascii_name: Al-Hasakah
    cities: 
      - 
        alternate_names: 
          - Darbasiyah
          - Darbāsīyah
          - Derbassiye
          - Derbisiye
        ascii_name: Darbasiyah
        geonamesid: 170887
        latitude: 37.07279
        longitude: 40.65199
        name: Darbāsīyah
        names_en: ~
        names_es: ~
        population: 21481
        timezone: Asia/Damascus
      - 
        alternate_names: 
          - "Al Hasakah"
          - "Al Ḩasakah"
          - Al-Hasakeh
          - "El Haseke"
        ascii_name: "Al Hasakah"
        geonamesid: 173811
        latitude: 36.50237
        longitude: 40.74772
        name: "Al Ḩasakah"
        names_en: ~
        names_es: ~
        population: 81539
        timezone: Asia/Damascus
    geonamesid: 173813
    name: Al-Hasakah
    names_en: 
      - Al-Hasakah
      - "Al-Hasakah Governorate"
    names_es: ~
