--- 
geonamesid: 1605651
iso: TH
name: Thailand
names_en: 
  - Thailand
  - "Kingdom of Thailand"
names_es: 
  - Tailandia
  - Siam
regions: 
  - 
    ascii_name: "Changwat Uthai Thani"
    cities: 
      - 
        alternate_names: 
          - "Amphoe Thap Than"
          - "Amphu Tap Tan"
          - "Ban Thap Than"
          - Dhapdhan
        ascii_name: "Thap Than"
        geonamesid: 1150210
        latitude: 15.46063
        longitude: 99.89166
        name: "Thap Than"
        names_en: ~
        names_es: ~
        population: 16615
        timezone: Asia/Bangkok
      - 
        alternate_names: 
          - "Amphoe Sawang Arom"
          - "Ban Noen Kao"
          - "King Amphoe Sawang Arom"
          - "Sawang Aram"
        ascii_name: "Sawang Arom"
        geonamesid: 1150683
        latitude: 15.58394
        longitude: 99.86089
        name: "Sawang Arom"
        names_en: ~
        names_es: ~
        population: 0
        timezone: Asia/Bangkok
      - 
        alternate_names: 
          - "Amphoe Nong Kha Yang"
          - "Ban Naung Ka Yang"
          - "Ban Nong Kha Yang"
          - "Bān Naung Ka Yāng"
        ascii_name: "Nong Khayang"
        geonamesid: 1151710
        latitude: 15.364
        longitude: 99.92939
        name: "Nong Khayang"
        names_en: ~
        names_es: ~
        population: 0
        timezone: Asia/Bangkok
      - 
        alternate_names: 
          - "Amphoe Nong Chang"
          - "Ban Naung Chang"
          - "Ban Nong Chang"
          - "Ban Uthai Kao"
        ascii_name: "Nong Chang"
        geonamesid: 1151730
        latitude: 15.39147
        longitude: 99.84147
        name: "Nong Chang"
        names_en: ~
        names_es: ~
        population: 0
        timezone: Asia/Bangkok
      - 
        alternate_names: 
          - "Lan Sak"
          - ลานสัก
        ascii_name: "Lan Sak"
        geonamesid: 1152421
        latitude: 15.45289
        longitude: 99.57606
        name: "Lan Sak"
        names_en: ~
        names_es: ~
        population: 0
        timezone: Asia/Bangkok
      - 
        alternate_names: 
          - "Amphoe Huai Khot"
          - "Huai Khot"
          - "King Amphoe Huai Khot"
          - ห้วยคต
        ascii_name: "Huai Khot"
        geonamesid: 1153263
        latitude: 15.29094
        longitude: 99.61661
        name: "Huai Khot"
        names_en: ~
        names_es: ~
        population: 0
        timezone: Asia/Bangkok
      - 
        alternate_names: 
          - "Amphoe Ban Rai"
          - "Amphoe Khok Khwai"
          - "Ban Rai"
          - บ้านไร่
        ascii_name: "Ban Rai"
        geonamesid: 1155064
        latitude: 15.08417
        longitude: 99.52108
        name: "Ban Rai"
        names_en: ~
        names_es: ~
        population: 0
        timezone: Asia/Bangkok
      - 
        alternate_names: 
          - "Amphoe Nam Sum"
          - "Ban Nam Sum"
          - "Changwat Muang Uthai Thani"
          - "Changwat Uthai Thani"
        ascii_name: "Uthai Thani"
        geonamesid: 1605221
        latitude: 15.37939
        longitude: 100.0245
        name: "Uthai Thani"
        names_en: 
          - "Uthai Thani"
        names_es: ~
        population: 22219
        timezone: Asia/Bangkok
      - 
        alternate_names: 
          - "Huai Khot"
          - ห้วยคต
        ascii_name: "Huai Khot"
        geonamesid: 7510892
        latitude: 15.29094
        longitude: 99.61661
        name: "Huai Khot"
        names_en: ~
        names_es: ~
        population: 0
        timezone: Asia/Bangkok
      - 
        alternate_names: 
          - "Lan Sak"
          - ลานสัก
        ascii_name: "Lan Sak"
        geonamesid: 7510893
        latitude: 15.45289
        longitude: 99.57606
        name: "Lan Sak"
        names_en: ~
        names_es: ~
        population: 0
        timezone: Asia/Bangkok
    geonamesid: 1149965
    name: "Uthai Thani"
    names_en: ~
    names_es: ~
  - 
    ascii_name: "Changwat Trang"
    cities: 
      - 
        alternate_names: 
          - "Amphoe Yan Ta Khao"
          - "King Amphoe Yan Ta Khao"
          - "Yan Ta Khao"
          - ย่านตาขาว
        ascii_name: "Yan Ta Khao"
        geonamesid: 1149757
        latitude: 7.38622
        longitude: 99.66692
        name: "Yan Ta Khao"
        names_en: ~
        names_es: ~
        population: 0
        timezone: Asia/Bangkok
      - 
        alternate_names: 
          - "Amphoe Wang Wiset"
          - "King Amphoe Wang Wiset"
          - "Wang Wiset"
          - วังวิเศษ
        ascii_name: "Wang Wiset"
        geonamesid: 1149903
        latitude: 7.73631
        longitude: 99.3987
        name: "Wang Wiset"
        names_en: ~
        names_es: ~
        population: 0
        timezone: Asia/Bangkok
      - 
        alternate_names: 
          - "Amphoe Muang Trang"
          - "Changwat Trang"
          - Trang
          - Транг
        ascii_name: Trang
        geonamesid: 1150007
        latitude: 7.55633
        longitude: 99.61141
        name: Trang
        names_en: 
          - Trang
        names_es: ~
        population: 66713
        timezone: Asia/Bangkok
      - 
        alternate_names: 
          - "Amphoe Sikao"
          - "Ban Sikao"
          - "Ban Siko"
          - Sikao
        ascii_name: Sikao
        geonamesid: 1150651
        latitude: 7.57158
        longitude: 99.34494
        name: Sikao
        names_en: ~
        names_es: ~
        population: 0
        timezone: Asia/Bangkok
      - 
        alternate_names: 
          - "Amphoe Palian"
          - "Amphoe Yong Sata"
          - "Ban Tha Kham"
          - Palian
        ascii_name: Palian
        geonamesid: 1151557
        latitude: 7.17228
        longitude: 99.68633
        name: Palian
        names_en: ~
        names_es: ~
        population: 0
        timezone: Asia/Bangkok
      - 
        alternate_names: 
          - "Amphoe Kantang"
          - "Ban Gantang"
          - "Ban Kantang"
          - Gantam
        ascii_name: Kantang
        geonamesid: 1153072
        latitude: 7.40542
        longitude: 99.51561
        name: Kantang
        names_en: ~
        names_es: ~
        population: 14156
        timezone: Asia/Bangkok
      - 
        alternate_names: 
          - "Amphoe Huai Yot"
          - "Amphoe Khao Khao"
          - "Amphoe Khau Khaw"
          - "Ban Kao Kau"
        ascii_name: "Huai Yot"
        geonamesid: 1153241
        latitude: 7.78933
        longitude: 99.63478
        name: "Huai Yot"
        names_en: ~
        names_es: ~
        population: 16586
        timezone: Asia/Bangkok
      - 
        alternate_names: 
          - Ratsada
          - รัษฎา
        ascii_name: Ratsada
        geonamesid: 7510884
        latitude: 7.97467
        longitude: 99.63353
        name: Ratsada
        names_en: ~
        names_es: ~
        population: 0
        timezone: Asia/Bangkok
      - 
        alternate_names: 
          - "Wang Wiset"
          - วังวิเศษ
        ascii_name: "Wang Wiset"
        geonamesid: 7511022
        latitude: 7.73631
        longitude: 99.3987
        name: "Wang Wiset"
        names_en: ~
        names_es: ~
        population: 0
        timezone: Asia/Bangkok
      - 
        alternate_names: 
          - "Amphoe Hat Samran"
          - "Hat Samran"
          - "King Amphoe Hat Samran"
          - หาดสำราญ
        ascii_name: "Hat Samran"
        geonamesid: 7603495
        latitude: 7.24034
        longitude: 99.57621
        name: "Hat Samran"
        names_en: ~
        names_es: ~
        population: 0
        timezone: Asia/Bangkok
    geonamesid: 1150006
    name: Trang
    names_en: ~
    names_es: ~
  - 
    ascii_name: "Changwat Tak"
    cities: 
      - 
        alternate_names: 
          - "Amphoe Mae Klong"
          - "Amphoe Umphang"
          - "King Amphoe Umphang"
          - "King Um Phang"
        ascii_name: Umphang
        geonamesid: 1149975
        latitude: 16.01622
        longitude: 98.8627
        name: Umphang
        names_en: ~
        names_es: ~
        population: 0
        timezone: Asia/Bangkok
      - 
        alternate_names: 
          - "Amphoe Tha Song Yang"
          - "Ban Mae Tan"
          - "King Amphoe Tha Song Yang"
          - "Mae Tan"
        ascii_name: "Tha Song Yang"
        geonamesid: 1150196
        latitude: 17.22708
        longitude: 98.22572
        name: "Tha Song Yang"
        names_en: ~
        names_es: ~
        population: 0
        timezone: Asia/Bangkok
      - 
        alternate_names: 
          - "Amphoe Mueang Tak"
          - Baheng
          - "Ban Rahaeng"
          - "Ban Raheang"
        ascii_name: Tak
        geonamesid: 1150490
        latitude: 16.86968
        longitude: 99.12898
        name: Tak
        names_en: ~
        names_es: ~
        population: 24149
        timezone: Asia/Bangkok
      - 
        alternate_names: 
          - "Amphoe Sam Ngao"
          - "Sam Ngao"
          - สามเงา
        ascii_name: "Sam Ngao"
        geonamesid: 1150786
        latitude: 17.24331
        longitude: 99.02256
        name: "Sam Ngao"
        names_en: ~
        names_es: ~
        population: 0
        timezone: Asia/Bangkok
      - 
        alternate_names: 
          - "Amphoe Ban Mae Sot"
          - "Amphoe Mae Saut"
          - "Amphoe Mae Sot"
          - "Amphoe Mesoht"
        ascii_name: "Mae Sot"
        geonamesid: 1152188
        latitude: 16.71667
        longitude: 98.56667
        name: "Mae Sot"
        names_en: ~
        names_es: ~
        population: 44563
        timezone: Asia/Bangkok
      - 
        alternate_names: 
          - "Amphoe Mae Ramat"
          - "Ban Mae Ramat"
          - "King Amphoe Mae Ramat"
          - "Mae Ramat"
        ascii_name: "Mae Ramat"
        geonamesid: 1152202
        latitude: 16.98403
        longitude: 98.51665
        name: "Mae Ramat"
        names_en: ~
        names_es: ~
        population: 17316
        timezone: Asia/Bangkok
      - 
        alternate_names: 
          - "Amphoe Wang Chao"
          - "Ban Wang Chao (4)"
          - Gosamphi
          - "King Amphoe Wang Chao"
        ascii_name: "Wang Chao"
        geonamesid: 1154094
        latitude: 16.6744
        longitude: 99.26903
        name: "Wang Chao"
        names_en: ~
        names_es: ~
        population: 0
        timezone: Asia/Bangkok
      - 
        alternate_names: 
          - "Amphoe Ban Tak"
          - "Ban Tak"
          - Tak
          - บ้านตาก
        ascii_name: "Ban Tak"
        geonamesid: 1154677
        latitude: 17.04325
        longitude: 99.08128
        name: "Ban Tak"
        names_en: ~
        names_es: ~
        population: 18384
        timezone: Asia/Bangkok
    geonamesid: 1150489
    name: Tak
    names_en: ~
    names_es: ~
  - 
    ascii_name: "Changwat Surat Thani"
    cities: 
      - 
        alternate_names: 
          - "Amphoe Don Sak"
          - "Don Sak"
          - "King Amphoe Don Sak"
          - ดอนสัก
        ascii_name: "Don Sak"
        geonamesid: 1116760
        latitude: 9.31676
        longitude: 99.69184
        name: "Don Sak"
        names_en: ~
        names_es: ~
        population: 12422
        timezone: Asia/Bangkok
      - 
        alternate_names: 
          - "Amphoe Khlong Tan"
          - "Amphoe Wiang Sa"
          - "King Amphoe Wiang Sa"
          - "Mueang Wiang Sa"
        ascii_name: "Wiang Sa"
        geonamesid: 1149878
        latitude: 8.63585
        longitude: 99.3666
        name: "Wiang Sa"
        names_en: ~
        names_es: ~
        population: 11933
        timezone: Asia/Bangkok
      - 
        alternate_names: 
          - "Amphoe King Tha Chang"
          - "Amphoe Tha Chang"
          - "Ban Tan Chang"
          - "Ban Tha Chang"
        ascii_name: "Tha Chang"
        geonamesid: 1150338
        latitude: 9.26418
        longitude: 99.19218
        name: "Tha Chang"
        names_en: ~
        names_es: ~
        population: 0
        timezone: Asia/Bangkok
      - 
        alternate_names: 
          - "Amphoe Tha Chana"
          - "Ban Tha Chana"
          - "King Amphoe Prasong"
          - "King Amphoe Tha Chana"
        ascii_name: "Tha Chana"
        geonamesid: 1150340
        latitude: 9.57203
        longitude: 99.16586
        name: "Tha Chana"
        names_en: ~
        names_es: ~
        population: 0
        timezone: Asia/Bangkok
      - 
        alternate_names: 
          - "Amphoe Ban Don"
          - "Amphoe Muang Surat Thani"
          - "Ban Dohn"
          - "Ban Don"
        ascii_name: "Surat Thani"
        geonamesid: 1150515
        latitude: 9.14011
        longitude: 99.33311
        name: "Surat Thani"
        names_en: 
          - "Surat Thani"
        names_es: ~
        population: 127201
        timezone: Asia/Bangkok
      - 
        alternate_names: 
          - "Amphoe Phunphin"
          - "Amphoe Tha Kham"
          - "Ban Phumphin"
          - "Ban Phun Phin"
        ascii_name: Phunphin
        geonamesid: 1151211
        latitude: 9.11072
        longitude: 99.23208
        name: Phunphin
        names_en: ~
        names_es: ~
        population: 25810
        timezone: Asia/Bangkok
      - 
        alternate_names: 
          - "Amphoe Phra Saeng"
          - "Ban Yan Din Daeng"
          - "King Amphoe Phrasaeng"
          - "Phra Saeng"
        ascii_name: Phrasaeng
        geonamesid: 1151296
        latitude: 8.56781
        longitude: 99.24756
        name: Phrasaeng
        names_en: ~
        names_es: ~
        population: 0
        timezone: Asia/Bangkok
      - 
        alternate_names: 
          - "Amphoe Khlong Cha Un"
          - "Amphoe Phak Phanom"
          - "Amphoe Phanom"
          - "Ban Phanom"
        ascii_name: Phanom
        geonamesid: 1151449
        latitude: 8.85475
        longitude: 98.81267
        name: Phanom
        names_en: ~
        names_es: ~
        population: 0
        timezone: Asia/Bangkok
      - 
        alternate_names: 
          - "Amphoe Dha Khanohn"
          - "Amphoe Khiri Rat Nikhom"
          - "Amphoe Tha Khanon"
          - "Ban Tha Khanon"
        ascii_name: "Khiri Rat Nikhom"
        geonamesid: 1152873
        latitude: 9.0302
        longitude: 98.95286
        name: "Khiri Rat Nikhom"
        names_en: ~
        names_es: ~
        population: 0
        timezone: Asia/Bangkok
      - 
        alternate_names: 
          - "Amphoe Khian Sa"
          - "Ban Khian Sa"
          - "Khian Sa"
          - "King Amphoe Khian Sa"
        ascii_name: "Khian Sa"
        geonamesid: 1152899
        latitude: 8.84295
        longitude: 99.19856
        name: "Khian Sa"
        names_en: ~
        names_es: ~
        population: 0
        timezone: Asia/Bangkok
      - 
        alternate_names: 
          - "Amphoe Kanchanadit"
          - "Ban Kanchanadit"
          - "Ban Kradae"
          - "Ban Kradek"
        ascii_name: Kanchanadit
        geonamesid: 1153079
        latitude: 9.16611
        longitude: 99.47014
        name: Kanchanadit
        names_en: ~
        names_es: ~
        population: 0
        timezone: Asia/Bangkok
      - 
        alternate_names: 
          - "Amphoe Chaiya"
          - "Amphoe Moeang Jaiya"
          - "Ban Bhum Rieng"
          - "Ban Phummariang"
        ascii_name: Chaiya
        geonamesid: 1153783
        latitude: 9.38624
        longitude: 99.19861
        name: Chaiya
        names_en: ~
        names_es: ~
        population: 12223
        timezone: Asia/Bangkok
      - 
        alternate_names: 
          - "Amphoe Chai Buri"
          - "Chai Buri"
          - "King Amphoe Chai Buri"
          - ชัยบุรี
        ascii_name: "Chai Buri"
        geonamesid: 1153788
        latitude: 8.46222
        longitude: 99.07631
        name: "Chai Buri"
        names_en: ~
        names_es: ~
        population: 0
        timezone: Asia/Bangkok
      - 
        alternate_names: 
          - "Amphoe Ko Samui"
          - "Amphoe Koh Sa-mui"
          - "Amphoe Koksamui"
          - "Ban Na Dhaun"
        ascii_name: "Ko Samui"
        geonamesid: 1154689
        latitude: 9.53567
        longitude: 99.93567
        name: "Ko Samui"
        names_en: ~
        names_es: ~
        population: 0
        timezone: Asia/Bangkok
      - 
        alternate_names: 
          - "Amphoe Ban Na"
          - "Ban Na San"
          - "Na Sau"
          - Nasan
        ascii_name: "Ban Na San"
        geonamesid: 1156046
        latitude: 8.80036
        longitude: 99.36372
        name: "Ban Na San"
        names_en: ~
        names_es: ~
        population: 21900
        timezone: Asia/Bangkok
      - 
        alternate_names: 
          - "Amphoe Ban Na Doem"
          - "Ban Na Doem"
          - "King Amphoe Ban Na Doem"
          - บ้านนาเดิม
        ascii_name: "Ban Na Doem"
        geonamesid: 1156244
        latitude: 8.88361
        longitude: 99.31014
        name: "Ban Na Doem"
        names_en: ~
        names_es: ~
        population: 0
        timezone: Asia/Bangkok
      - 
        alternate_names: 
          - "Amphoe Ko Pha Ngan"
          - "Amphoe Ko Pha-ngan"
          - "Ko Pha-Ngan"
          - "Ko Phangan"
        ascii_name: "Ko Pha-Ngan"
        geonamesid: 1596216
        latitude: 9.71945
        longitude: 99.99511
        name: "Ko Pha-Ngan"
        names_en: ~
        names_es: ~
        population: 0
        timezone: Asia/Bangkok
      - 
        alternate_names: 
          - "Ban Takhun"
          - บ้านตาขุน
        ascii_name: "Ban Takhun"
        geonamesid: 7510870
        latitude: 8.90364
        longitude: 98.8845
        name: "Ban Takhun"
        names_en: ~
        names_es: ~
        population: 0
        timezone: Asia/Bangkok
      - 
        alternate_names: 
          - "King Amphoe Vibhavadi"
          - Vibhavadi
          - Wiphawadi
          - กิ่งวิภาวดี
        ascii_name: Wiphawadi
        geonamesid: 7510871
        latitude: 9.23894
        longitude: 98.97861
        name: Wiphawadi
        names_en: ~
        names_es: ~
        population: 0
        timezone: Asia/Bangkok
      - 
        alternate_names: 
          - "Chai Buri"
          - ชัยบุรี
        ascii_name: "Chai Buri"
        geonamesid: 7510874
        latitude: 8.46222
        longitude: 99.07631
        name: "Chai Buri"
        names_en: ~
        names_es: ~
        population: 0
        timezone: Asia/Bangkok
      - 
        alternate_names: 
          - Phrasaeng
          - พระแสง
        ascii_name: Phrasaeng
        geonamesid: 7510875
        latitude: 8.56781
        longitude: 99.24756
        name: Phrasaeng
        names_en: ~
        names_es: ~
        population: 0
        timezone: Asia/Bangkok
      - 
        alternate_names: 
          - "Wiang Sa"
          - เวียงสระ
        ascii_name: "Wiang Sa"
        geonamesid: 7511020
        latitude: 8.57565
        longitude: 99.38156
        name: "Wiang Sa"
        names_en: ~
        names_es: ~
        population: 0
        timezone: Asia/Bangkok
    geonamesid: 1150514
    name: "Surat Thani"
    names_en: ~
    names_es: ~
  - 
    ascii_name: "Changwat Sukhothai"
    cities: 
      - 
        alternate_names: 
          - "Amphoe Thung Saliam"
          - "Ban Thung Saliam"
          - "Ban Thung Salian"
          - "Ban Thung Saliyan"
        ascii_name: "Thung Saliam"
        geonamesid: 1150089
        latitude: 17.32106
        longitude: 99.56092
        name: "Thung Saliam"
        names_en: ~
        names_es: ~
        population: 0
        timezone: Asia/Bangkok
      - 
        alternate_names: 
          - "Amphoe Muang Sukhothai"
          - "Amphoe Mueang Sukhothai"
          - "Amphoe Sukhodhai"
          - "Amphoe Sukhothai"
        ascii_name: Sukhothai
        geonamesid: 1150533
        latitude: 17.00778
        longitude: 99.823
        name: Sukhothai
        names_en: 
          - "New Sukhothai"
        names_es: ~
        population: 37000
        timezone: Asia/Bangkok
      - 
        alternate_names: 
          - "Amphoe Si Satchanalai"
          - "Hat Siao"
          - "Si Satchanalai"
          - ศรีสัชนาลัย
        ascii_name: "Si Satchanalai"
        geonamesid: 1150624
        latitude: 17.51692
        longitude: 99.75978
        name: "Si Satchanalai"
        names_en: ~
        names_es: ~
        population: 25942
        timezone: Asia/Bangkok
      - 
        alternate_names: 
          - "Amphoe Khlong Tan"
          - "Amphoe Si Samrong"
          - "Ban Khlong Tan"
          - "Ban Khlong Trang"
        ascii_name: "Si Samrong"
        geonamesid: 1150626
        latitude: 17.164
        longitude: 99.86222
        name: "Si Samrong"
        names_en: ~
        names_es: ~
        population: 0
        timezone: Asia/Bangkok
      - 
        alternate_names: 
          - "Amphoe Si Nakhon"
          - "King Amphoe Si Nakhon"
          - "Si Nakhon"
          - ศรีนคร
        ascii_name: "Si Nakhon"
        geonamesid: 1150643
        latitude: 17.34778
        longitude: 99.99106
        name: "Si Nakhon"
        names_en: ~
        names_es: ~
        population: 0
        timezone: Asia/Bangkok
      - 
        alternate_names: 
          - "Amphoe Sawankhalok"
          - "Ban Wang Mai Kaun"
          - "Ban Wang Mai Khon"
          - "Changwat Muang Sawarngalok"
        ascii_name: Sawankhalok
        geonamesid: 1150681
        latitude: 17.31597
        longitude: 99.83186
        name: Sawankhalok
        names_en: ~
        names_es: ~
        population: 19805
        timezone: Asia/Bangkok
      - 
        alternate_names: 
          - "Amphoe Ban Krai"
          - "Amphoe Kong Krai Lat"
          - "Ban Gong"
          - "Ban Kong"
        ascii_name: "Kong Krailat"
        geonamesid: 1152657
        latitude: 16.95197
        longitude: 99.9777
        name: "Kong Krailat"
        names_en: ~
        names_es: ~
        population: 0
        timezone: Asia/Bangkok
      - 
        alternate_names: 
          - "Amphoe Khiri Mat"
          - "Khiri Mat"
          - คีรีมาศ
        ascii_name: "Khiri Mat"
        geonamesid: 1152876
        latitude: 16.83333
        longitude: 99.8
        name: "Khiri Mat"
        names_en: ~
        names_es: ~
        population: 11272
        timezone: Asia/Bangkok
      - 
        alternate_names: ~
        ascii_name: "Ban Na"
        geonamesid: 1156257
        latitude: 17.03056
        longitude: 99.7525
        name: "Ban Na"
        names_en: ~
        names_es: ~
        population: 40174
        timezone: Asia/Bangkok
      - 
        alternate_names: 
          - "Ban Dan"
          - "Ban Dan Lan Hoi"
          - "Lan Hoi"
          - บ้านด่านลานหอย
        ascii_name: "Ban Dan Lan Hoi"
        geonamesid: 1157971
        latitude: 17.00683
        longitude: 99.57497
        name: "Ban Dan Lan Hoi"
        names_en: ~
        names_es: ~
        population: 0
        timezone: Asia/Bangkok
      - 
        alternate_names: 
          - "Ban Dan Lan Hoi"
          - บ้านด่านลานหอย
        ascii_name: "Ban Dan Lan Hoi"
        geonamesid: 7510898
        latitude: 17.00683
        longitude: 99.57497
        name: "Ban Dan Lan Hoi"
        names_en: ~
        names_es: ~
        population: 0
        timezone: Asia/Bangkok
    geonamesid: 1150532
    name: Sukhothai
    names_en: ~
    names_es: ~
  - 
    ascii_name: "Changwat Ratchaburi"
    cities: 
      - 
        alternate_names: 
          - "Amphoe Wat Phleng"
          - "Amphoe Wat Pradu"
          - "Ban Rong Wi"
          - "King Amphoe Wat Phleng"
        ascii_name: "Wat Phleng"
        geonamesid: 1149892
        latitude: 13.45407
        longitude: 99.88637
        name: "Wat Phleng"
        names_en: ~
        names_es: ~
        population: 0
        timezone: Asia/Bangkok
      - 
        alternate_names: 
          - "Amphoe Muang Rat Buri"
          - "Changwat Rat Buri"
          - "Mondhol Rajburi"
          - "Muang Rajburi"
        ascii_name: Ratchaburi
        geonamesid: 1150954
        latitude: 13.53671
        longitude: 99.81712
        name: Ratchaburi
        names_en: 
          - Ratchaburi
        names_es: ~
        population: 92448
        timezone: Asia/Bangkok
      - 
        alternate_names: 
          - "Amphoe Photharam"
          - "Amphu Po Ta-ram"
          - "Ban Photharam"
          - Bhodharam
        ascii_name: Photharam
        geonamesid: 1151340
        latitude: 13.69234
        longitude: 99.84969
        name: Photharam
        names_en: ~
        names_es: ~
        population: 36248
        timezone: Asia/Bangkok
      - 
        alternate_names: 
          - "Amphoe Mae Nam Om"
          - "Amphoe Pak Tho"
          - "Amphoe Tha Nat Wat Pradu"
          - "Ban Pak Tho"
        ascii_name: "Pak Tho"
        geonamesid: 1151567
        latitude: 13.37263
        longitude: 99.83938
        name: "Pak Tho"
        names_en: ~
        names_es: ~
        population: 0
        timezone: Asia/Bangkok
      - 
        alternate_names: 
          - "Amphoe Damnoen Saduak"
          - "Ban Damnoen Saduak"
          - "Ban Khlong Damnoen Saduak"
          - "Damnoen Saduak"
        ascii_name: "Damnoen Saduak"
        geonamesid: 1153513
        latitude: 13.51824
        longitude: 99.95469
        name: "Damnoen Saduak"
        names_en: ~
        names_es: ~
        population: 23296
        timezone: Asia/Bangkok
      - 
        alternate_names: 
          - "Amphoe Chom Bueng"
          - "Amphoe Chom Bung"
          - "Ban Chom Bung"
          - "Chaum Boeng"
        ascii_name: "Chom Bueng"
        geonamesid: 1153646
        latitude: 13.62
        longitude: 99.59169
        name: "Chom Bueng"
        names_en: ~
        names_es: ~
        population: 15143
        timezone: Asia/Bangkok
      - 
        alternate_names: 
          - "Amphoe Ban Pong"
          - "Amphu Ban Pong"
          - "Ban Pong"
          - Pan-pong
        ascii_name: "Ban Pong"
        geonamesid: 1155139
        latitude: 13.81629
        longitude: 99.87739
        name: "Ban Pong"
        names_en: ~
        names_es: ~
        population: 57559
        timezone: Asia/Bangkok
      - 
        alternate_names: 
          - "Amphoe Ban Kha"
          - "Ban Kha"
          - "Ban Pong Ho"
          - "Ban Ponghoh"
        ascii_name: "Ban Kha"
        geonamesid: 1157232
        latitude: 13.43047
        longitude: 99.40967
        name: "Ban Kha"
        names_en: ~
        names_es: ~
        population: 0
        timezone: Asia/Bangkok
      - 
        alternate_names: 
          - "Amphoe Bang Phae"
          - "Amphoe Hua Pho"
          - "Amphoe Lam Phraya"
          - "Ban Bang Phae"
        ascii_name: "Bang Phae"
        geonamesid: 1157683
        latitude: 13.69157
        longitude: 99.92982
        name: "Bang Phae"
        names_en: ~
        names_es: ~
        population: 29548
        timezone: Asia/Bangkok
      - 
        alternate_names: 
          - "Suan Phueng"
          - สวนผึ้ง
        ascii_name: "Suan Phueng"
        geonamesid: 7510877
        latitude: 13.54472
        longitude: 99.34011
        name: "Suan Phueng"
        names_en: ~
        names_es: ~
        population: 0
        timezone: Asia/Bangkok
      - 
        alternate_names: 
          - "Chom Bueng"
          - จอมบึง
        ascii_name: "Chom Bueng"
        geonamesid: 7510890
        latitude: 13.61964
        longitude: 99.59186
        name: "Chom Bueng"
        names_en: ~
        names_es: ~
        population: 0
        timezone: Asia/Bangkok
    geonamesid: 1150953
    name: Ratchaburi
    names_en: ~
    names_es: ~
  - 
    ascii_name: "Changwat Ranong"
    cities: 
      - 
        alternate_names: 
          - "Amphoe Muang Ranong"
          - "Changwat Ranong"
          - "Muang Ra Nohng"
          - "Muang Ranawng"
        ascii_name: Ranong
        geonamesid: 1150965
        latitude: 9.96583
        longitude: 98.63476
        name: Ranong
        names_en: 
          - Ranong
        names_es: ~
        population: 24561
        timezone: Asia/Bangkok
      - 
        alternate_names: 
          - "Amphoe La-un"
          - "Ban Laun"
          - "Khao Fachi"
          - "King Amphoe La-Un"
        ascii_name: La-Un
        geonamesid: 1152375
        latitude: 10.11556
        longitude: 98.74992
        name: La-Un
        names_en: ~
        names_es: ~
        population: 0
        timezone: Asia/Bangkok
      - 
        alternate_names: 
          - "Amphoe Kra Buri"
          - "Ban Nam Choed Yai"
          - "Ban Nam Choet Yai"
          - "Ban Nam Chut Yai"
        ascii_name: "Kra Buri"
        geonamesid: 1152625
        latitude: 10.40429
        longitude: 98.77266
        name: "Kra Buri"
        names_en: ~
        names_es: ~
        population: 0
        timezone: Asia/Bangkok
      - 
        alternate_names: 
          - "Amphoe Kapoe"
          - Kapoe
          - "King Amphoe Kapoe"
          - กะเปอร์
        ascii_name: Kapoe
        geonamesid: 1153062
        latitude: 9.58522
        longitude: 98.59611
        name: Kapoe
        names_en: ~
        names_es: ~
        population: 0
        timezone: Asia/Bangkok
      - 
        alternate_names: 
          - "Suk Samran"
          - กิ่งสุขสำราญ
        ascii_name: "Suk Samran"
        geonamesid: 7510867
        latitude: 9.34458
        longitude: 98.42903
        name: "Suk Samran"
        names_en: ~
        names_es: ~
        population: 0
        timezone: Asia/Bangkok
    geonamesid: 1150964
    name: Ranong
    names_en: ~
    names_es: ~
  - 
    ascii_name: "Changwat Prachuap Khiri Khan"
    cities: 
      - 
        alternate_names: 
          - "Amphoe Sam Roi Yot"
          - "Ban Sam Roi Yot"
          - "King Amphoe Sam Roi Yot"
          - "Sam Roi Yot"
        ascii_name: "Sam Roi Yot"
        geonamesid: 1117823
        latitude: 12.27081
        longitude: 99.87203
        name: "Sam Roi Yot"
        names_en: ~
        names_es: ~
        population: 19709
        timezone: Asia/Bangkok
      - 
        alternate_names: 
          - "Amphoe Thap Sakae"
          - "Ban Thap Sakae"
          - "Dhab Sake"
          - "King Amphoe Thap Sakae"
        ascii_name: "Thap Sakae"
        geonamesid: 1150218
        latitude: 11.49964
        longitude: 99.6217
        name: "Thap Sakae"
        names_en: ~
        names_es: ~
        population: 0
        timezone: Asia/Bangkok
      - 
        alternate_names: 
          - "Amphoe Pranburi"
          - "Ban Pak O Pran"
          - Meuangpran
          - "Muang Pran"
        ascii_name: "Pran Buri"
        geonamesid: 1151063
        latitude: 12.38466
        longitude: 99.90983
        name: "Pran Buri"
        names_en: ~
        names_es: ~
        population: 47293
        timezone: Asia/Bangkok
      - 
        alternate_names: 
          - "Amphoe Muang Prachuap Khim Khan"
          - "Changwat Prachuap Khiri Khan"
          - "Muang Prachuab Giri Khan"
          - "Muang Prachuabkhirikun"
        ascii_name: "Prachuap Khiri Khan"
        geonamesid: 1151074
        latitude: 11.82098
        longitude: 99.7841
        name: "Prachuap Khiri Khan"
        names_en: 
          - "Prachuap Khiri Khan"
        names_es: ~
        population: 33521
        timezone: Asia/Bangkok
      - 
        alternate_names: 
          - "Amphoe Kui Buri"
          - "Ban Kui Buri"
          - "Ban Kui Kao"
          - "Ban Kui Nua"
        ascii_name: "Kui Buri"
        geonamesid: 1152562
        latitude: 12.08283
        longitude: 99.85431
        name: "Kui Buri"
        names_en: ~
        names_es: ~
        population: 19046
        timezone: Asia/Bangkok
      - 
        alternate_names: 
          - "Amphoe Hua Hin"
          - "Ban Hua Hin"
          - "Hau Hin"
          - "Hua Hin"
        ascii_name: "Hua Hin"
        geonamesid: 1153269
        latitude: 12.57065
        longitude: 99.95876
        name: "Hua Hin"
        names_en: 
          - "Hua Hin"
        names_es: ~
        population: 50456
        timezone: Asia/Bangkok
      - 
        alternate_names: 
          - "Amphoe Bang Saphan Noi"
          - "Ban Bang Saphan Noi"
          - "Ban Bangspanoi"
          - "Bang Saphan Noi"
        ascii_name: "Bang Saphan Noi"
        geonamesid: 1157660
        latitude: 11.08333
        longitude: 99.45
        name: "Bang Saphan Noi"
        names_en: ~
        names_es: ~
        population: 0
        timezone: Asia/Bangkok
      - 
        alternate_names: 
          - "Amphoe Bang Saphan"
          - "Amphu Bangspan"
          - "Ban Bang Saphan Yai"
          - "Bang Saphan Yai"
        ascii_name: "Bang Saphan"
        geonamesid: 1157662
        latitude: 11.21259
        longitude: 99.51167
        name: "Bang Saphan"
        names_en: ~
        names_es: ~
        population: 15134
        timezone: Asia/Bangkok
    geonamesid: 1151073
    name: "Prachuap Khiri Khan"
    names_en: ~
    names_es: ~
  - 
    ascii_name: "Changwat Phuket"
    cities: 
      - 
        alternate_names: 
          - Talat-Jai
          - Талат-Яи
        ascii_name: "Ban Talat Yai"
        geonamesid: 1117652
        latitude: 7.87973
        longitude: 98.40398
        name: "Ban Talat Yai"
        names_en: ~
        names_es: ~
        population: 52192
        timezone: Asia/Bangkok
      - 
        alternate_names: 
          - Talat-Nua
          - Талат-Нуа
        ascii_name: "Ban Talat Nua"
        geonamesid: 1117656
        latitude: 7.88489
        longitude: 98.38557
        name: "Ban Talat Nua"
        names_en: ~
        names_es: ~
        population: 23381
        timezone: Asia/Bangkok
      - 
        alternate_names: 
          - "Amphoe Moeang Thalang"
          - "Amphoe Muang Thalang"
          - "Amphoe Thalang"
          - "Ban Khian"
        ascii_name: Thalang
        geonamesid: 1150296
        latitude: 8.0317
        longitude: 98.33408
        name: Thalang
        names_en: ~
        names_es: ~
        population: 0
        timezone: Asia/Bangkok
      - 
        alternate_names: 
          - "Amphoe Muang Phuket"
          - Bhuket
          - "Changwat Phuket"
          - Phuket
        ascii_name: Phuket
        geonamesid: 1151254
        latitude: 7.89059
        longitude: 98.3981
        name: Phuket
        names_en: ~
        names_es: ~
        population: 89072
        timezone: Asia/Bangkok
      - 
        alternate_names: 
          - "Ban Talat Kathu"
          - Kathu
          - Katu
          - "Tambon Kathu"
        ascii_name: Kathu
        geonamesid: 1153035
        latitude: 7.91779
        longitude: 98.33322
        name: Kathu
        names_en: 
          - "Tambon Kathu"
          - Kathu
        names_es: ~
        population: 34835
        timezone: Asia/Bangkok
      - 
        alternate_names: 
          - "Ban Ra Wai"
          - "Ban Rawei"
          - Rawai
          - "ra wiy"
        ascii_name: Rawai
        geonamesid: 1155010
        latitude: 7.77965
        longitude: 98.32532
        name: Rawai
        names_en: ~
        names_es: ~
        population: 13623
        timezone: Asia/Bangkok
      - 
        alternate_names: 
          - "Ban Khok Kaeo"
          - "Ban Kok Kew"
          - Ko-Kaeo
          - Ко-Каео
        ascii_name: "Ban Ko Kaeo"
        geonamesid: 1156836
        latitude: 7.93599
        longitude: 98.39664
        name: "Ban Ko Kaeo"
        names_en: ~
        names_es: ~
        population: 10136
        timezone: Asia/Bangkok
      - 
        alternate_names: 
          - "Amphoe Kathu"
          - "Ban Gathu"
          - "Ban Kathu"
          - "Ban Kathu (1)"
        ascii_name: Kathu
        geonamesid: 1157241
        latitude: 7.90903
        longitude: 98.3332
        name: Kathu
        names_en: ~
        names_es: ~
        population: 0
        timezone: Asia/Bangkok
      - 
        alternate_names: 
          - "Ka Rorn"
        ascii_name: "Ban Karon"
        geonamesid: 1157249
        latitude: 7.84769
        longitude: 98.2985
        name: "Ban Karon"
        names_en: ~
        names_es: ~
        population: 7094
        timezone: Asia/Bangkok
      - 
        alternate_names: ~
        ascii_name: Wichit
        geonamesid: 6696291
        latitude: 7.8894
        longitude: 98.38523
        name: Wichit
        names_en: ~
        names_es: ~
        population: 38701
        timezone: Asia/Bangkok
      - 
        alternate_names: 
          - Patong
          - "had pa txng"
          - Патонг
          - "หาดป่า ตอง"
        ascii_name: "Patong Beach"
        geonamesid: 6941772
        latitude: 7.89607
        longitude: 98.29661
        name: "Patong Beach"
        names_en: ~
        names_es: ~
        population: 14797
        timezone: Asia/Bangkok
      - 
        alternate_names: 
          - "ban chlxng"
          - บ้านฉลอง
        ascii_name: "Ban Chalong"
        geonamesid: 7091861
        latitude: 7.84468
        longitude: 98.33897
        name: "Ban Chalong"
        names_en: ~
        names_es: ~
        population: 18072
        timezone: Asia/Bangkok
      - 
        alternate_names: 
          - Ratsada
          - Ратсада
          - บ้านรัษฎา
        ascii_name: "Ban Ratsada"
        geonamesid: 7091912
        latitude: 7.90963
        longitude: 98.40248
        name: "Ban Ratsada"
        names_en: ~
        names_es: ~
        population: 33534
        timezone: Asia/Bangkok
      - 
        alternate_names: 
          - "meuxng phuket"
          - เมืองภูเก็ต
        ascii_name: "Mueang Phuket"
        geonamesid: 7092271
        latitude: 7.86338
        longitude: 98.36437
        name: "Mueang Phuket"
        names_en: ~
        names_es: ~
        population: 0
        timezone: Asia/Bangkok
      - 
        alternate_names: 
          - Nai-Kharn
          - Наи-Харн
        ascii_name: "Nai Harn"
        geonamesid: 7302494
        latitude: 7.77859
        longitude: 98.30661
        name: "Nai Harn"
        names_en: ~
        names_es: ~
        population: 4767
        timezone: Asia/Bangkok
    geonamesid: 1151253
    name: Phuket
    names_en: ~
    names_es: ~
  - 
    ascii_name: "Changwat Phetchaburi"
    cities: 
      - 
        alternate_names: 
          - "Amphoe Khlong Krachaeng"
          - "Amphoe Muang Phet Buri"
          - Bejraburi
          - "Bhej Buri"
        ascii_name: Phetchaburi
        geonamesid: 1149698
        latitude: 13.11189
        longitude: 99.94467
        name: Phetchaburi
        names_en: 
          - Phetchaburi
        names_es: ~
        population: 46601
        timezone: Asia/Bangkok
      - 
        alternate_names: 
          - "Amphoe Nong Ya Plong"
          - "Ban Naung Ya Plaung"
          - "King Amphoe Nong Ya Plong"
          - "Nong Ya Plong"
        ascii_name: "Nong Ya Plong"
        geonamesid: 1151664
        latitude: 13.16288
        longitude: 99.69723
        name: "Nong Ya Plong"
        names_en: ~
        names_es: ~
        population: 0
        timezone: Asia/Bangkok
      - 
        alternate_names: 
          - "Amphoe Huai Luang"
          - "Amphoe Khao Yoi"
          - "Khao Yoi"
          - เขาย้อย
        ascii_name: "Khao Yoi"
        geonamesid: 1152919
        latitude: 13.24025
        longitude: 99.82428
        name: "Khao Yoi"
        names_en: ~
        names_es: ~
        population: 18506
        timezone: Asia/Bangkok
      - 
        alternate_names: 
          - "Amphoe Cha-am"
          - "Amphoe Na Yang"
          - "Amphoe Nong Chok"
          - "Ban Chaam"
        ascii_name: Cha-am
        geonamesid: 1153807
        latitude: 12.8
        longitude: 99.96667
        name: Cha-am
        names_en: 
          - "Cha Am"
          - Cha-am
        names_es: ~
        population: 49375
        timezone: Asia/Bangkok
      - 
        alternate_names: 
          - "Amphoe Ban Lat"
          - "Amphoe Tha Chang"
          - "Ban Lat"
          - "Ban Tha Chang"
        ascii_name: "Ban Lat"
        geonamesid: 1156648
        latitude: 13.05003
        longitude: 99.91908
        name: "Ban Lat"
        names_en: ~
        names_es: ~
        population: 0
        timezone: Asia/Bangkok
      - 
        alternate_names: 
          - "Amphoe Ban Laem"
          - "Ban Laem"
          - Banhlem
          - Bānhlēm
        ascii_name: "Ban Laem"
        geonamesid: 1156739
        latitude: 13.20036
        longitude: 99.98008
        name: "Ban Laem"
        names_en: ~
        names_es: ~
        population: 0
        timezone: Asia/Bangkok
      - 
        alternate_names: 
          - "Amphoe Kaeng Krachan"
          - "Ban Kaeng Kachan"
          - "Ban Kaeng Kalan"
          - "Kaeng Krachan"
        ascii_name: "Kaeng Krachan"
        geonamesid: 1157277
        latitude: 12.90742
        longitude: 99.64795
        name: "Kaeng Krachan"
        names_en: ~
        names_es: ~
        population: 0
        timezone: Asia/Bangkok
      - 
        alternate_names: 
          - "Amphoe Tha Yang"
          - "Ban Tha Yang"
        ascii_name: "Tha Yang"
        geonamesid: 1605467
        latitude: 12.95772
        longitude: 99.90555
        name: "Tha Yang"
        names_en: ~
        names_es: ~
        population: 42602
        timezone: Asia/Bangkok
    geonamesid: 1151416
    name: Phetchaburi
    names_en: ~
    names_es: ~
  - 
    ascii_name: "Changwat Phangnga"
    cities: 
      - 
        alternate_names: 
          - "Amphoe Dhab Put"
          - "Amphoe Thap Pot"
          - "Amphoe Thap Put"
          - "Ban Marui"
        ascii_name: "Thap Put"
        geonamesid: 1150221
        latitude: 8.51625
        longitude: 98.63972
        name: "Thap Put"
        names_en: ~
        names_es: ~
        population: 0
        timezone: Asia/Bangkok
      - 
        alternate_names: 
          - "Amphoe Dhaihmoeang"
          - "Amphoe Thai Muang"
          - "Ban Dhai Hmoeang"
          - "Ban Thai Muang"
        ascii_name: "Thai Mueang"
        geonamesid: 1150317
        latitude: 8.39914
        longitude: 98.26061
        name: "Thai Mueang"
        names_en: ~
        names_es: ~
        population: 0
        timezone: Asia/Bangkok
      - 
        alternate_names: 
          - "Amphoe Takua Thung"
          - "Amphoe Takuadhung"
          - "Amphoe Takuatung"
          - "Ban Krasom"
        ascii_name: "Takua Thung"
        geonamesid: 1150447
        latitude: 8.38373
        longitude: 98.45123
        name: "Takua Thung"
        names_en: ~
        names_es: ~
        population: 0
        timezone: Asia/Bangkok
      - 
        alternate_names: 
          - "Amphoe Takuapa"
          - "Amphoe Talad Yai"
          - "Ban Takua Pa"
          - "Ban Yan Yao"
        ascii_name: "Takua Pa"
        geonamesid: 1150452
        latitude: 8.8705
        longitude: 98.34383
        name: "Takua Pa"
        names_en: ~
        names_es: ~
        population: 0
        timezone: Asia/Bangkok
      - 
        alternate_names: 
          - "Amphoe Mueang Phangnga"
          - Bhangnga
          - "Changwat Phangnga"
          - "Muang Bhang-nga"
        ascii_name: Phangnga
        geonamesid: 1151464
        latitude: 8.4509
        longitude: 98.52985
        name: Phangnga
        names_en: ~
        names_es: ~
        population: 9676
        timezone: Asia/Bangkok
      - 
        alternate_names: 
          - "Amphoe Ko Yao"
          - "Ban Ko Yao Noi"
          - "Ban Yai"
          - "King Amphoe Ko Yao"
        ascii_name: "Ko Yao"
        geonamesid: 1152640
        latitude: 8.11014
        longitude: 98.59231
        name: "Ko Yao"
        names_en: ~
        names_es: ~
        population: 0
        timezone: Asia/Bangkok
      - 
        alternate_names: 
          - "Amphoe Ko Kho Khao"
          - "Amphoe Mueang Takua Pa"
          - "Amphoe Pak Nam"
          - "Khura Buri"
        ascii_name: "Khura Buri"
        geonamesid: 1152762
        latitude: 9.19397
        longitude: 98.41514
        name: "Khura Buri"
        names_en: ~
        names_es: ~
        population: 0
        timezone: Asia/Bangkok
      - 
        alternate_names: 
          - "Amphoe Kapong"
          - "Ban Kapong"
          - Kapong
          - Pong
        ascii_name: Kapong
        geonamesid: 1153059
        latitude: 8.69697
        longitude: 98.40914
        name: Kapong
        names_en: ~
        names_es: ~
        population: 0
        timezone: Asia/Bangkok
      - 
        alternate_names: 
          - "Ban Cho Pla Lai"
          - "Ban Phlu Nai (1)"
          - "Ban Phru Nai"
          - "Ban Pru Nai"
        ascii_name: "Ban Phlu Nai (1)"
        geonamesid: 1155231
        latitude: 7.93333
        longitude: 98.58333
        name: "Ban Phlu Nai (1)"
        names_en: ~
        names_es: ~
        population: 5713
        timezone: Asia/Bangkok
      - 
        alternate_names: 
          - Ao-Nang
          - Ао-Нанг
        ascii_name: "Ban Ao Nang"
        geonamesid: 1158377
        latitude: 8.0458
        longitude: 98.81035
        name: "Ban Ao Nang"
        names_en: ~
        names_es: ~
        population: 8000
        timezone: Asia/Bangkok
    geonamesid: 1151462
    name: Phangnga
    names_en: ~
    names_es: ~
  - 
    ascii_name: "Changwat Mae Hong Son"
    cities: 
      - 
        alternate_names: ~
        ascii_name: "Ban Huai I Huak"
        geonamesid: 1119933
        latitude: 18.07861
        longitude: 98.035
        name: "Ban Huai I Huak"
        names_en: ~
        names_es: ~
        population: 0
        timezone: Asia/Bangkok
      - 
        alternate_names: 
          - Pai
          - ปาย
        ascii_name: Pai
        geonamesid: 1120447
        latitude: 19.35906
        longitude: 98.44017
        name: Pai
        names_en: ~
        names_es: ~
        population: 0
        timezone: Asia/Bangkok
      - 
        alternate_names: 
          - "Amphoe Muang Mae Hong Son"
          - "Ban Me Tau"
          - "Ban Muai Tau"
          - "Ban Muai To"
        ascii_name: "Mae Hong Son"
        geonamesid: 1152222
        latitude: 19.30029
        longitude: 97.96852
        name: "Mae Hong Son"
        names_en: 
          - "Mae Hong Son"
        names_es: ~
        population: 9109
        timezone: Asia/Bangkok
      - 
        alternate_names: 
          - "Amphoe Khun Yuam"
          - "Ban Khun Yuam"
          - "Khun Yuam"
          - "Mong Kum Yuam"
        ascii_name: "Khun Yuam"
        geonamesid: 1152765
        latitude: 18.82958
        longitude: 97.93347
        name: "Khun Yuam"
        names_en: ~
        names_es: ~
        population: 0
        timezone: Asia/Bangkok
      - 
        alternate_names: 
          - "Ban Sop Pong"
          - "Sop Pong"
          - "ban sb pxng"
          - บ้านสบป่อง
        ascii_name: "Sop Pong"
        geonamesid: 7072944
        latitude: 19.51881
        longitude: 98.26042
        name: "Sop Pong"
        names_en: ~
        names_es: ~
        population: 0
        timezone: Asia/Bangkok
      - 
        alternate_names: 
          - Pa-Pae
          - Па-Пае
        ascii_name: "Pa Pae"
        geonamesid: 7302488
        latitude: 18.2569
        longitude: 98.04903
        name: "Pa Pae"
        names_en: ~
        names_es: ~
        population: 6291
        timezone: Asia/Bangkok
      - 
        alternate_names: 
          - "Wiang Nuea"
          - เวียงเหนือ
        ascii_name: "Wiang Nuea"
        geonamesid: 7510868
        latitude: 19.37972
        longitude: 98.44644
        name: "Wiang Nuea"
        names_en: ~
        names_es: ~
        population: 0
        timezone: Asia/Bangkok
    geonamesid: 1152221
    name: "Mae Hong Son"
    names_en: ~
    names_es: ~
  - 
    ascii_name: "Changwat Lamphun"
    cities: 
      - 
        alternate_names: 
          - "Amphoe Pa Sang"
          - "Ban Pa Sang"
          - "Pa Sang"
          - ป่าซาง
        ascii_name: "Pa Sang"
        geonamesid: 1151528
        latitude: 18.52617
        longitude: 98.93936
        name: "Pa Sang"
        names_en: ~
        names_es: ~
        population: 15607
        timezone: Asia/Bangkok
      - 
        alternate_names: 
          - "Amphoe Mae Tha"
          - "Amphu Metar"
          - "Ban Mae Tha"
          - "Ban Mea Tha"
        ascii_name: "Mae Tha"
        geonamesid: 1152180
        latitude: 18.46456
        longitude: 99.14026
        name: "Mae Tha"
        names_en: ~
        names_es: ~
        population: 10048
        timezone: Asia/Bangkok
      - 
        alternate_names: 
          - "Amphoe Li"
          - "Ban Li Nua"
          - Li
          - "Li Hnoea"
        ascii_name: Li
        geonamesid: 1152357
        latitude: 17.8027
        longitude: 98.95097
        name: Li
        names_en: ~
        names_es: ~
        population: 0
        timezone: Asia/Bangkok
      - 
        alternate_names: 
          - "Amphoe Muang Lamphun"
          - "Amphoe Mueang Lamphun"
          - "Changwat Lamphun"
          - "Changwat Muang Lamphun"
        ascii_name: Lamphun
        geonamesid: 1152468
        latitude: 18.58054
        longitude: 99.00745
        name: Lamphun
        names_en: 
          - Lamphun
        names_es: ~
        population: 43196
        timezone: Asia/Bangkok
      - 
        alternate_names: 
          - "Amphoe Thung Hua Chang"
          - "Ban Thung Hua Chang"
          - "Ban Tung Hua Chang"
          - Dhunghuajang
        ascii_name: "Thung Hua Chang"
        geonamesid: 1154329
        latitude: 18.0
        longitude: 99.03333
        name: "Thung Hua Chang"
        names_en: ~
        names_es: ~
        population: 0
        timezone: Asia/Bangkok
      - 
        alternate_names: 
          - "Amphoe Ban Hong"
          - "Ban Haung"
          - "Ban Hong"
          - "Bān Haung"
        ascii_name: "Ban Hong"
        geonamesid: 1157551
        latitude: 18.33086
        longitude: 98.81925
        name: "Ban Hong"
        names_en: ~
        names_es: ~
        population: 0
        timezone: Asia/Bangkok
      - 
        alternate_names: 
          - "King Amphoe Wiang Nong Long"
          - "Wiang Nong Long"
          - กิ่งเวียงหนองล่อง
        ascii_name: "Wiang Nong Long"
        geonamesid: 7510872
        latitude: 18.42043
        longitude: 98.74967
        name: "Wiang Nong Long"
        names_en: ~
        names_es: ~
        population: 0
        timezone: Asia/Bangkok
      - 
        alternate_names: 
          - "Ban Thi"
          - บ้านธิ
        ascii_name: "Ban Thi"
        geonamesid: 7510882
        latitude: 18.63186
        longitude: 99.11661
        name: "Ban Thi"
        names_en: ~
        names_es: ~
        population: 0
        timezone: Asia/Bangkok
    geonamesid: 1152467
    name: Lamphun
    names_en: ~
    names_es: ~
  - 
    ascii_name: "Changwat Lampang"
    cities: 
      - 
        alternate_names: 
          - "Amphoe Wang Nua"
          - "Wang Nua"
          - "Wang Nuea"
          - วังเหนือ
        ascii_name: "Wang Nuea"
        geonamesid: 1149915
        latitude: 19.14678
        longitude: 99.61933
        name: "Wang Nuea"
        names_en: ~
        names_es: ~
        population: 0
        timezone: Asia/Bangkok
      - 
        alternate_names: 
          - "Amphoe Moeang Theun"
          - "Amphoe Moeangthenn"
          - "Amphoe Muang Thoen"
          - "Amphoe Thoen"
        ascii_name: Thoen
        geonamesid: 1150154
        latitude: 17.61289
        longitude: 99.21612
        name: Thoen
        names_en: ~
        names_es: ~
        population: 18459
        timezone: Asia/Bangkok
      - 
        alternate_names: 
          - "Amphoe Sop Prap"
          - "Amphu Sopwa"
          - "Ban Sob Prap"
          - "Ban Sop Prap"
        ascii_name: "Sop Prap"
        geonamesid: 1150562
        latitude: 17.88053
        longitude: 99.337
        name: "Sop Prap"
        names_en: ~
        names_es: ~
        population: 0
        timezone: Asia/Bangkok
      - 
        alternate_names: 
          - "Amphoe Soem Ngam"
          - "King Amphoe Soem Ngam"
          - "Soem Ngam"
          - เสริมงาม
        ascii_name: "Soem Ngam"
        geonamesid: 1150607
        latitude: 18.06506
        longitude: 99.24537
        name: "Soem Ngam"
        names_en: ~
        names_es: ~
        population: 0
        timezone: Asia/Bangkok
      - 
        alternate_names: 
          - "Amphoe Moeang Ngao"
          - "Amphoe Muang Gao"
          - "Amphoe Muang Ngao"
          - "Amphoe Ngao"
        ascii_name: Ngao
        geonamesid: 1151848
        latitude: 18.75678
        longitude: 99.97814
        name: Ngao
        names_en: ~
        names_es: ~
        population: 0
        timezone: Asia/Bangkok
      - 
        alternate_names: 
          - "Muang Pan"
          - "Mueang Pan"
          - เมืองปาน
        ascii_name: "Mueang Pan"
        geonamesid: 1151987
        latitude: 18.76803
        longitude: 99.5025
        name: "Mueang Pan"
        names_en: ~
        names_es: ~
        population: 0
        timezone: Asia/Bangkok
      - 
        alternate_names: 
          - "Amphoe Mae Tha"
          - "Ban Mae Tha"
          - "Ban Mea Tha"
          - "Ban Meta"
        ascii_name: "Mae Tha"
        geonamesid: 1152181
        latitude: 18.13411
        longitude: 99.51389
        name: "Mae Tha"
        names_en: ~
        names_es: ~
        population: 0
        timezone: Asia/Bangkok
      - 
        alternate_names: 
          - "Amphoe Mae Phrik"
          - "Amphu Me Plick"
          - "Ban Mae Phlik"
          - "Ban Mae Phrik"
        ascii_name: "Mae Phrik"
        geonamesid: 1152204
        latitude: 17.44688
        longitude: 99.1142
        name: "Mae Phrik"
        names_en: ~
        names_es: ~
        population: 0
        timezone: Asia/Bangkok
      - 
        alternate_names: 
          - "Ban Mae Mo"
          - "Ban Mea Mo"
          - "Bān Mea Mo"
          - "Mae Mo"
        ascii_name: "Mae Mo"
        geonamesid: 1152216
        latitude: 18.27561
        longitude: 99.65044
        name: "Mae Mo"
        names_en: ~
        names_es: ~
        population: 0
        timezone: Asia/Bangkok
      - 
        alternate_names: 
          - "Amphoe Muang Lampang"
          - "Amphoe Mueang Lampang"
          - "Changwat Lampang"
          - "Changwat Muang Lampang"
        ascii_name: Lampang
        geonamesid: 1152473
        latitude: 18.29232
        longitude: 99.49277
        name: Lampang
        names_en: 
          - Lampang
        names_es: ~
        population: 156139
        timezone: Asia/Bangkok
      - 
        alternate_names: 
          - "Amphoe Ko Kha"
          - "Ban Go Ka"
          - "Ban Ko Kha"
          - "Ban Koknar"
        ascii_name: "Ko Kha"
        geonamesid: 1152679
        latitude: 18.19225
        longitude: 99.39433
        name: "Ko Kha"
        names_en: ~
        names_es: ~
        population: 0
        timezone: Asia/Bangkok
      - 
        alternate_names: 
          - "Amphoe Hang Chat"
          - "Ban Hang Sad"
          - "Ban Hang Sat"
          - "Hang Chat"
        ascii_name: "Hang Chat"
        geonamesid: 1153389
        latitude: 18.32164
        longitude: 99.31561
        name: "Hang Chat"
        names_en: ~
        names_es: ~
        population: 0
        timezone: Asia/Bangkok
      - 
        alternate_names: 
          - "Amphoe Cha Hom"
          - "Amphoe Chae Hom"
          - "Amphoe Che Hom"
          - "Ban Chae Hom Tai"
        ascii_name: "Chae Hom"
        geonamesid: 1153800
        latitude: 18.71267
        longitude: 99.55758
        name: "Chae Hom"
        names_en: ~
        names_es: ~
        population: 0
        timezone: Asia/Bangkok
    geonamesid: 1152472
    name: Lampang
    names_en: ~
    names_es: ~
  - 
    ascii_name: "Changwat Krabi"
    cities: 
      - 
        alternate_names: 
          - "Amphoe Lam Thap"
          - "Ban Lam Thap"
          - "King Amphoe Lam Thap"
          - "Lam Thap"
        ascii_name: "Lam Thap"
        geonamesid: 1119287
        latitude: 8.07228
        longitude: 99.29225
        name: "Lam Thap"
        names_en: ~
        names_es: ~
        population: 0
        timezone: Asia/Bangkok
      - 
        alternate_names: 
          - "Amphoe Plai Phraya"
          - "King Amphoe Plai Phraya"
          - "Plai Phraya"
          - ปลายพระยา
        ascii_name: "Plai Phraya"
        geonamesid: 1151150
        latitude: 8.53278
        longitude: 98.8637
        name: "Plai Phraya"
        names_en: ~
        names_es: ~
        population: 0
        timezone: Asia/Bangkok
      - 
        alternate_names: 
          - "Amphoe Muang Krabi"
          - "Amphoe Mueang Krabi"
          - "Amphoe Pak Nam"
          - "Changwat Krabi"
        ascii_name: Krabi
        geonamesid: 1152633
        latitude: 8.07257
        longitude: 98.91052
        name: Krabi
        names_en: 
          - Krabi
        names_es: ~
        population: 31219
        timezone: Asia/Bangkok
      - 
        alternate_names: 
          - "Amphoe Kau Lanta"
          - "Amphoe Ko Lanta"
          - "Amphoe Kohlanta"
          - "Ban Go Lanta"
        ascii_name: "Ko Lanta"
        geonamesid: 1152670
        latitude: 7.53362
        longitude: 99.08647
        name: "Ko Lanta"
        names_en: 
          - "Ko Lanta Yai"
        names_es: ~
        population: 6090
        timezone: Asia/Bangkok
      - 
        alternate_names: 
          - "Amphoe Khlong Phon"
          - "Amphoe Khlong Thom"
          - "Ban Khlong Thom Tai"
          - "Khlaung Thaun"
        ascii_name: "Khlong Thom"
        geonamesid: 1152843
        latitude: 7.9375
        longitude: 99.14457
        name: "Khlong Thom"
        names_en: ~
        names_es: ~
        population: 0
        timezone: Asia/Bangkok
      - 
        alternate_names: 
          - "Amphoe Khao Phanom"
          - "Khao Phanom"
          - "King Amphoe Khao Phanom"
          - เขาพนม
        ascii_name: "Khao Phanom"
        geonamesid: 1152933
        latitude: 8.26549
        longitude: 99.05124
        name: "Khao Phanom"
        names_en: ~
        names_es: ~
        population: 0
        timezone: Asia/Bangkok
      - 
        alternate_names: 
          - "Amphoe Nuea Khlong"
          - "Ban Nua Khlong"
          - "King Amphoe Nuea Khlong"
          - "Nuea Khlong"
        ascii_name: "Nuea Khlong"
        geonamesid: 1155525
        latitude: 8.07144
        longitude: 98.99933
        name: "Nuea Khlong"
        names_en: ~
        names_es: ~
        population: 0
        timezone: Asia/Bangkok
      - 
        alternate_names: 
          - "Amphoe Ao Luek"
          - "Amphoe Ao Luk"
          - "Ao Loek"
          - "Ao Loek Tai"
        ascii_name: "Ao Luek"
        geonamesid: 1158412
        latitude: 8.37803
        longitude: 98.72117
        name: "Ao Luek"
        names_en: ~
        names_es: ~
        population: 13263
        timezone: Asia/Bangkok
      - 
        alternate_names: 
          - "Ban Saladan"
          - Saladan
          - Саладан
        ascii_name: Saladan
        geonamesid: 6691842
        latitude: 7.61342
        longitude: 99.03651
        name: Saladan
        names_en: 
          - "Ban Saladan"
        names_es: ~
        population: 7946
        timezone: Asia/Bangkok
      - 
        alternate_names: 
          - "Ao Luek"
          - อ่าวลึก
        ascii_name: "Ao Luek"
        geonamesid: 7510869
        latitude: 8.37803
        longitude: 98.72117
        name: "Ao Luek"
        names_en: ~
        names_es: ~
        population: 0
        timezone: Asia/Bangkok
      - 
        alternate_names: 
          - "Nuea Khlong"
        ascii_name: "Nuea Khlong"
        geonamesid: 7511033
        latitude: 8.07144
        longitude: 98.99933
        name: "Nuea Khlong"
        names_en: ~
        names_es: ~
        population: 0
        timezone: Asia/Bangkok
    geonamesid: 1152631
    name: Krabi
    names_en: ~
    names_es: ~
  - 
    ascii_name: "Changwat Kanchanaburi"
    cities: 
      - 
        alternate_names: 
          - "Amphoe Si Sawat"
          - "King Amphoe Si Sawat"
          - "Si Sawat"
          - ศรีสวัสดิ์
        ascii_name: "Si Sawat"
        geonamesid: 1120440
        latitude: 14.59922
        longitude: 99.11406
        name: "Si Sawat"
        names_en: ~
        names_es: ~
        population: 0
        timezone: Asia/Bangkok
      - 
        alternate_names: 
          - "Amphoe Sangkhlaburi"
          - "Amphoe Sangkla Buri"
          - "Amphoe Songkla Buri"
          - "Amphoe Thong Pha Phum"
        ascii_name: "Thong Pha Phum"
        geonamesid: 1150133
        latitude: 14.74345
        longitude: 98.63101
        name: "Thong Pha Phum"
        names_en: ~
        names_es: ~
        population: 0
        timezone: Asia/Bangkok
      - 
        alternate_names: 
          - "Amphoe Tai"
          - "Amphoe Tha Muang"
          - "Amphoe Wang Khanai"
          - "Ban Tha Muang"
        ascii_name: "Tha Muang"
        geonamesid: 1150246
        latitude: 13.96118
        longitude: 99.64122
        name: "Tha Muang"
        names_en: ~
        names_es: ~
        population: 26746
        timezone: Asia/Bangkok
      - 
        alternate_names: 
          - "Amphoe Tha Maka"
          - "Tha Maka"
        ascii_name: "Tha Maka"
        geonamesid: 1150275
        latitude: 13.9
        longitude: 99.76667
        name: "Tha Maka"
        names_en: ~
        names_es: ~
        population: 52907
        timezone: Asia/Bangkok
      - 
        alternate_names: 
          - "Amphoe Sangkhla Buri"
          - "Amphoe Wang Ka"
          - "Ban Wang Ga"
          - "Ban Wang Kabon"
        ascii_name: "Sangkhla Buri"
        geonamesid: 1150735
        latitude: 15.15553
        longitude: 98.45361
        name: "Sangkhla Buri"
        names_en: ~
        names_es: ~
        population: 10000
        timezone: Asia/Bangkok
      - 
        alternate_names: 
          - "Amphoe Sai Yok"
          - "Ban Wang Pho"
          - "King Amphoe Sai Yok"
          - "Nam Tok Sai Yok"
        ascii_name: "Sai Yok"
        geonamesid: 1150844
        latitude: 14.1194
        longitude: 99.14206
        name: "Sai Yok"
        names_en: ~
        names_es: ~
        population: 0
        timezone: Asia/Bangkok
      - 
        alternate_names: 
          - "Amphoe Ban Thuan"
          - "Amphoe Nuea"
          - "Amphoe Phanom Thuan"
          - "Ban Thuan"
        ascii_name: "Phanom Thuan"
        geonamesid: 1151446
        latitude: 14.13031
        longitude: 99.69858
        name: "Phanom Thuan"
        names_en: ~
        names_es: ~
        population: 12469
        timezone: Asia/Bangkok
      - 
        alternate_names: 
          - "Amphoe Lao Khwan"
          - "King Amphoe Lao Khwan"
          - "Lao Khwan"
          - เลาขวัญ
        ascii_name: "Lao Khwan"
        geonamesid: 1152408
        latitude: 14.59522
        longitude: 99.77431
        name: "Lao Khwan"
        names_en: ~
        names_es: ~
        population: 0
        timezone: Asia/Bangkok
      - 
        alternate_names: 
          - "Changwat Kanchanaburi"
          - Kanburi
          - Kanchana
          - Kanchanaburi
        ascii_name: Kanchanaburi
        geonamesid: 1153081
        latitude: 14.00412
        longitude: 99.54832
        name: Kanchanaburi
        names_en: 
          - Kanchanaburi
        names_es: ~
        population: 63699
        timezone: Asia/Bangkok
      - 
        alternate_names: 
          - "Amphoe Bo Phloi"
          - "Ban Bo Phloi"
          - "Bo Phloi"
          - "King Bau Phloi"
        ascii_name: "Bo Phloi"
        geonamesid: 1153850
        latitude: 14.32361
        longitude: 99.51611
        name: "Bo Phloi"
        names_en: ~
        names_es: ~
        population: 16786
        timezone: Asia/Bangkok
      - 
        alternate_names: 
          - "Amphoe Lat Bua Khao"
          - "Amphoe Phra Thaen"
          - "Amphoe Tha Maka"
          - "Ban Tha Maka"
        ascii_name: "Tha Maka"
        geonamesid: 1154519
        latitude: 13.92081
        longitude: 99.76553
        name: "Tha Maka"
        names_en: ~
        names_es: ~
        population: 0
        timezone: Asia/Bangkok
      - 
        alternate_names: 
          - "Amphoe Nong Prue"
          - "Ban Hnong Proe"
          - "Ban Nong Pru"
          - "King Amphoe Nong Prue"
        ascii_name: "Nong Prue"
        geonamesid: 1155656
        latitude: 14.60784
        longitude: 99.45783
        name: "Nong Prue"
        names_en: ~
        names_es: ~
        population: 0
        timezone: Asia/Bangkok
      - 
        alternate_names: 
          - "Amphoe Huai Krachao"
          - "Ban Huai Kachao"
          - "Ban Huai Krachao"
          - "Ban Hui Ka Chao"
        ascii_name: "Huai Krachao"
        geonamesid: 1157482
        latitude: 14.3275
        longitude: 99.66767
        name: "Huai Krachao"
        names_en: ~
        names_es: ~
        population: 0
        timezone: Asia/Bangkok
      - 
        alternate_names: 
          - "Amphoe Dan Makham Tia"
          - "Ban Dan Makham Tia"
          - "Ban Nong Makham Tia"
          - "Dan Makham Tia"
        ascii_name: "Dan Makham Tia"
        geonamesid: 1157966
        latitude: 13.85339
        longitude: 99.41042
        name: "Dan Makham Tia"
        names_en: ~
        names_es: ~
        population: 0
        timezone: Asia/Bangkok
      - 
        alternate_names: 
          - "Nong Prue"
          - หนองปรือ
        ascii_name: "Nong Prue"
        geonamesid: 7510878
        latitude: 14.61144
        longitude: 99.45033
        name: "Nong Prue"
        names_en: ~
        names_es: ~
        population: 0
        timezone: Asia/Bangkok
    geonamesid: 1153080
    name: Kanchanaburi
    names_en: ~
    names_es: ~
  - 
    ascii_name: "Changwat Kamphaeng Phet"
    cities: 
      - 
        alternate_names: 
          - "Amphoe Sai Thong Watthana"
          - "Ban Thung Sai"
          - "King Amphoe Sai Thong Watthana"
          - "Thung Sai"
        ascii_name: "Thung Sai"
        geonamesid: 1117344
        latitude: 16.31489
        longitude: 99.83267
        name: "Thung Sai"
        names_en: ~
        names_es: ~
        population: 0
        timezone: Asia/Bangkok
      - 
        alternate_names: 
          - "Amphoe Sai Ngam"
          - "King Amphoe Sai Ngam"
          - "Sai Ngam"
          - ไทรงาม
        ascii_name: "Sai Ngam"
        geonamesid: 1150854
        latitude: 16.46862
        longitude: 99.88843
        name: "Sai Ngam"
        names_en: ~
        names_es: ~
        population: 0
        timezone: Asia/Bangkok
      - 
        alternate_names: 
          - "Amphoe Lan Krabue"
          - "King Amphoe Lan Krabue"
          - "Lan Krabu"
          - "Lan Krabue"
        ascii_name: "Lan Krabue"
        geonamesid: 1152423
        latitude: 16.60003
        longitude: 99.84889
        name: "Lan Krabue"
        names_en: ~
        names_es: ~
        population: 0
        timezone: Asia/Bangkok
      - 
        alternate_names: 
          - "Amphoe Khlong Lan"
          - "Khlong Lan"
          - "King Amphoe Khlong Lan"
          - คลองลาน
        ascii_name: "Khlong Lan"
        geonamesid: 1152850
        latitude: 16.20331
        longitude: 99.31997
        name: "Khlong Lan"
        names_en: ~
        names_es: ~
        population: 0
        timezone: Asia/Bangkok
      - 
        alternate_names: 
          - "Amphoe Kanu"
          - "Amphoe Khanu"
          - "Amphoe Khlong Khlung"
          - "Ban Khlong Khlung"
        ascii_name: "Khlong Khlung"
        geonamesid: 1152854
        latitude: 16.21633
        longitude: 99.71906
        name: "Khlong Khlung"
        names_en: ~
        names_es: ~
        population: 0
        timezone: Asia/Bangkok
      - 
        alternate_names: 
          - "Amphoe Khanuworalak Buri"
          - "Khanu Woralaksaburi"
          - "Khanworalak Buri"
          - "King Amphoe Khanu Woralaksaburi"
        ascii_name: "Khanu Woralaksaburi"
        geonamesid: 1152953
        latitude: 16.0617
        longitude: 99.86058
        name: "Khanu Woralaksaburi"
        names_en: ~
        names_es: ~
        population: 21889
        timezone: Asia/Bangkok
      - 
        alternate_names: 
          - "Amphoe Muang Kamphaeng Phet"
          - "Amphoe Mueang Kamphaeng Phet"
          - "Changwat Kamphaeng Phet"
          - "Changwat Muang Kam Bheng Bhej"
        ascii_name: "Kamphaeng Phet"
        geonamesid: 1153090
        latitude: 16.48344
        longitude: 99.52153
        name: "Kamphaeng Phet"
        names_en: 
          - "Kamphaeng Phet"
        names_es: ~
        population: 58787
        timezone: Asia/Bangkok
      - 
        alternate_names: 
          - "Pang Sila Thong"
          - กิ่งปางศิลาทอง
        ascii_name: "Pang Sila Thong"
        geonamesid: 7510880
        latitude: 16.09631
        longitude: 99.48906
        name: "Pang Sila Thong"
        names_en: ~
        names_es: ~
        population: 0
        timezone: Asia/Bangkok
      - 
        alternate_names: 
          - "Kosamphi Nakhon"
          - กิ่งโกสัมพีนคร
        ascii_name: "Kosamphi Nakhon"
        geonamesid: 7510881
        latitude: 16.63131
        longitude: 99.34975
        name: "Kosamphi Nakhon"
        names_en: ~
        names_es: ~
        population: 0
        timezone: Asia/Bangkok
      - 
        alternate_names: 
          - "Bueng Samakkhi"
          - บึงสามัคคี
        ascii_name: "Bueng Samakkhi"
        geonamesid: 7510896
        latitude: 16.18728
        longitude: 99.97525
        name: "Bueng Samakkhi"
        names_en: ~
        names_es: ~
        population: 0
        timezone: Asia/Bangkok
      - 
        alternate_names: 
          - "Lan Krabue"
          - ลานกระบือ
        ascii_name: "Lan Krabue"
        geonamesid: 7510897
        latitude: 16.60003
        longitude: 99.84889
        name: "Lan Krabue"
        names_en: ~
        names_es: ~
        population: 0
        timezone: Asia/Bangkok
    geonamesid: 1153089
    name: "Kamphaeng Phet"
    names_en: ~
    names_es: ~
  - 
    ascii_name: "Changwat Chumphon"
    cities: 
      - 
        alternate_names: 
          - "Amphoe Thung Tako"
          - "King Amphoe Thung Tako"
          - "Thung Tako"
          - ทุ่งตะโก
        ascii_name: "Thung Tako"
        geonamesid: 1150081
        latitude: 10.11022
        longitude: 99.08306
        name: "Thung Tako"
        names_en: ~
        names_es: ~
        population: 0
        timezone: Asia/Bangkok
      - 
        alternate_names: 
          - "Amphoe Tha Sae"
          - "Ban Tharsak"
          - "King Amphoe Tha Sae"
          - "King Tha Sae"
        ascii_name: "Tha Sae"
        geonamesid: 1150203
        latitude: 10.66461
        longitude: 99.17281
        name: "Tha Sae"
        names_en: ~
        names_es: ~
        population: 0
        timezone: Asia/Bangkok
      - 
        alternate_names: 
          - "Amphoe Sawi"
          - "Ban Na Pho"
          - "Mueang Sawi"
          - Sawi
        ascii_name: Sawi
        geonamesid: 1150678
        latitude: 10.23683
        longitude: 99.10958
        name: Sawi
        names_en: ~
        names_es: ~
        population: 0
        timezone: Asia/Bangkok
      - 
        alternate_names: 
          - "Amphoe Phato"
          - "Ban Tha Sai"
          - "King Amphoe Phato"
          - Phato
        ascii_name: Phato
        geonamesid: 1151429
        latitude: 9.79089
        longitude: 98.77658
        name: Phato
        names_en: ~
        names_es: ~
        population: 0
        timezone: Asia/Bangkok
      - 
        alternate_names: 
          - "Amphoe Padhio"
          - "Amphoe Pathio"
          - "Amphoe Pathiu"
          - "Amphoe Patilieu"
        ascii_name: Pathio
        geonamesid: 1151523
        latitude: 10.70908
        longitude: 99.3182
        name: Pathio
        names_en: ~
        names_es: ~
        population: 0
        timezone: Asia/Bangkok
      - 
        alternate_names: 
          - "Amper Khan Ngern"
          - "Amphoe Khan Ngoen"
          - "Amphoe Khanngeun"
          - "Amphoe Lang Suan"
        ascii_name: "Lang Suan"
        geonamesid: 1152432
        latitude: 9.94561
        longitude: 99.07847
        name: "Lang Suan"
        names_en: ~
        names_es: ~
        population: 16142
        timezone: Asia/Bangkok
      - 
        alternate_names: 
          - "Amphoe Lamae"
          - "King Amphoe Lamae"
          - Lamae
          - ละแม
        ascii_name: Lamae
        geonamesid: 1152479
        latitude: 9.76789
        longitude: 99.09256
        name: Lamae
        names_en: ~
        names_es: ~
        population: 0
        timezone: Asia/Bangkok
      - 
        alternate_names: 
          - "Amphoe Muang Chumphon"
          - Champawn
          - "Changwat Chumphon"
          - Chumphaun
        ascii_name: Chumphon
        geonamesid: 1153557
        latitude: 10.5
        longitude: 99.16667
        name: Chumphon
        names_en: 
          - Chumphon
        names_es: ~
        population: 55835
        timezone: Asia/Bangkok
      - 
        alternate_names: 
          - "Ban Nam Yuen"
          - บ้านน้ำยืน
        ascii_name: "Ban Nam Yuen"
        geonamesid: 1600964
        latitude: 9.87686
        longitude: 98.86592
        name: "Ban Nam Yuen"
        names_en: ~
        names_es: ~
        population: 12335
        timezone: Asia/Bangkok
      - 
        alternate_names: 
          - Pathio
          - ปะทิว
        ascii_name: Pathio
        geonamesid: 7510876
        latitude: 10.70908
        longitude: 99.3182
        name: Pathio
        names_en: ~
        names_es: ~
        population: 0
        timezone: Asia/Bangkok
    geonamesid: 1153555
    name: Chumphon
    names_en: ~
    names_es: ~
  - 
    ascii_name: "Changwat Chiang Rai"
    cities: 
      - 
        alternate_names: 
          - "Amphoe Wiang Pa Pao"
          - "Amphoe Wiengpapao"
          - "Ban Hua Wiang"
          - "Ban Nai Wiang"
        ascii_name: "Wiang Pa Pao"
        geonamesid: 1149881
        latitude: 19.34778
        longitude: 99.50772
        name: "Wiang Pa Pao"
        names_en: ~
        names_es: ~
        population: 0
        timezone: Asia/Bangkok
      - 
        alternate_names: 
          - "Wiang Chai"
          - เวียงชัย
        ascii_name: "Wiang Chai"
        geonamesid: 1149883
        latitude: 19.88361
        longitude: 99.93314
        name: "Wiang Chai"
        names_en: ~
        names_es: ~
        population: 0
        timezone: Asia/Bangkok
      - 
        alternate_names: 
          - Phan
          - พาน
        ascii_name: Phan
        geonamesid: 1151477
        latitude: 19.55395
        longitude: 99.74046
        name: Phan
        names_en: ~
        names_es: ~
        population: 0
        timezone: Asia/Bangkok
      - 
        alternate_names: 
          - "Amphoe Mae Suai"
          - "Ban Mae Suai"
          - "Ban Mea Suai"
          - "Ban Mesrewy"
        ascii_name: "Mae Suai"
        geonamesid: 1152186
        latitude: 19.65633
        longitude: 99.54367
        name: "Mae Suai"
        names_en: ~
        names_es: ~
        population: 0
        timezone: Asia/Bangkok
      - 
        alternate_names: 
          - "Amphoe Mae Sai"
          - "King Amphoe Mae Sai"
          - "Mae Sai"
          - แม่สาย
        ascii_name: "Mae Sai"
        geonamesid: 1152194
        latitude: 20.43353
        longitude: 99.87617
        name: "Mae Sai"
        names_en: ~
        names_es: ~
        population: 27520
        timezone: Asia/Bangkok
      - 
        alternate_names: 
          - "Amphoe Chiang Saen"
          - "Amphoe Mae Chan"
          - "Ban Gasa"
          - "Ban Kasa"
        ascii_name: "Mae Chan"
        geonamesid: 1152227
        latitude: 20.14675
        longitude: 99.85256
        name: "Mae Chan"
        names_en: ~
        names_es: ~
        population: 37672
        timezone: Asia/Bangkok
      - 
        alternate_names: 
          - "Amphoe Chiang Rai"
          - "Amphoe Muang Chiang Rai"
          - "Chang Rai"
          - "Changwat Chiang Rai"
        ascii_name: "Chiang Rai"
        geonamesid: 1153669
        latitude: 19.90858
        longitude: 99.8325
        name: "Chiang Rai"
        names_en: 
          - "Chiang Rai"
        names_es: ~
        population: 78756
        timezone: Asia/Bangkok
      - 
        alternate_names: 
          - "Amphoe Dheung"
          - "Amphoe Moeang Dheung"
          - "Amphoe Thoeng"
          - "Ban Nai Wiang"
        ascii_name: Thoeng
        geonamesid: 1605409
        latitude: 19.68508
        longitude: 100.19456
        name: Thoeng
        names_en: ~
        names_es: ~
        population: 0
        timezone: Asia/Bangkok
      - 
        alternate_names: 
          - "Paya Meng Rai"
          - "Phaya Mengrai"
          - พญาเม็งราย
        ascii_name: "Phaya Mengrai"
        geonamesid: 1607971
        latitude: 19.84922
        longitude: 100.15358
        name: "Phaya Mengrai"
        names_en: ~
        names_es: ~
        population: 0
        timezone: Asia/Bangkok
      - 
        alternate_names: 
          - "Ban Pa Daet"
          - "Ban Pa Deat"
          - "Bān Pa Deat"
          - "Pa Daet"
        ascii_name: "Pa Daet"
        geonamesid: 1608068
        latitude: 19.5048
        longitude: 99.99243
        name: "Pa Daet"
        names_en: ~
        names_es: ~
        population: 13624
        timezone: Asia/Bangkok
      - 
        alternate_names: 
          - "Amphoe Chiang Saen"
          - "Chang Saen"
          - "Chiang Saen"
          - "Chiang Saen Luang"
        ascii_name: "Chiang Saen"
        geonamesid: 1611187
        latitude: 20.27511
        longitude: 100.08689
        name: "Chiang Saen"
        names_en: 
          - "Chiang Saen"
        names_es: ~
        population: 0
        timezone: Asia/Bangkok
      - 
        alternate_names: 
          - "Amphoe Chiang Khaung"
          - "Amphoe Chiang Khong"
          - "Amphoe Jieng Khohng"
          - "Ban Hwei Sai"
        ascii_name: "Chiang Khong"
        geonamesid: 1611197
        latitude: 20.26125
        longitude: 100.40461
        name: "Chiang Khong"
        names_en: ~
        names_es: ~
        population: 14505
        timezone: Asia/Bangkok
      - 
        alternate_names: 
          - "Mae Fa Luang"
          - แม่ฟ้าหลวง
        ascii_name: "Mae Fa Luang"
        geonamesid: 7323625
        latitude: 20.26628
        longitude: 99.79846
        name: "Mae Fa Luang"
        names_en: ~
        names_es: ~
        population: 0
        timezone: Asia/Bangkok
      - 
        alternate_names: 
          - "Wiang Chiang Rung"
          - เวียงเชียงรุ้ง
        ascii_name: "Wiang Chiang Rung"
        geonamesid: 7325957
        latitude: 20.01328
        longitude: 100.05639
        name: "Wiang Chiang Rung"
        names_en: ~
        names_es: ~
        population: 0
        timezone: Asia/Bangkok
      - 
        alternate_names: 
          - "Wiang Kaen"
          - เวียงแก่น
        ascii_name: "Wiang Kaen"
        geonamesid: 7325958
        latitude: 20.11297
        longitude: 100.51331
        name: "Wiang Kaen"
        names_en: ~
        names_es: ~
        population: 0
        timezone: Asia/Bangkok
      - 
        alternate_names: 
          - "Khun Tan"
          - ขุนตาล
        ascii_name: "Khun Tan"
        geonamesid: 7383661
        latitude: 19.83353
        longitude: 100.25858
        name: "Khun Tan"
        names_en: ~
        names_es: ~
        population: 0
        timezone: Asia/Bangkok
      - 
        alternate_names: 
          - "Mae Lao"
          - แม่ลาว
        ascii_name: "Mae Lao"
        geonamesid: 7421899
        latitude: 19.79003
        longitude: 99.69967
        name: "Mae Lao"
        names_en: ~
        names_es: ~
        population: 0
        timezone: Asia/Bangkok
    geonamesid: 1153668
    name: "Chiang Rai"
    names_en: ~
    names_es: ~
  - 
    ascii_name: "Changwat Chiang Mai"
    cities: 
      - 
        alternate_names: 
          - Phrao
          - พร้าว
        ascii_name: Phrao
        geonamesid: 1120443
        latitude: 19.36556
        longitude: 99.20208
        name: Phrao
        names_en: ~
        names_es: ~
        population: 0
        timezone: Asia/Bangkok
      - 
        alternate_names: 
          - Omkoi
          - อมก๋อย
        ascii_name: Omkoi
        geonamesid: 1120448
        latitude: 17.80097
        longitude: 98.35842
        name: Omkoi
        names_en: ~
        names_es: ~
        population: 0
        timezone: Asia/Bangkok
      - 
        alternate_names: 
          - "Mae Taeng"
          - แม่แตง
        ascii_name: "Mae Taeng"
        geonamesid: 1120449
        latitude: 19.11712
        longitude: 98.94176
        name: "Mae Taeng"
        names_en: ~
        names_es: ~
        population: 0
        timezone: Asia/Bangkok
      - 
        alternate_names: 
          - "Ban Mae Ai Luang"
          - "Mae Ai"
          - บ้านแม่อายหลวง
          - แม่อาย
        ascii_name: "Mae Ai"
        geonamesid: 1120453
        latitude: 20.02883
        longitude: 99.29833
        name: "Mae Ai"
        names_en: ~
        names_es: ~
        population: 0
        timezone: Asia/Bangkok
      - 
        alternate_names: 
          - "Ban Muang Haeng"
          - "Ban Wiang Haeng"
          - Heng
          - Hēng
        ascii_name: "Mueang Haeng"
        geonamesid: 1149882
        latitude: 19.557
        longitude: 98.6425
        name: "Mueang Haeng"
        names_en: ~
        names_es: ~
        population: 0
        timezone: Asia/Bangkok
      - 
        alternate_names: 
          - "Amphoe Saraphi"
          - "Amphoe Yang Noeng"
          - "Ban Sarape"
          - "Ban Saraphi"
        ascii_name: Saraphi
        geonamesid: 1150700
        latitude: 18.71417
        longitude: 99.03528
        name: Saraphi
        names_en: ~
        names_es: ~
        population: 0
        timezone: Asia/Bangkok
      - 
        alternate_names: 
          - "Amphoe San Sai"
          - "Amphoe Sanzai"
          - "Ban San Sai Hluang"
          - "Ban San Sai Luang"
        ascii_name: "San Sai"
        geonamesid: 1150726
        latitude: 18.84792
        longitude: 99.04508
        name: "San Sai"
        names_en: ~
        names_es: ~
        population: 0
        timezone: Asia/Bangkok
      - 
        alternate_names: 
          - "Amphoe San Pa Tong"
          - "San Pa Tong"
          - สันป่าตอง
        ascii_name: "San Pa Tong"
        geonamesid: 1150728
        latitude: 18.62828
        longitude: 98.89572
        name: "San Pa Tong"
        names_en: ~
        names_es: ~
        population: 17773
        timezone: Asia/Bangkok
      - 
        alternate_names: 
          - "Amphoe San Kamphaeng"
          - "Ban San Gampheang"
          - "Ban San Kamphaeng"
          - "Ban San Kamphaeng Luang"
        ascii_name: "San Kamphaeng"
        geonamesid: 1150732
        latitude: 18.74486
        longitude: 99.11953
        name: "San Kamphaeng"
        names_en: ~
        names_es: ~
        population: 32950
        timezone: Asia/Bangkok
      - 
        alternate_names: 
          - "Amphoe Samoeng"
          - "Ban Samarng Dai"
          - "Ban Samoeng Tai"
          - "Bān Samarng Dāi"
        ascii_name: Samoeng
        geonamesid: 1150783
        latitude: 18.84806
        longitude: 98.73242
        name: Samoeng
        names_en: ~
        names_es: ~
        population: 0
        timezone: Asia/Bangkok
      - 
        alternate_names: 
          - "Amphoe Pai"
          - "Ban Wiang Tai"
          - "Ban Wieng Tai"
          - "Muang Pai"
        ascii_name: Pai
        geonamesid: 1151601
        latitude: 19.36168
        longitude: 98.43973
        name: Pai
        names_en: ~
        names_es: ~
        population: 2284
        timezone: Asia/Bangkok
      - 
        alternate_names: 
          - "Amphoe Hoht"
          - "Amphoe Hot"
          - "Ban Muang Haut"
          - "Ban Muang Hawt"
        ascii_name: Hot
        geonamesid: 1153278
        latitude: 18.19317
        longitude: 98.61039
        name: Hot
        names_en: ~
        names_es: ~
        population: 0
        timezone: Asia/Bangkok
      - 
        alternate_names: 
          - "Amphoe Hang Dong"
          - "Ban Hang Dong"
          - "Hang Dong"
          - "Khwaeng Mae Tha Chang"
        ascii_name: "Hang Dong"
        geonamesid: 1153386
        latitude: 18.68703
        longitude: 98.91939
        name: "Hang Dong"
        names_en: ~
        names_es: ~
        population: 17931
        timezone: Asia/Bangkok
      - 
        alternate_names: 
          - "Amphoe Fang"
          - "Amphoe Moeang Bhang"
          - "Amphoe Moeangfhang"
          - "Amphoe Muang Fang"
        ascii_name: Fang
        geonamesid: 1153427
        latitude: 19.91689
        longitude: 99.2145
        name: Fang
        names_en: ~
        names_es: ~
        population: 0
        timezone: Asia/Bangkok
      - 
        alternate_names: 
          - "Ban Doi Tao"
          - "Doi Tao"
          - "King Amphoe Doi Tao"
          - ดอยเต่า
        ascii_name: "Doi Tao"
        geonamesid: 1153467
        latitude: 17.95286
        longitude: 98.68458
        name: "Doi Tao"
        names_en: ~
        names_es: ~
        population: 0
        timezone: Asia/Bangkok
      - 
        alternate_names: 
          - "Amphoe Chohm Dhohng"
          - "Amphoe Chom Thong"
          - "Amphoe Chomtong"
          - "Ban Hluang"
        ascii_name: "Chom Thong"
        geonamesid: 1153634
        latitude: 18.41742
        longitude: 98.67428
        name: "Chom Thong"
        names_en: ~
        names_es: ~
        population: 12488
        timezone: Asia/Bangkok
      - 
        alternate_names: 
          - "Amphoe Muang Chiang Mai"
          - "Changwat Chiang Mai"
          - "Chiang Mai"
          - Chiang-Maj
        ascii_name: "Chiang Mai"
        geonamesid: 1153671
        latitude: 18.79038
        longitude: 98.98468
        name: "Chiang Mai"
        names_en: 
          - "Chiang Mai"
          - Chiangmai
        names_es: ~
        population: 200952
        timezone: Asia/Bangkok
      - 
        alternate_names: 
          - "Amphoe Ban Chiang Dao"
          - "Amphoe Chiang Dao"
          - "Amphoe Jieng Dao"
          - "Ban Chiang Dao"
        ascii_name: "Chiang Dao"
        geonamesid: 1153673
        latitude: 19.36542
        longitude: 98.96453
        name: "Chiang Dao"
        names_en: ~
        names_es: ~
        population: 0
        timezone: Asia/Bangkok
      - 
        alternate_names: 
          - "Amphoe Doi Lo"
          - "Ban Doi Lau"
          - "Ban Doi Lo"
          - "Bān Doi Lau"
        ascii_name: "Doi Lo"
        geonamesid: 1157949
        latitude: 18.46098
        longitude: 98.77767
        name: "Doi Lo"
        names_en: ~
        names_es: ~
        population: 0
        timezone: Asia/Bangkok
      - 
        alternate_names: 
          - "Mae Wang"
          - แม่วาง
        ascii_name: "Mae Wang"
        geonamesid: 7511021
        latitude: 18.61604
        longitude: 98.77292
        name: "Mae Wang"
        names_en: ~
        names_es: ~
        population: 0
        timezone: Asia/Bangkok
      - 
        alternate_names: 
          - "Chaem Luang"
          - แจ่มหลวง
        ascii_name: "Chaem Luang"
        geonamesid: 7524617
        latitude: 19.03193
        longitude: 98.28767
        name: "Chaem Luang"
        names_en: ~
        names_es: ~
        population: 0
        timezone: Asia/Bangkok
    geonamesid: 1153670
    name: "Chiang Mai"
    names_en: ~
    names_es: ~
  - 
    ascii_name: "Changwat Yasothon"
    cities: 
      - 
        alternate_names: 
          - "Amphoe Muang Yasothon"
          - "Amphoe Yasodhom"
          - "Amphoe Yasodhorn"
          - "Amphoe Yasothon"
        ascii_name: Yasothon
        geonamesid: 1604769
        latitude: 15.79408
        longitude: 104.1451
        name: Yasothon
        names_en: 
          - Yasothon
        names_es: ~
        population: 21643
        timezone: Asia/Bangkok
      - 
        alternate_names: 
          - "Amphoe Sai Mun"
          - "Ban Sai Mun"
          - "King Amphoe Sai Mun"
          - "Sai Mun"
        ascii_name: "Sai Mun"
        geonamesid: 1606842
        latitude: 15.94495
        longitude: 104.20812
        name: "Sai Mun"
        names_en: ~
        names_es: ~
        population: 0
        timezone: Asia/Bangkok
      - 
        alternate_names: 
          - "Amphoe Pa Tio"
          - "Amphoe Pa Tiu"
          - "Amphoe Tio"
          - "King Amphoe Pa Tio"
        ascii_name: "Pa Tio"
        geonamesid: 1607980
        latitude: 15.83281
        longitude: 104.38673
        name: "Pa Tio"
        names_en: ~
        names_es: ~
        population: 0
        timezone: Asia/Bangkok
      - 
        alternate_names: 
          - "Amphoe Fa Yat"
          - "Amphoe Maha Chana Chai"
          - "Han Chai Chana"
          - "Maha Chana Chai"
        ascii_name: "Maha Chana Chai"
        geonamesid: 1608909
        latitude: 15.52935
        longitude: 104.23847
        name: "Maha Chana Chai"
        names_en: ~
        names_es: ~
        population: 0
        timezone: Asia/Bangkok
      - 
        alternate_names: 
          - "Amphoe Loeng Nok Tha"
          - "King Amphoe Loeng Nok Tha"
          - "Loeng Nok Tha"
          - เลิงนกทา
        ascii_name: "Loeng Nok Tha"
        geonamesid: 1609068
        latitude: 16.2075
        longitude: 104.55528
        name: "Loeng Nok Tha"
        names_en: ~
        names_es: ~
        population: 0
        timezone: Asia/Bangkok
      - 
        alternate_names: 
          - "Amphoe Kut Chum"
          - "Ban Kut Chum"
          - "King Amphoe Kut Chum"
          - "Kut Chum"
        ascii_name: "Kut Chum"
        geonamesid: 1609321
        latitude: 16.03289
        longitude: 104.33936
        name: "Kut Chum"
        names_en: ~
        names_es: ~
        population: 0
        timezone: Asia/Bangkok
      - 
        alternate_names: 
          - "Amphoe Kho Wang"
          - "Ban Non Kho"
          - "Kho Wang"
          - ค้อวัง
        ascii_name: "Kho Wang"
        geonamesid: 1609753
        latitude: 15.36998
        longitude: 104.35231
        name: "Kho Wang"
        names_en: ~
        names_es: ~
        population: 0
        timezone: Asia/Bangkok
      - 
        alternate_names: 
          - "Amphoe Kham Khuan Kaeo"
          - "Amphoe Lumphuk"
          - "Ban Lumphuk"
          - "Kham Khuan Kaeo"
        ascii_name: "Kham Khuean Kaeo"
        geonamesid: 1610086
        latitude: 15.65233
        longitude: 104.30861
        name: "Kham Khuean Kaeo"
        names_en: ~
        names_es: ~
        population: 0
        timezone: Asia/Bangkok
      - 
        alternate_names: 
          - "Pa Tio"
          - ป่าติ้ว
        ascii_name: "Pa Tio"
        geonamesid: 7511002
        latitude: 15.83156
        longitude: 104.38644
        name: "Pa Tio"
        names_en: ~
        names_es: ~
        population: 0
        timezone: Asia/Bangkok
      - 
        alternate_names: 
          - "Kham Khuean Kaeo"
          - คำเขื่อนแก้ว
        ascii_name: "Kham Khuean Kaeo"
        geonamesid: 7511003
        latitude: 15.65233
        longitude: 104.30861
        name: "Kham Khuean Kaeo"
        names_en: ~
        names_es: ~
        population: 0
        timezone: Asia/Bangkok
      - 
        alternate_names: 
          - "Amphoe Thai Charoen"
          - "King Amphoe Thai Charoen"
          - "Thai Charoen"
          - ไทยเจริญ
        ascii_name: "Thai Charoen"
        geonamesid: 7511004
        latitude: 16.06645
        longitude: 104.44018
        name: "Thai Charoen"
        names_en: ~
        names_es: ~
        population: 0
        timezone: Asia/Bangkok
    geonamesid: 1604767
    name: Yasothon
    names_en: ~
    names_es: ~
  - 
    ascii_name: "Changwat Yala"
    cities: 
      - 
        alternate_names: 
          - "Amphoe Mueang Yala"
          - "Amphoe Yala"
          - "Ban Yala"
          - "Changwat Yala"
        ascii_name: Yala
        geonamesid: 1604870
        latitude: 6.53995
        longitude: 101.28128
        name: Yala
        names_en: 
          - Yala
        names_es: ~
        population: 93558
        timezone: Asia/Bangkok
      - 
        alternate_names: 
          - "Amphoe Yaha"
          - "Ban Yaha"
          - Yaha
        ascii_name: Yaha
        geonamesid: 1604979
        latitude: 6.47805
        longitude: 101.13496
        name: Yaha
        names_en: ~
        names_es: ~
        population: 0
        timezone: Asia/Bangkok
      - 
        alternate_names: 
          - "Amphoe Than To"
          - "King Amphoe Than To"
          - "Than To"
          - tharto
        ascii_name: "Than To"
        geonamesid: 1605550
        latitude: 6.16739
        longitude: 101.18008
        name: "Than To"
        names_en: ~
        names_es: ~
        population: 0
        timezone: Asia/Bangkok
      - 
        alternate_names: 
          - "Amphoe Kotabaru"
          - "Amphoe Raman"
          - "Ban Kauta Baru"
          - "Ban Kauta Bāru"
        ascii_name: Raman
        geonamesid: 1607097
        latitude: 6.47862
        longitude: 101.42414
        name: Raman
        names_en: ~
        names_es: ~
        population: 0
        timezone: Asia/Bangkok
      - 
        alternate_names: 
          - "Amphoe Krong Pinang"
          - "Ban Krong Pi Nang"
          - "Kampong Pinang"
          - "Kampung Pinang"
        ascii_name: "Krong Pi Nang"
        geonamesid: 1610296
        latitude: 6.4112
        longitude: 101.27394
        name: "Krong Pi Nang"
        names_en: ~
        names_es: ~
        population: 0
        timezone: Asia/Bangkok
      - 
        alternate_names: 
          - "Amphoe Kabang"
          - "Ban Ka Bang"
          - "Ka Bang"
          - Kabae
        ascii_name: "Ka Bang"
        geonamesid: 1610360
        latitude: 6.41536
        longitude: 101.05456
        name: "Ka Bang"
        names_en: ~
        names_es: ~
        population: 0
        timezone: Asia/Bangkok
      - 
        alternate_names: 
          - "Amphoe Betong"
          - "Amphoe Yarom"
          - "Ban Betong"
          - Betong
        ascii_name: Betong
        geonamesid: 1611635
        latitude: 5.77434
        longitude: 101.07231
        name: Betong
        names_en: ~
        names_es: ~
        population: 29604
        timezone: Asia/Bangkok
      - 
        alternate_names: 
          - "Amphoe Ba Cho"
          - "Amphoe Ban Nang Sata"
          - "Ban Ban Nang Sata"
          - "Ban Nang Sata"
        ascii_name: "Ban Nang Sata"
        geonamesid: 1616198
        latitude: 6.26638
        longitude: 101.26461
        name: "Ban Nang Sata"
        names_en: ~
        names_es: ~
        population: 0
        timezone: Asia/Bangkok
    geonamesid: 1604869
    name: Yala
    names_en: ~
    names_es: ~
  - 
    ascii_name: "Changwat Uttaradit"
    cities: 
      - 
        alternate_names: 
          - "Amphoe Mueang Uttaradit"
          - "Changwat Muang Utaradith"
          - "Changwat Uttaradit"
          - "Muang Utaradit"
        ascii_name: Uttaradit
        geonamesid: 1605215
        latitude: 17.62557
        longitude: 100.09421
        name: Uttaradit
        names_en: 
          - Uttaradit
        names_es: ~
        population: 58313
        timezone: Asia/Bangkok
      - 
        alternate_names: 
          - "Amphoe Tron"
          - "Ban Geang"
          - "Ban Kaeng"
          - Keng
        ascii_name: Tron
        geonamesid: 1605268
        latitude: 17.48181
        longitude: 100.11281
        name: Tron
        names_en: ~
        names_es: ~
        population: 0
        timezone: Asia/Bangkok
      - 
        alternate_names: 
          - "Tha Pla"
          - ท่าปลา
        ascii_name: "Tha Pla"
        geonamesid: 1605530
        latitude: 17.79281
        longitude: 100.37744
        name: "Tha Pla"
        names_en: ~
        names_es: ~
        population: 0
        timezone: Asia/Bangkok
      - 
        alternate_names: 
          - "Amphoe Phichai"
          - Bhijai
          - "Muang Phichai"
          - "Muang Pichai"
        ascii_name: Phichai
        geonamesid: 1607728
        latitude: 17.28764
        longitude: 100.0867
        name: Phichai
        names_en: ~
        names_es: ~
        population: 0
        timezone: Asia/Bangkok
      - 
        alternate_names: 
          - "Amphoe Nam Pat"
          - "Amphoe Saen To"
          - "Nam Pat"
          - น้ำปาด
        ascii_name: "Nam Pat"
        geonamesid: 1608483
        latitude: 17.72806
        longitude: 100.68433
        name: "Nam Pat"
        names_en: ~
        names_es: ~
        population: 0
        timezone: Asia/Bangkok
      - 
        alternate_names: 
          - "Amphoe Lap Lae"
          - "Amphu Lubla"
          - "Ban Yang Gadai"
          - "Ban Yang Kadai"
        ascii_name: "Lap Lae"
        geonamesid: 1609163
        latitude: 17.65211
        longitude: 100.03892
        name: "Lap Lae"
        names_en: ~
        names_es: ~
        population: 0
        timezone: Asia/Bangkok
      - 
        alternate_names: 
          - "Amphoe Fak Tha"
          - "Ban Bung"
          - "Fak Tha"
          - ฟากท่า
        ascii_name: "Fak Tha"
        geonamesid: 1610841
        latitude: 17.99283
        longitude: 100.87944
        name: "Fak Tha"
        names_en: ~
        names_es: ~
        population: 0
        timezone: Asia/Bangkok
      - 
        alternate_names: 
          - "Amphoe Ban Khok"
          - "Ban Khok"
          - "King Amphoe Ban Khok"
          - บ้านโคก
        ascii_name: "Ban Khok"
        geonamesid: 1618002
        latitude: 18.02614
        longitude: 101.06772
        name: "Ban Khok"
        names_en: ~
        names_es: ~
        population: 0
        timezone: Asia/Bangkok
      - 
        alternate_names: 
          - "Thong Saen Khan"
          - ทองแสนขัน
        ascii_name: "Thong Saen Khan"
        geonamesid: 7510909
        latitude: 17.47592
        longitude: 100.33361
        name: "Thong Saen Khan"
        names_en: ~
        names_es: ~
        population: 0
        timezone: Asia/Bangkok
      - 
        alternate_names: 
          - Laplae
          - ลับแล
        ascii_name: Laplae
        geonamesid: 7510910
        latitude: 17.65211
        longitude: 100.03892
        name: Laplae
        names_en: ~
        names_es: ~
        population: 0
        timezone: Asia/Bangkok
    geonamesid: 1605214
    name: Uttaradit
    names_en: ~
    names_es: ~
  - 
    ascii_name: "Changwat Trat"
    cities: 
      - 
        alternate_names: 
          - "Ban Bang Phra"
          - "Ban Prah"
          - "Bang Phra"
          - "Changwat Trat"
        ascii_name: Trat
        geonamesid: 1605279
        latitude: 12.24364
        longitude: 102.51514
        name: Trat
        names_en: 
          - Trat
        names_es: ~
        population: 21590
        timezone: Asia/Bangkok
      - 
        alternate_names: 
          - "Amphoe Kau Chang"
          - "Amphoe Ko Chang"
          - "Amphoe Kohjang"
          - "Amphoe Laem Ngop"
        ascii_name: "Laem Ngop"
        geonamesid: 1609283
        latitude: 12.1717
        longitude: 102.39489
        name: "Laem Ngop"
        names_en: ~
