--- 
geonamesid: 2363686
iso: TG
name: Togo
names_en: 
  - Togo
  - "Togolese Republic"
names_es: 
  - Togo
regions: 
  - 
    ascii_name: "Region des Savanes"
    cities: 
      - 
        alternate_names: 
          - Mango
          - N'Zara
          - Nsara
          - N’Zara
        ascii_name: Sansanne-Mango
        geonamesid: 2365190
        latitude: 10.35917
        longitude: 0.47083
        name: Sansanné-Mango
        names_en: ~
        names_es: ~
        population: 37748
        timezone: Africa/Lome
      - 
        alternate_names: 
          - Dapango
          - Dapaong
          - Dapaonge
          - Dapong
        ascii_name: Dapaong
        geonamesid: 2367164
        latitude: 10.86389
        longitude: 0.205
        name: Dapaong
        names_en: 
          - Dapaong
        names_es: ~
        population: 33324
        timezone: Africa/Lome
    geonamesid: 2364205
    name: Savanes
    names_en: ~
    names_es: ~
  - 
    ascii_name: "Region des Plateaux"
    cities: 
      - 
        alternate_names: 
          - Notse
          - Notsé
          - Nouatja
          - Nuatia
        ascii_name: Notse
        geonamesid: 2364752
        latitude: 6.95
        longitude: 1.16667
        name: Notsé
        names_en: ~
        names_es: ~
        population: 22017
        timezone: Africa/Lome
      - 
        alternate_names: ~
        ascii_name: Atakpame
        geonamesid: 2367886
        latitude: 7.53333
        longitude: 1.13333
        name: Atakpamé
        names_en: ~
        names_es: ~
        population: 80683
        timezone: Africa/Lome
      - 
        alternate_names: 
          - Amlame
          - Amlamé
          - Emla
        ascii_name: Amlame
        geonamesid: 2368035
        latitude: 7.46667
        longitude: 0.9
        name: Amlamé
        names_en: ~
        names_es: ~
        population: 9870
        timezone: Africa/Lome
    geonamesid: 2364370
    name: Plateaux
    names_en: ~
    names_es: ~
  - 
    ascii_name: "Region Maritime"
    cities: 
      - 
        alternate_names: 
          - Voga
          - Vogan
          - Woga
          - Wogan
        ascii_name: Vogan
        geonamesid: 2363490
        latitude: 6.33333
        longitude: 1.53333
        name: Vogan
        names_en: ~
        names_es: ~
        population: 20569
        timezone: Africa/Lome
      - 
        alternate_names: 
          - Tsevie
          - Tsevye
          - Tsévié
          - Tsévyé
        ascii_name: Tsevie
        geonamesid: 2363534
        latitude: 6.42611
        longitude: 1.21333
        name: Tsévié
        names_en: ~
        names_es: ~
        population: 55775
        timezone: Africa/Lome
      - 
        alternate_names: 
          - Awesi
          - Awési
          - Tabligbo
          - Tablizhbo
        ascii_name: Tabligbo
        geonamesid: 2364041
        latitude: 6.58333
        longitude: 1.5
        name: Tabligbo
        names_en: ~
        names_es: ~
        population: 13748
        timezone: Africa/Lome
      - 
        alternate_names: 
          - Lome
          - Lomé
          - Lomė
          - lome
        ascii_name: Lome
        geonamesid: 2365267
        latitude: 6.13748
        longitude: 1.21227
        name: Lomé
        names_en: 
          - Lomé
        names_es: 
          - Lomé
        population: 749700
        timezone: Africa/Lome
      - 
        alternate_names: 
          - Anecho
          - Aneho
          - Anekho
          - Anerho
        ascii_name: Aneho
        geonamesid: 2367990
        latitude: 6.23333
        longitude: 1.6
        name: Aného
        names_en: ~
        names_es: ~
        population: 47579
        timezone: Africa/Lome
    geonamesid: 2365173
    name: Maritime
    names_en: ~
    names_es: ~
  - 
    ascii_name: "Region Centrale"
    cities: 
      - 
        alternate_names: 
          - Kouboni
          - Kuboni
          - Tchamba
        ascii_name: Tchamba
        geonamesid: 2363908
        latitude: 9.03333
        longitude: 1.41667
        name: Tchamba
        names_en: ~
        names_es: ~
        population: 25668
        timezone: Africa/Lome
      - 
        alternate_names: 
          - Sotouboua
        ascii_name: Sotouboua
        geonamesid: 2364079
        latitude: 8.56667
        longitude: 0.98333
        name: Sotouboua
        names_en: ~
        names_es: ~
        population: 21054
        timezone: Africa/Lome
      - 
        alternate_names: 
          - Sokode
          - Sokodé
          - "suo ke de"
          - Сокоде
        ascii_name: Sokode
        geonamesid: 2364104
        latitude: 8.98333
        longitude: 1.13333
        name: Sokodé
        names_en: 
          - Sokodé
        names_es: ~
        population: 117811
        timezone: Africa/Lome
    geonamesid: 2367237
    name: Centrale
    names_en: ~
    names_es: ~
  - 
    ascii_name: "Region de la Kara"
    cities: 
      - 
        alternate_names: 
          - Niamtougou
          - Niamtugu
          - Niamtuu
          - Njamtuu
        ascii_name: Niamtougou
        geonamesid: 2364812
        latitude: 9.76806
        longitude: 1.10528
        name: Niamtougou
        names_en: ~
        names_es: ~
        population: 23261
        timezone: Africa/Lome
      - 
        alternate_names: 
          - Kpagouda
          - Pagouda
        ascii_name: Pagouda
        geonamesid: 2365571
        latitude: 9.7525
        longitude: 1.32778
        name: Pagouda
        names_en: ~
        names_es: ~
        population: 7686
        timezone: Africa/Lome
      - 
        alternate_names: 
          - Kara
          - Lama
          - Lama-Kara
          - Кара
        ascii_name: Kara
        geonamesid: 2366152
        latitude: 9.55111
        longitude: 1.18611
        name: Kara
        names_en: ~
        names_es: ~
        population: 104207
        timezone: Africa/Lome
      - 
        alternate_names: 
          - Kande
          - Kandé
          - Kante
          - Kanté
        ascii_name: Kande
        geonamesid: 2366168
        latitude: 9.95778
        longitude: 1.04472
        name: Kandé
        names_en: ~
        names_es: ~
        population: 11466
        timezone: Africa/Lome
      - 
        alternate_names: 
          - Basar
          - Bassar
          - Bassari
          - "ba sa"
        ascii_name: Bassar
        geonamesid: 2367568
        latitude: 9.25
        longitude: 0.78333
        name: Bassar
        names_en: 
          - Bassar
        names_es: ~
        population: 61845
        timezone: Africa/Lome
      - 
        alternate_names: 
          - Bafilo
          - Бафило
        ascii_name: Bafilo
        geonamesid: 2367656
        latitude: 9.35
        longitude: 1.26667
        name: Bafilo
        names_en: ~
        names_es: ~
        population: 22543
        timezone: Africa/Lome
    geonamesid: 2597439
    name: Kara
    names_en: ~
    names_es: ~
