--- 
geonamesid: 1218197
iso: TM
name: Turkmenistan
names_en: 
  - Turkmenistan
names_es: 
  - Turkmenistán
regions: 
  - 
    ascii_name: "Balkan Welayaty"
    cities: 
      - 
        alternate_names: 
          - Balkanabat
          - Nebit-Dag
          - Nebitdag
          - Neftedag
        ascii_name: Balkanabat
        geonamesid: 161616
        latitude: 39.51194
        longitude: 54.365
        name: Balkanabat
        names_en: 
          - Balkanabat
        names_es: ~
        population: 87822
        timezone: Asia/Ashgabat
      - 
        alternate_names: 
          - Gyzylarbat
          - Kizil-Arvat
          - Kizyl-Arvat
          - Kyzyl-Arvat
        ascii_name: Gyzylarbat
        geonamesid: 161931
        latitude: 38.97556
        longitude: 56.27778
        name: Gyzylarbat
        names_en: 
          - Kizil-Arvat
        names_es: ~
        population: 12000
        timezone: Asia/Ashgabat
      - 
        alternate_names: 
          - Gumdag
          - Gumdage
          - Khudaidag
          - Khuday-Dag
        ascii_name: Gumdag
        geonamesid: 161943
        latitude: 39.20611
        longitude: 54.59056
        name: Gumdag
        names_en: ~
        names_es: ~
        population: 24312
        timezone: Asia/Ashgabat
      - 
        alternate_names: 
          - Gazandzhyk
          - Gazanjyk
          - Kasandshik
          - Kazandzhik
        ascii_name: Gazanjyk
        geonamesid: 161974
        latitude: 39.24306
        longitude: 55.51694
        name: Gazanjyk
        names_en: ~
        names_es: ~
        population: 21090
        timezone: Asia/Ashgabat
      - 
        alternate_names: 
          - KRASNOVODSK
          - Krasnovodsk
          - Krasnowodsk
          - Krassnowodsk
        ascii_name: Turkmenbasy
        geonamesid: 601594
        latitude: 40.02306
        longitude: 52.96972
        name: Türkmenbaşy
        names_en: 
          - Türkmenbaşy
        names_es: 
          - Krasnovodsk
        population: 68292
        timezone: Asia/Ashgabat
    geonamesid: 162152
    name: Balkan
    names_en: ~
    names_es: ~
  - 
    ascii_name: "Ahal Welayaty"
    cities: 
      - 
        alternate_names: 
          - Bezmein
          - Buzmeyin
          - Büzmeýin
        ascii_name: Buzmeyin
        geonamesid: 162099
        latitude: 38.05167
        longitude: 58.21
        name: Büzmeýin
        names_en: ~
        names_es: ~
        population: 39481
        timezone: Asia/Ashgabat
      - 
        alternate_names: 
          - Baherden
          - Bakharden
          - Bäherden
        ascii_name: Baherden
        geonamesid: 162158
        latitude: 38.43028
        longitude: 57.43694
        name: Bäherden
        names_en: ~
        names_es: ~
        population: 22991
        timezone: Asia/Ashgabat
      - 
        alternate_names: 
          - Achgabat
          - "Achkhabad - Asgabat"
          - "Achkhabad - Aşgabat"
          - Aschabad
        ascii_name: Ashgabat
        geonamesid: 162183
        latitude: 37.95
        longitude: 58.38333
        name: Ashgabat
        names_en: 
          - Ashkhabad
          - Ashgabat
          - Ashkabad
        names_es: 
          - Aşgabat
        population: 727700
        timezone: Asia/Ashgabat
      - 
        alternate_names: 
          - Tedjen
          - Tedzen
          - Tedzhen
          - Tedżen
        ascii_name: Tejen
        geonamesid: 1218239
        latitude: 37.37861
        longitude: 60.49611
        name: Tejen
        names_en: 
          - Tejen
        names_es: ~
        population: 67294
        timezone: Asia/Ashgabat
    geonamesid: 162181
    name: Ahal
    names_en: ~
    names_es: ~
  - 
    ascii_name: "Dasoguz Welayaty"
    cities: 
      - 
        alternate_names: 
          - Dashhowuz
          - Dashkhovuz
          - Dashoguz
          - Dashowuz
        ascii_name: Dasoguz
        geonamesid: 601734
        latitude: 41.83333
        longitude: 59.96667
        name: Daşoguz
        names_en: 
          - Daşoguz
        names_es: ~
        population: 166500
        timezone: Asia/Ashgabat
    geonamesid: 601465
    name: Daşoguz
    names_en: ~
    names_es: ~
  - 
    ascii_name: "Mary Welayaty"
    cities: 
      - 
        alternate_names: 
          - Mary
          - Merv
          - Мары
        ascii_name: Mary
        geonamesid: 1218667
        latitude: 37.6
        longitude: 61.83333
        name: Mary
        names_en: 
          - Mary
        names_es: ~
        population: 114680
        timezone: Asia/Ashgabat
      - 
        alternate_names: 
          - Gusgy
          - Gushgy
          - Guşgy
          - "Kushk Post"
        ascii_name: Serhetabat
        geonamesid: 1219377
        latitude: 35.27832
        longitude: 62.33725
        name: Serhetabat
        names_en: 
          - Serhetabat
          - Kushka
        names_es: ~
        population: 5200
        timezone: Asia/Ashgabat
    geonamesid: 1218666
    name: Mary
    names_en: ~
    names_es: ~
  - 
    ascii_name: "Lebap Welayaty"
    cities: 
      - 
        alternate_names: ~
        ascii_name: Sayat
        geonamesid: 1218436
        latitude: 38.78111
        longitude: 63.88667
        name: Saýat
        names_en: ~
        names_es: ~
        population: 17762
        timezone: Asia/Ashgabat
      - 
        alternate_names: 
          - Atamyrat
          - Kerki
          - Qarki
          - Qārki
        ascii_name: Atamyrat
        geonamesid: 1219002
        latitude: 37.83444
        longitude: 65.20972
        name: Atamyrat
        names_en: ~
        names_es: ~
        population: 33242
        timezone: Asia/Ashgabat
      - 
        alternate_names: 
          - Gaurdak
          - Gaurdakstroy
          - Gaurdstroi
          - Gaurdstroy
        ascii_name: Gowurdak
        geonamesid: 1219392
        latitude: 37.80694
        longitude: 66.05667
        name: Gowurdak
        names_en: ~
        names_es: ~
        population: 34745
        timezone: Asia/Ashgabat
      - 
        alternate_names: 
          - Farab
          - Farap
          - Фарап
        ascii_name: Farap
        geonamesid: 1219431
        latitude: 39.17139
        longitude: 63.60306
        name: Farap
        names_en: ~
        names_es: ~
        population: 14503
        timezone: Asia/Ashgabat
      - 
        alternate_names: 
          - Chardzha
          - Chardzhou
          - Chardzhui
          - Chardzhuy
        ascii_name: Turkmenabat
        geonamesid: 1219649
        latitude: 39.10139
        longitude: 63.575
        name: Türkmenabat
        names_en: 
          - Turkmenabat
          - Türkmenabat
        names_es: 
          - Türkmenabat
        population: 234817
        timezone: Asia/Ashgabat
    geonamesid: 1219651
    name: Lebap
    names_en: ~
    names_es: ~
