--- 
geonamesid: 298795
iso: TR
name: Turkey
names_en: 
  - Turkey
  - "Republic of Turkey"
names_es: 
  - Turquía
regions: 
  - 
    ascii_name: Yozgat
    cities: 
      - 
        alternate_names: 
          - Saralus
          - Yozgad
          - Yozgat
          - Yuzgat
        ascii_name: Yozgat
        geonamesid: 296562
        latitude: 39.82
        longitude: 34.80444
        name: Yozgat
        names_en: 
          - Yozgat
        names_es: 
          - Yozgat
        population: 87881
        timezone: Europe/Istanbul
      - 
        alternate_names: ~
        ascii_name: Yerkoy
        geonamesid: 296895
        latitude: 39.63806
        longitude: 34.46722
        name: Yerköy
        names_en: ~
        names_es: ~
        population: 35294
        timezone: Europe/Istanbul
      - 
        alternate_names: 
          - Fakili
          - Fakiliistasyonu
          - Fakılı
          - Fakılıistasyonu
        ascii_name: Yenifakili
        geonamesid: 297099
        latitude: 39.21142
        longitude: 35.00036
        name: Yenifakılı
        names_en: ~
        names_es: ~
        population: 11470
        timezone: Europe/Istanbul
      - 
        alternate_names: 
          - Buyukkohne
          - Büyükköhne
          - Kohne
          - Köhne
        ascii_name: Sorgun
        geonamesid: 300352
        latitude: 39.81012
        longitude: 35.18596
        name: Sorgun
        names_en: ~
        names_es: ~
        population: 62862
        timezone: Europe/Istanbul
      - 
        alternate_names: 
          - Hacisefaatli
          - Hacışefaatlı
          - Sefaatli
          - Şefaatli
        ascii_name: Sefaatli
        geonamesid: 301353
        latitude: 39.5043
        longitude: 34.7563
        name: Şefaatli
        names_en: ~
        names_es: ~
        population: 13922
        timezone: Europe/Istanbul
      - 
        alternate_names: 
          - Hamam
          - Sarikaya
          - Sarıkaya
        ascii_name: Sarikaya
        geonamesid: 301680
        latitude: 39.49361
        longitude: 35.37694
        name: Sarıkaya
        names_en: ~
        names_es: ~
        population: 0
        timezone: Europe/Istanbul
      - 
        alternate_names: 
          - Karamagara
          - Karamagra
          - Karamağara
          - Karamağra
        ascii_name: Saraykent
        geonamesid: 301829
        latitude: 39.69361
        longitude: 35.51111
        name: Saraykent
        names_en: ~
        names_es: ~
        population: 11175
        timezone: Europe/Istanbul
      - 
        alternate_names: 
          - Kadisehir
          - Kadisehri
          - Kadışehir
          - Kadışehri
        ascii_name: Kadisehri
        geonamesid: 310888
        latitude: 39.99568
        longitude: 35.79193
        name: Kadışehri
        names_en: ~
        names_es: ~
        population: 5722
        timezone: Europe/Istanbul
      - 
        alternate_names: 
          - Akdag
          - Akdağ
          - Cayiralan
          - Cayirse
        ascii_name: Cayiralan
        geonamesid: 319069
        latitude: 39.30278
        longitude: 35.64389
        name: Çayıralan
        names_en: ~
        names_es: ~
        population: 14734
        timezone: Europe/Istanbul
      - 
        alternate_names: ~
        ascii_name: Candir
        geonamesid: 319472
        latitude: 39.24446
        longitude: 35.51396
        name: Çandır
        names_en: ~
        names_es: ~
        population: 0
        timezone: Europe/Istanbul
      - 
        alternate_names: 
          - Bogazliyan
          - Boğazlıyan
        ascii_name: Bogazliyan
        geonamesid: 320946
        latitude: 39.18878
        longitude: 35.24537
        name: Boğazlıyan
        names_en: ~
        names_es: ~
        population: 0
        timezone: Europe/Istanbul
      - 
        alternate_names: 
          - Adagmadeni
          - Adağmadenı
          - Akdagmadeni
          - Akdağmadeni
        ascii_name: Akdagmadeni
        geonamesid: 324768
        latitude: 39.66028
        longitude: 35.88361
        name: Akdağmadeni
        names_en: ~
        names_es: ~
        population: 23048
        timezone: Europe/Istanbul
      - 
        alternate_names: 
          - Cekerek
          - Hacikoy
          - Hacıköy
          - Turkmenhacikoyu
        ascii_name: Cekerek
        geonamesid: 749392
        latitude: 40.07306
        longitude: 35.49472
        name: Çekerek
        names_en: ~
        names_es: ~
        population: 10585
        timezone: Europe/Istanbul
      - 
        alternate_names: 
          - Aydincik
          - Aydıncık
          - Eskikoy
          - Eskiköy
        ascii_name: Aydincik
        geonamesid: 751491
        latitude: 40.12727
        longitude: 35.28765
        name: Aydıncık
        names_en: ~
        names_es: ~
        population: 6760
        timezone: Europe/Istanbul
    geonamesid: 296560
    name: Yozgat
    names_en: 
      - "Yozgat Province"
      - Yozgat
    names_es: 
      - Yozgat
  - 
    ascii_name: Van
    cities: 
      - 
        alternate_names: 
          - Thospia
          - Urartu
          - Van
          - Wan
        ascii_name: Van
        geonamesid: 298117
        latitude: 38.49239
        longitude: 43.38311
        name: Van
        names_en: ~
        names_es: ~
        population: 371713
        timezone: Europe/Istanbul
      - 
        alternate_names: 
          - Edremit
          - Gumusdere
          - Gümüşdere
          - Sarmansuyu
        ascii_name: Sarmansuyu
        geonamesid: 301529
        latitude: 38.41803
        longitude: 43.23649
        name: Sarmansuyu
        names_en: ~
        names_es: ~
        population: 7464
        timezone: Europe/Istanbul
      - 
        alternate_names: 
          - Kazimpasa
          - Kâzımpaşa
          - Saray
        ascii_name: Saray
        geonamesid: 301855
        latitude: 38.64694
        longitude: 44.17167
        name: Saray
        names_en: ~
        names_es: ~
        population: 0
        timezone: Europe/Istanbul
      - 
        alternate_names: 
          - Karakalli
          - Karakallı
          - Karkalli
          - Karkallı
        ascii_name: Ozalp
        geonamesid: 303022
        latitude: 38.65477
        longitude: 43.99301
        name: Özalp
        names_en: ~
        names_es: ~
        population: 8249
        timezone: Europe/Istanbul
      - 
        alternate_names: 
          - Konalga
          - Martanis
        ascii_name: Konalga
        geonamesid: 306612
        latitude: 37.85988
        longitude: 43.09685
        name: Konalga
        names_en: ~
        names_es: ~
        population: 2395
        timezone: Europe/Istanbul
      - 
        alternate_names: 
          - Gurpinar
          - Gürpınar
          - Kigzi
          - Kığzı
        ascii_name: Gurpinar
        geonamesid: 313328
        latitude: 38.32606
        longitude: 43.41207
        name: Gürpınar
        names_en: ~
        names_es: ~
        population: 0
        timezone: Europe/Istanbul
      - 
        alternate_names: 
          - Gevas
          - Gevaş
          - Vastan
          - Vaston
        ascii_name: Gevas
        geonamesid: 314557
        latitude: 38.29681
        longitude: 43.10825
        name: Gevaş
        names_en: ~
        names_es: ~
        population: 11879
        timezone: Europe/Istanbul
      - 
        alternate_names: 
          - Arcis
          - Ercis
          - Erciş
        ascii_name: Ercis
        geonamesid: 315530
        latitude: 39.02869
        longitude: 43.35864
        name: Erciş
        names_en: ~
        names_es: ~
        population: 91915
        timezone: Europe/Istanbul
      - 
        alternate_names: 
          - Catak
          - Martanis
          - Satak
          - Sitak
        ascii_name: Catak
        geonamesid: 319345
        latitude: 38.00845
        longitude: 43.06502
        name: Çatak
        names_en: ~
        names_es: ~
        population: 0
        timezone: Europe/Istanbul
      - 
        alternate_names: 
          - Bayazitaga
          - Bayazıtağa
          - Caldiran
          - Çaldıran
        ascii_name: Caldiran
        geonamesid: 319823
        latitude: 39.14316
        longitude: 43.91068
        name: Çaldıran
        names_en: ~
        names_es: ~
        population: 0
        timezone: Europe/Istanbul
      - 
        alternate_names: 
          - "Bash Kaleh"
          - Bashkala
          - Baskale
          - Başkale
        ascii_name: Baskale
        geonamesid: 321940
        latitude: 38.04526
        longitude: 44.01718
        name: Başkale
        names_en: ~
        names_es: ~
        population: 14516
        timezone: Europe/Istanbul
      - 
        alternate_names: 
          - Bahcesara
          - Bahcesaray
          - Bahçesaray
          - Muks
        ascii_name: Bahcesaray
        geonamesid: 322324
        latitude: 38.12534
        longitude: 42.80674
        name: Bahçesaray
        names_en: ~
        names_es: ~
        population: 3731
        timezone: Europe/Istanbul
    geonamesid: 298113
    name: Van
    names_en: 
      - "Van Province"
      - Van
    names_es: 
      - "Provincia de Van"
  - 
    ascii_name: Usak
    cities: 
      - 
        alternate_names: 
          - Flaviopolis
          - Ouchak
          - Temenothyrae
          - Usak
        ascii_name: Usak
        geonamesid: 298299
        latitude: 38.67351
        longitude: 29.4058
        name: Uşak
        names_en: 
          - Uşak
        names_es: ~
        population: 152862
        timezone: Europe/Istanbul
      - 
        alternate_names: 
          - Gobek
          - Göbek
          - Ulubei
          - Ulubey
        ascii_name: Ulubey
        geonamesid: 298454
        latitude: 38.41987
        longitude: 29.29129
        name: Ulubey
        names_en: ~
        names_es: ~
        population: 5092
        timezone: Europe/Istanbul
      - 
        alternate_names: ~
        ascii_name: Sivasli
        geonamesid: 300616
        latitude: 38.49944
        longitude: 29.68361
        name: Sivaslı
        names_en: ~
        names_es: ~
        population: 7378
        timezone: Europe/Istanbul
      - 
        alternate_names: 
          - Karaballi
          - Karaballı
          - Karahal
          - Karahalla
        ascii_name: Karahalli
        geonamesid: 309821
        latitude: 38.32083
        longitude: 29.53028
        name: Karahallı
        names_en: ~
        names_es: ~
        population: 4948
        timezone: Europe/Istanbul
      - 
        alternate_names: ~
        ascii_name: Guellue
        geonamesid: 313713
        latitude: 38.26972
        longitude: 29.10806
        name: Güllü
        names_en: ~
        names_es: ~
        population: 2000
        timezone: Europe/Istanbul
      - 
        alternate_names: 
          - Esme
          - Eşme
          - ashmh
          - اشمه
        ascii_name: Esme
        geonamesid: 315183
        latitude: 38.39976
        longitude: 28.96905
        name: Eşme
        names_en: ~
        names_es: ~
        population: 11000
        timezone: Europe/Istanbul
      - 
        alternate_names: 
          - Banaz
          - Islamkoy
          - İslamköy
        ascii_name: Banaz
        geonamesid: 322051
        latitude: 38.73707
        longitude: 29.75194
        name: Banaz
        names_en: ~
        names_es: ~
        population: 17080
        timezone: Europe/Istanbul
    geonamesid: 298298
    name: Uşak
    names_en: 
      - "Uşak Province"
      - Uşak
    names_es: 
      - "Provincia de Usak"
  - 
    ascii_name: Sanliurfa
    cities: 
      - 
        alternate_names: 
          - Antoninopolis
          - Veeranshahr
          - Viransehir
          - Viranshekhire
        ascii_name: Viransehir
        geonamesid: 298033
        latitude: 37.23528
        longitude: 39.76306
        name: Viranşehir
        names_en: 
          - Viranşehir
        names_es: ~
        population: 154163
        timezone: Europe/Istanbul
      - 
        alternate_names: 
          - Antiocheia
          - Edesa
          - Edessa
          - Ehdessa
        ascii_name: Sanliurfa
        geonamesid: 298333
        latitude: 37.16708
        longitude: 38.79392
        name: Şanlıurfa
        names_en: 
          - Sanliurfa
        names_es: 
          - Edesa
        population: 449549
        timezone: Europe/Istanbul
      - 
        alternate_names: 
          - Suruc
          - Suruch
          - Suruç
          - Syuryuch
        ascii_name: Suruc
        geonamesid: 300075
        latitude: 36.97614
        longitude: 38.42495
        name: Suruç
        names_en: ~
        names_es: ~
        population: 46694
        timezone: Europe/Istanbul
      - 
        alternate_names: 
          - Severek
          - Siverek
          - Sivereke
          - Suverek
        ascii_name: Siverek
        geonamesid: 300614
        latitude: 37.75502
        longitude: 39.31667
        name: Siverek
        names_en: ~
        names_es: ~
        population: 175341
        timezone: Europe/Istanbul
      - 
        alternate_names: 
          - Seksenoren
          - Seksenveren
          - Seksenviran
          - Seksenören
        ascii_name: Seksenoren
        geonamesid: 301279
        latitude: 36.97252
        longitude: 39.07484
        name: Seksenören
        names_en: ~
        names_es: ~
        population: 1054
        timezone: Europe/Istanbul
      - 
        alternate_names: 
          - Ille
          - Oncul
          - Öncül
          - İlle
        ascii_name: Oncul
        geonamesid: 303502
        latitude: 36.71222
        longitude: 39.02917
        name: Öncül
        names_en: ~
        names_es: ~
        population: 1585
        timezone: Europe/Istanbul
      - 
        alternate_names: 
          - Hirbetcay
          - Hırbetçay
          - Muratli
          - Muratlı
        ascii_name: Muratli
        geonamesid: 304110
        latitude: 36.96167
        longitude: 40.10056
        name: Muratlı
        names_en: ~
        names_es: ~
        population: 2064
        timezone: Europe/Istanbul
      - 
        alternate_names: ~
        ascii_name: Minare
        geonamesid: 304341
        latitude: 36.93083
        longitude: 39.00444
        name: Minare
        names_en: ~
        names_es: ~
        population: 1240
        timezone: Europe/Istanbul
      - 
        alternate_names: 
          - Hizan
          - Khizan
          - Meydankapi
          - Meydankapı
        ascii_name: Meydankapi
        geonamesid: 304440
        latitude: 36.78278
        longitude: 39.15833
        name: Meydankapı
        names_en: ~
        names_es: ~
        population: 1635
        timezone: Europe/Istanbul
      - 
        alternate_names: 
          - Cukurgirlevik
          - Girlavik
          - Gırlavik
          - Magarali
        ascii_name: Magarali
        geonamesid: 304998
        latitude: 36.96889
        longitude: 38.07444
        name: Mağaralı
        names_en: ~
        names_es: ~
        population: 1276
        timezone: Europe/Istanbul
      - 
        alternate_names: 
          - Hilvan
          - Karacorun
          - Karacurum
          - Karacurun
        ascii_name: Hilvan
        geonamesid: 312134
        latitude: 37.58686
        longitude: 38.95505
        name: Hilvan
        names_en: ~
        names_es: ~
        population: 16990
        timezone: Europe/Istanbul
      - 
        alternate_names: 
          - Altunbasak
          - Altunbaşak
          - Altynbashak
          - Charan
        ascii_name: Altinbasak
        geonamesid: 312531
        latitude: 36.86
        longitude: 39.03139
        name: Altınbaşak
        names_en: ~
        names_es: ~
        population: 13640
        timezone: Europe/Istanbul
      - 
        alternate_names: 
          - Han
        ascii_name: Han
        geonamesid: 312699
        latitude: 36.95081
        longitude: 40.19855
        name: Han
        names_en: ~
        names_es: ~
        population: 2123
        timezone: Europe/Istanbul
      - 
        alternate_names: 
          - Halfeti
        ascii_name: Halfeti
        geonamesid: 312862
        latitude: 37.24729
        longitude: 37.86896
        name: Halfeti
        names_en: ~
        names_es: ~
        population: 3261
        timezone: Europe/Istanbul
      - 
        alternate_names: 
          - Guneren
          - Güneren
          - Sarkimugayre
          - Sharkymugayre
        ascii_name: Guneren
        geonamesid: 313500
        latitude: 36.73417
        longitude: 39.08861
        name: Güneren
        names_en: ~
        names_es: ~
        population: 3185
        timezone: Europe/Istanbul
      - 
        alternate_names: ~
        ascii_name: Dorumali
        geonamesid: 316270
        latitude: 36.805
        longitude: 38.85306
        name: Dorumali
        names_en: ~
        names_es: ~
        population: 1243
        timezone: Europe/Istanbul
      - 
        alternate_names: 
          - Cylanpinar
          - Dzheylanpynar
          - Raselain
          - Rass-el-Ain
        ascii_name: Ceylanpinar
        geonamesid: 318668
        latitude: 36.84722
        longitude: 40.05
        name: Ceylanpınar
        names_en: ~
        names_es: ~
        population: 31488
        timezone: Europe/Istanbul
      - 
        alternate_names: 
          - Bozova
          - Hovenk
          - Huvek
          - Hövenk
        ascii_name: Bozova
        geonamesid: 320581
        latitude: 37.3625
        longitude: 38.52667
        name: Bozova
        names_en: ~
        names_es: ~
        population: 21502
        timezone: Europe/Istanbul
      - 
        alternate_names: 
          - Apamea
          - Birecik
          - Biredzhik
          - Birejik
        ascii_name: Birecik
        geonamesid: 321062
        latitude: 37.02944
        longitude: 37.99028
        name: Birecik
        names_en: ~
        names_es: ~
        population: 44284
        timezone: Europe/Istanbul
      - 
        alternate_names: 
          - "Asagi Telfidan"
          - Asagibegdes
          - Ashagy-Tel'fidan
          - Ashagy-Tel’fidan
        ascii_name: Asagibegdes
        geonamesid: 323457
        latitude: 36.81472
        longitude: 38.91917
        name: Aşağıbeğdeş
        names_en: ~
        names_es: ~
        population: 1119
        timezone: Europe/Istanbul
      - 
        alternate_names: 
          - Akcakale
          - Akcekale
          - Akchakale
          - Akçakale
        ascii_name: Akcakale
        geonamesid: 324944
        latitude: 36.71111
        longitude: 38.9475
        name: Akçakale
        names_en: ~
        names_es: ~
        population: 32114
        timezone: Europe/Istanbul
      - 
        alternate_names: ~
        ascii_name: Kucukkendirci
        geonamesid: 436324
        latitude: 36.90583
        longitude: 38.34611
        name: Küçükkendirci
        names_en: ~
        names_es: ~
        population: 1535
        timezone: Europe/Istanbul
      - 
        alternate_names: ~
        ascii_name: Yamacalti
        geonamesid: 436399
        latitude: 36.97139
        longitude: 38.94222
        name: Yamaçaltı
        names_en: ~
        names_es: ~
        population: 1150
        timezone: Europe/Istanbul
      - 
        alternate_names: ~
        ascii_name: Sevimli
        geonamesid: 436443
        latitude: 36.78778
        longitude: 38.91472
        name: Sevimli
        names_en: ~
        names_es: ~
        population: 1116
        timezone: Europe/Istanbul
      - 
        alternate_names: ~
        ascii_name: Akdiken
        geonamesid: 439098
        latitude: 36.725
        longitude: 39.30861
        name: Akdiken
        names_en: ~
        names_es: ~
        population: 1119
        timezone: Europe/Istanbul
      - 
        alternate_names: ~
        ascii_name: Yalintas
        geonamesid: 439099
        latitude: 36.73583
        longitude: 39.39389
        name: Yalıntaş
        names_en: ~
        names_es: ~
        population: 1146
        timezone: Europe/Istanbul
      - 
        alternate_names: ~
        ascii_name: Pekmezli
        geonamesid: 439101
        latitude: 36.75361
        longitude: 39.45
        name: Pekmezli
        names_en: ~
        names_es: ~
        population: 4300
        timezone: Europe/Istanbul
      - 
        alternate_names: ~
        ascii_name: Koyunluca
        geonamesid: 439119
        latitude: 36.82278
        longitude: 39.34333
        name: Koyunluca
        names_en: ~
        names_es: ~
        population: 1028
        timezone: Europe/Istanbul
      - 
        alternate_names: 
          - "Yukari Tasyalak"
          - "Yukarı Taşyalak"
        ascii_name: "Yukari Tasyalak"
        geonamesid: 439215
        latitude: 36.96306
        longitude: 40.13194
        name: "Yukarı Taşyalak"
        names_en: ~
        names_es: ~
        population: 1268
        timezone: Europe/Istanbul
      - 
        alternate_names: 
          - Isiklar
          - Işıklar
        ascii_name: Isiklar
        geonamesid: 439221
        latitude: 36.99417
        longitude: 40.12639
        name: Işıklar
        names_en: ~
        names_es: ~
        population: 1164
        timezone: Europe/Istanbul
    geonamesid: 298332
    name: Şanlıurfa
    names_en: 
      - "Şanlıurfa Province"
      - Şanlıurfa
    names_es: 
      - "Provincia de Sanliurfa"
  - 
    ascii_name: Tunceli
    cities: 
      - 
        alternate_names: 
          - Kalan
          - Mameki
          - Mamiki
          - Tunceli
        ascii_name: Tunceli
        geonamesid: 298846
        latitude: 39.10829
        longitude: 39.54711
        name: Tunceli
        names_en: ~
        names_es: ~
        population: 29062
        timezone: Europe/Istanbul
      - 
        alternate_names: 
          - Plumur
          - Plurnur
          - Plümür
          - Pulumer
        ascii_name: Pulumer
        geonamesid: 302469
        latitude: 39.48644
        longitude: 39.89884
        name: Pulumer
        names_en: ~
        names_es: ~
        population: 1759
        timezone: Europe/Istanbul
      - 
        alternate_names: ~
        ascii_name: Pertek
        geonamesid: 302724
        latitude: 38.86633
        longitude: 39.32684
        name: Pertek
        names_en: ~
        names_es: ~
        population: 6837
        timezone: Europe/Istanbul
      - 
        alternate_names: ~
        ascii_name: Nazimiye
        geonamesid: 303872
        latitude: 39.17986
        longitude: 39.82843
        name: Nazımiye
        names_en: ~
        names_es: ~
        population: 3396
        timezone: Europe/Istanbul
      - 
        alternate_names: 
          - Mazgirt
          - Mazkirt
        ascii_name: Mazgirt
        geonamesid: 304738
        latitude: 39.02004
        longitude: 39.60604
        name: Mazgirt
        names_en: ~
        names_es: ~
        population: 2704
        timezone: Europe/Istanbul
      - 
        alternate_names: 
          - Dersim
          - Hozat
        ascii_name: Hozat
        geonamesid: 311869
        latitude: 39.10829
        longitude: 39.22127
        name: Hozat
        names_en: ~
        names_es: ~
        population: 8105
        timezone: Europe/Istanbul
    geonamesid: 298845
    name: Tunceli
    names_en: 
      - "Tunceli Province"
      - Tunceli
    names_es: 
      - "Provincia de Tunceli"
  - 
    ascii_name: Sivas
    cities: 
      - 
        alternate_names: 
          - Kocgiri
          - Koçgiri
          - Zara
        ascii_name: Zara
        geonamesid: 295982
        latitude: 39.89778
        longitude: 37.75833
        name: Zara
        names_en: ~
        names_es: ~
        population: 19797
        timezone: Europe/Istanbul
      - 
        alternate_names: 
          - Yenihan
          - Yildizeli
          - Yıldızeli
        ascii_name: Yildizeli
        geonamesid: 296708
        latitude: 39.86639
        longitude: 36.59889
        name: Yıldızeli
        names_en: ~
        names_es: ~
        population: 0
        timezone: Europe/Istanbul
      - 
        alternate_names: ~
        ascii_name: Ulas
        geonamesid: 298471
        latitude: 39.44492
        longitude: 37.039
        name: Ulaş
        names_en: ~
        names_es: ~
        population: 3879
        timezone: Europe/Istanbul
      - 
        alternate_names: 
          - Megalopolis
          - Sebastia
          - Sevas
          - Sivas
        ascii_name: Sivas
        geonamesid: 300619
        latitude: 39.74833
        longitude: 37.01611
        name: Sivas
        names_en: 
          - Sivas
        names_es: 
          - Sivas
        population: 264022
        timezone: Europe/Istanbul
      - 
        alternate_names: 
          - Sarkisla
          - Tonus
          - Şarkışla
        ascii_name: Sarkisla
        geonamesid: 301537
        latitude: 39.35186
        longitude: 36.40976
        name: Şarkışla
        names_en: ~
        names_es: ~
        population: 23800
        timezone: Europe/Istanbul
      - 
        alternate_names: 
          - Kangal
        ascii_name: Kangal
        geonamesid: 310554
        latitude: 39.23354
        longitude: 37.39111
        name: Kangal
        names_en: ~
        names_es: ~
        population: 11888
        timezone: Europe/Istanbul
      - 
        alternate_names: 
          - Hamidabad
          - Hamidabat
          - Hamilabat
          - Hamitabad
        ascii_name: Imranli
        geonamesid: 311433
        latitude: 39.87544
        longitude: 38.11358
        name: İmranlı
        names_en: ~
        names_es: ~
        population: 7192
        timezone: Europe/Istanbul
      - 
        alternate_names: 
          - Hafik
          - Kochisar
          - Koçhisar
        ascii_name: Hafik
        geonamesid: 312894
        latitude: 39.85639
        longitude: 37.38639
        name: Hafik
        names_en: ~
        names_es: ~
        population: 3462
        timezone: Europe/Istanbul
      - 
        alternate_names: 
          - Gurun
          - Gürün
          - Inonu
          - İnönü
        ascii_name: Gurun
        geonamesid: 313314
        latitude: 38.72225
        longitude: 37.27097
        name: Gürün
        names_en: ~
        names_es: ~
        population: 12715
        timezone: Europe/Istanbul
      - 
        alternate_names: ~
        ascii_name: Gemerek
        geonamesid: 314665
        latitude: 39.18342
        longitude: 36.07189
        name: Gemerek
        names_en: ~
        names_es: ~
        population: 16916
        timezone: Europe/Istanbul
      - 
        alternate_names: 
          - Aphrike
          - Difrike
          - Divirgi
          - Divrigi
        ascii_name: Divrigi
        geonamesid: 316544
        latitude: 39.371
        longitude: 38.1137
        name: Divriği
        names_en: ~
        names_es: ~
        population: 13139
        timezone: Europe/Istanbul
      - 
        alternate_names: 
          - Altinyayla
          - Altınyayla
          - Tonus
        ascii_name: Altinyayla
        geonamesid: 323886
        latitude: 39.27249
        longitude: 36.75098
        name: Altınyayla
        names_en: ~
        names_es: ~
        population: 5674
        timezone: Europe/Istanbul
      - 
        alternate_names: 
          - Endires
          - Endiryas
          - SUSHEKHRI
          - Susehiri
        ascii_name: Susehri
        geonamesid: 739209
        latitude: 40.16444
        longitude: 38.08667
        name: Suşehri
        names_en: 
          - Suşehri
        names_es: ~
        population: 25820
        timezone: Europe/Istanbul
      - 
        alternate_names: 
          - KOJUL'KHISAR
          - Koyulhisar
          - Koyunhisar
          - Misaz
        ascii_name: Koyulhisar
        geonamesid: 742499
        latitude: 40.3025
        longitude: 37.83111
        name: Koyulhisar
        names_en: 
          - Koyulhisar
        names_es: ~
        population: 5495
        timezone: Europe/Istanbul
      - 
        alternate_names: 
          - Agvanis
          - Ağvanis
          - Goelova
          - Golova
        ascii_name: Golova
        geonamesid: 746603
        latitude: 40.06194
        longitude: 38.60667
        name: Gölova
        names_en: 
          - Gölova
        names_es: ~
        population: 4809
        timezone: Europe/Istanbul
      - 
        alternate_names: 
          - Dogansar
          - Doganshar
          - Doğanşar
          - Ipsala
        ascii_name: Dogansar
        geonamesid: 747986
        latitude: 40.21667
        longitude: 37.53333
        name: Doğanşar
        names_en: 
          - Doğanşar
        names_es: ~
        population: 3781
        timezone: Europe/Istanbul
      - 
        alternate_names: 
          - Aksu
          - "Aksu Koyu"
          - "Aksu Köyü"
          - Аксу
        ascii_name: Aksu
        geonamesid: 752359
        latitude: 40.08948
        longitude: 38.03523
        name: Aksu
        names_en: 
          - Aksu
        names_es: ~
        population: 10500
        timezone: Europe/Istanbul
      - 
        alternate_names: 
          - Akincilar
          - Akyndzhilar
          - Akıncılar
          - Ezbider
        ascii_name: Akincilar
        geonamesid: 752476
        latitude: 40.07972
        longitude: 38.34806
        name: Akıncılar
        names_en: 
          - Akıncılar
        names_es: ~
        population: 4779
        timezone: Europe/Istanbul
    geonamesid: 300617
    name: Sivas
    names_en: 
      - "Sivas Province"
      - Sivas
    names_es: 
      - "Provincia de Sivas"
  - 
    ascii_name: Siirt
    cities: 
      - 
        alternate_names: 
          - Gundukevir
          - Guntkevir
          - Gyundyukevir
          - Gündükevir
        ascii_name: Tasli
        geonamesid: 299724
        latitude: 37.99389
        longitude: 42.14167
        name: Taşlı
        names_en: ~
        names_es: ~
        population: 1029
        timezone: Europe/Istanbul
      - 
        alternate_names: 
          - Kufra
          - Kufre
          - Küfre
          - Sirvan
        ascii_name: Sirvan
        geonamesid: 300632
        latitude: 38.0624
        longitude: 42.02918
        name: Şirvan
        names_en: ~
        names_es: ~
        population: 5510
        timezone: Europe/Istanbul
      - 
        alternate_names: 
          - Sairt
          - Siirt
          - Sirt
          - Sîrt
        ascii_name: Siirt
        geonamesid: 300822
        latitude: 37.93262
        longitude: 41.94025
        name: Siirt
        names_en: 
          - Siirt
        names_es: ~
        population: 114034
        timezone: Europe/Istanbul
      - 
        alternate_names: 
          - Hashir
          - Hashır
          - Pervari
        ascii_name: Pervari
        geonamesid: 302720
        latitude: 37.93573
        longitude: 42.54927
        name: Pervari
        names_en: ~
        names_es: ~
        population: 5974
        timezone: Europe/Istanbul
      - 
        alternate_names: 
          - Palamut
          - Palamutlu
          - Sas
          - Shoz
        ascii_name: Palamutlu
        geonamesid: 302924
        latitude: 37.89583
        longitude: 42.2025
        name: Palamutlu
        names_en: ~
        names_es: ~
        population: 1368
        timezone: Europe/Istanbul
      - 
        alternate_names: 
          - Okcular
          - Okçular
          - Tiri
        ascii_name: Okcular
        geonamesid: 303626
        latitude: 37.74111
        longitude: 42.43833
        name: Okçular
        names_en: ~
        names_es: ~
        population: 1002
        timezone: Europe/Istanbul
      - 
        alternate_names: 
          - Kurtalan
          - Misirdic
          - Misric
          - Mısrıç
        ascii_name: Kurtalan
        geonamesid: 305532
        latitude: 37.92717
        longitude: 41.70282
        name: Kurtalan
        names_en: ~
        names_es: ~
        population: 32114
        timezone: Europe/Istanbul
      - 
        alternate_names: 
          - Kayabaglar
          - Kayabağlar
          - Zokayit
          - Zokayıt
        ascii_name: Kayabaglar
        geonamesid: 308697
        latitude: 37.9825
        longitude: 41.66528
        name: Kayabağlar
        names_en: ~
        names_es: ~
        population: 5601
        timezone: Europe/Istanbul
      - 
        alternate_names: 
          - Gulecler
          - Güleçler
          - Hanuk
          - Hanük
        ascii_name: Gulecler
        geonamesid: 313742
        latitude: 37.95333
        longitude: 42.53861
        name: Güleçler
        names_en: ~
        names_es: ~
        population: 1102
        timezone: Europe/Istanbul
      - 
        alternate_names: 
          - Gozpinar
          - Gözpınar
          - Hishis
          - Hıshıs
        ascii_name: Gozpinar
        geonamesid: 313825
        latitude: 37.97826
        longitude: 41.45701
        name: Gözpınar
        names_en: ~
        names_es: ~
        population: 3574
        timezone: Europe/Istanbul
      - 
        alternate_names: 
          - Gokcekoru
          - Gökçekoru
          - Kerafon
          - Kerefan
        ascii_name: Gokcekoru
        geonamesid: 314324
        latitude: 37.97215
        longitude: 42.439
        name: Gökçekoru
        names_en: ~
        names_es: ~
        population: 1045
        timezone: Europe/Istanbul
      - 
        alternate_names: 
          - Civankan
          - Civinikan
          - Civinikân
          - Dzhivinikyan
        ascii_name: Civankan
        geonamesid: 314350
        latitude: 37.90583
        longitude: 41.87333
        name: Civankan
        names_en: ~
        names_es: ~
        population: 2583
        timezone: Europe/Istanbul
      - 
        alternate_names: 
          - Gokbudak
          - Gökbudak
          - Sanuh
        ascii_name: Gokbudak
        geonamesid: 314373
        latitude: 37.90626
        longitude: 42.64874
        name: Gökbudak
        names_en: ~
        names_es: ~
        population: 1066
        timezone: Europe/Istanbul
      - 
        alternate_names: 
          - Dih
          - Erukh
          - Irs
          - Rekh
        ascii_name: Eruh
        geonamesid: 315378
        latitude: 37.75167
        longitude: 42.18111
        name: Eruh
        names_en: ~
        names_es: ~
        population: 7868
        timezone: Europe/Istanbul
      - 
        alternate_names: 
          - Dogan
          - Dogankoy
          - Doğan
          - Doğanköy
        ascii_name: Dogankoy
        geonamesid: 316466
        latitude: 37.75277
        longitude: 42.79801
        name: Doğanköy
        names_en: ~
        names_es: ~
        population: 1969
        timezone: Europe/Istanbul
      - 
        alternate_names: 
          - Doganca
          - Dogandzha
          - Dogankoy
          - Doğanca
        ascii_name: Doganca
        geonamesid: 316497
        latitude: 37.80833
        longitude: 42.34
        name: Doğanca
        names_en: ~
        names_es: ~
        population: 1969
        timezone: Europe/Istanbul
      - 
        alternate_names: 
          - Dagdosu
          - Dağdöşü
          - Serhata
          - Serhatta
        ascii_name: Serhatta
        geonamesid: 317762
        latitude: 37.66528
        longitude: 42.14278
        name: Serhatta
        names_en: ~
        names_es: ~
        population: 1022
        timezone: Europe/Istanbul
      - 
        alternate_names: 
          - Bozhuyuk
          - Bozhüyük
          - Taliban
          - "Teliba Koyu"
        ascii_name: Taliban
        geonamesid: 320635
        latitude: 37.98125
        longitude: 41.41221
        name: Taliban
        names_en: ~
        names_es: ~
        population: 1140
        timezone: Europe/Istanbul
      - 
        alternate_names: 
          - Begendik
          - Beğendik
          - Bidar
        ascii_name: Begendik
        geonamesid: 321673
        latitude: 37.97556
        longitude: 42.64417
        name: Beğendik
        names_en: ~
        names_es: ~
        population: 2560
        timezone: Europe/Istanbul
      - 
        alternate_names: 
          - Baykan
          - Havil
          - Havilhanlari
          - Havilhanları
        ascii_name: Baykan
        geonamesid: 321750
        latitude: 38.16266
        longitude: 41.78333
        name: Baykan
        names_en: ~
        names_es: ~
        population: 11346
        timezone: Europe/Istanbul
      - 
        alternate_names: 
          - Ayni
          - Aynı
          - Baggoze
          - Bağgöze
        ascii_name: Lodi
        geonamesid: 322508
        latitude: 37.70917
        longitude: 41.91611
        name: Lodi
        names_en: ~
        names_es: ~
        population: 1130
        timezone: Europe/Istanbul
      - 
        alternate_names: 
          - Aydinlar
          - Aydınlar
          - Tillo
        ascii_name: Aydinlar
        geonamesid: 322810
        latitude: 37.94911
        longitude: 42.0121
        name: Aydınlar
        names_en: ~
        names_es: ~
        population: 3052
        timezone: Europe/Istanbul
    geonamesid: 300821
    name: Siirt
    names_en: 
      - "Siirt Province"
      - Siirt
    names_es: 
      - "Provincia de Siirt"
  - 
    ascii_name: Nigde
    cities: 
      - 
        alternate_names: 
          - Nigdah
          - Nigde
          - Nigdeh
          - Niğde
        ascii_name: Nigde
        geonamesid: 303827
        latitude: 37.96583
        longitude: 34.67935
        name: Niğde
        names_en: 
          - Niğde
        names_es: ~
        population: 91039
        timezone: Europe/Istanbul
      - 
        alternate_names: 
          - Bor
          - Бор
        ascii_name: Bor
        geonamesid: 320871
        latitude: 37.89056
        longitude: 34.55889
        name: Bor
        names_en: ~
        names_es: ~
        population: 32435
        timezone: Europe/Istanbul
      - 
        alternate_names: 
          - Altinhisar
          - Altunhisar
          - Altınhisar
        ascii_name: Altunhisar
        geonamesid: 323927
        latitude: 37.99159
        longitude: 34.37334
        name: Altunhisar
        names_en: ~
        names_es: ~
        population: 3658
        timezone: Europe/Istanbul
    geonamesid: 303826
    name: Niğde
    names_en: ~
    names_es: ~
  - 
    ascii_name: Nevsehir
    cities: 
      - 
        alternate_names: 
          - Urgub
          - Urgup
          - Ürgüp
        ascii_name: Urgub
        geonamesid: 298326
        latitude: 38.6296
        longitude: 34.91198
        name: Urgub
        names_en: ~
        names_es: ~
        population: 16642
        timezone: Europe/Istanbul
      - 
        alternate_names: 
          - Muskara
          - Muşkara
          - Nevsehir
          - Nevshehr
        ascii_name: Nevsehir
        geonamesid: 303831
        latitude: 38.625
        longitude: 34.71222
        name: Nevşehir
        names_en: 
          - Nevşehir
        names_es: 
          - Nevşehir
        population: 75527
        timezone: Europe/Istanbul
      - 
        alternate_names: ~
        ascii_name: Kozakli
        geonamesid: 306116
        latitude: 39.21643
        longitude: 34.84909
        name: Kozaklı
        names_en: ~
        names_es: ~
        population: 7786
        timezone: Europe/Istanbul
      - 
        alternate_names: 
          - Hacibektas
          - Hacıbektaş
          - Karabuyuk
          - Karabüyük
        ascii_name: Hacibektas
        geonamesid: 313110
        latitude: 38.94077
        longitude: 34.5577
        name: Hacıbektaş
        names_en: ~
        names_es: ~
        population: 6873
        timezone: Europe/Istanbul
      - 
        alternate_names: 
          - Arapsun
          - Arebsun
          - Gulsehir
          - Gülşehir
        ascii_name: Gulsehir
        geonamesid: 313658
        latitude: 38.74594
        longitude: 34.62524
        name: Gülşehir
        names_en: ~
        names_es: ~
        population: 9740
        timezone: Europe/Istanbul
      - 
        alternate_names: 
          - Goereme
          - "Goereme Tarihi Milli Parki"
          - Goreme
          - Göreme
        ascii_name: Goereme
        geonamesid: 313947
        latitude: 38.64861
        longitude: 34.86389
        name: Göreme
        names_en: 
          - Göreme
        names_es: 
          - Göreme
        population: 6350
        timezone: Europe/Istanbul
      - 
        alternate_names: 
          - Derinkuyu
          - Melegobu
          - Melegubu
          - Melegöbü
        ascii_name: Derinkuyu
        geonamesid: 316877
        latitude: 38.3751
        longitude: 34.73419
        name: Derinkuyu
        names_en: ~
        names_es: ~
        population: 12408
        timezone: Europe/Istanbul
      - 
        alternate_names: ~
        ascii_name: Avanos
        geonamesid: 322965
        latitude: 38.715
        longitude: 34.84667
        name: Avanos
        names_en: ~
        names_es: ~
        population: 12833
        timezone: Europe/Istanbul
      - 
        alternate_names: 
          - Acigol
          - Acıgöl
          - Dobada
        ascii_name: Dobada
        geonamesid: 325449
        latitude: 38.55028
        longitude: 34.50917
        name: Dobada
        names_en: ~
        names_es: ~
        population: 6749
        timezone: Europe/Istanbul
    geonamesid: 303830
    name: Nevşehir
    names_en: ~
    names_es: ~
  - 
    ascii_name: Mus
    cities: 
      - 
        alternate_names: 
          - Gumgum
          - Gümgüm
          - Varto
        ascii_name: Varto
        geonamesid: 298088
        latitude: 39.17321
        longitude: 41.45593
        name: Varto
        names_en: ~
        names_es: ~
        population: 18691
        timezone: Europe/Istanbul
      - 
        alternate_names: 
          - Mus
          - Mush
          - Muş
          - Муш
        ascii_name: Mus
        geonamesid: 304081
        latitude: 38.74525
        longitude: 41.50693
        name: Muş
        names_en: ~
        names_es: ~
        population: 82536
        timezone: Europe/Istanbul
      - 
        alternate_names: 
          - Kale
          - Malazgirt
          - Malazkirt
          - Malâzkirt
        ascii_name: Malazgirt
        geonamesid: 304916
        latitude: 39.14265
        longitude: 42.54008
        name: Malazgirt
        names_en: ~
        names_es: ~
        population: 26108
        timezone: Europe/Istanbul
      - 
        alternate_names: ~
        ascii_name: Korkut
        geonamesid: 306476
        latitude: 38.73908
        longitude: 41.78216
        name: Korkut
        names_en: ~
        names_es: ~
        population: 8078
        timezone: Europe/Istanbul
      - 
        alternate_names: ~
        ascii_name: Haskoy
        geonamesid: 312416
        latitude: 38.68333
        longitude: 41.68944
        name: Hasköy
        names_en: ~
        names_es: ~
        population: 0
        timezone: Europe/Istanbul
      - 
        alternate_names: ~
        ascii_name: Bulanik
        geonamesid: 320448
        latitude: 39.09292
        longitude: 42.27031
        name: Bulanık
        names_en: ~
        names_es: ~
        population: 31430
        timezone: Europe/Istanbul
    geonamesid: 304041
    name: Muş
    names_en: 
      - "Muş Province"
      - Muş
    names_es: 
      - "Provincia de Muş"
  - 
    ascii_name: Mugla
    cities: 
      - 
        alternate_names: 
          - Ahikoy
          - Ahiköy
          - Yatagan
          - Yatağan
        ascii_name: Yatagan
        geonamesid: 297564
        latitude: 37.34026
        longitude: 28.14279
        name: Yatağan
        names_en: ~
        names_es: ~
        population: 19020
        timezone: Europe/Istanbul
      - 
        alternate_names: ~
        ascii_name: Ula
        geonamesid: 298485
        latitude: 37.10491
        longitude: 28.41667
        name: Ula
        names_en: ~
        names_es: ~
        population: 5275
        timezone: Europe/Istanbul
      - 
        alternate_names: ~
        ascii_name: Ortaca
        geonamesid: 303354
        latitude: 36.82944
        longitude: 28.77083
        name: Ortaca
        names_en: ~
        names_es: ~
        population: 19741
        timezone: Europe/Istanbul
      - 
        alternate_names: 
          - Mentese
          - Menteshe
          - Mobolla
          - Mughla
        ascii_name: Mugla
        geonamesid: 304184
        latitude: 37.21807
        longitude: 28.3665
        name: Muğla
        names_en: ~
        names_es: ~
        population: 48183
        timezone: Europe/Istanbul
      - 
        alternate_names: 
          - Milas
          - Mylasa
          - Милас
        ascii_name: Milas
        geonamesid: 304355
        latitude: 37.31639
        longitude: 27.78389
        name: Milas
        names_en: ~
        names_es: ~
        population: 43193
        timezone: Europe/Istanbul
      - 
        alternate_names: 
          - Mararis
          - Marmarice
          - Marmaris
          - Physcus
        ascii_name: Marmaris
        geonamesid: 304782
        latitude: 36.855
        longitude: 28.27417
        name: Marmaris
        names_en: 
          - Marmaris
        names_es: 
          - Marmaris
        population: 33731
        timezone: Europe/Istanbul
      - 
        alternate_names: 
          - Gocek
          - Gochek
          - Göcek
          - Kocek
        ascii_name: Goecek
        geonamesid: 306859
        latitude: 36.75818
        longitude: 28.92816
        name: Göcek
        names_en: ~
        names_es: ~
        population: 4500
        timezone: Europe/Istanbul
      - 
        alternate_names: 
          - Kavakdere
          - Kavaklidere
          - Kavaklıdere
        ascii_name: Kavaklidere
        geonamesid: 308776
        latitude: 37.44463
        longitude: 28.36276
        name: Kavaklıdere
        names_en: ~
        names_es: ~
        population: 3466
        timezone: Europe/Istanbul
      - 
        alternate_names: 
          - Kargifoca
          - Kargıfoca
          - Pirnaz
          - Pırnaz
        ascii_name: Kargi
        geonamesid: 309131
        latitude: 36.70132
        longitude: 29.07557
        name: Kargı
        names_en: ~
        names_es: ~
        population: 1163
        timezone: Europe/Istanbul
      - 
        alternate_names: 
          - Fethieh
          - Fethiye
          - Fethy
          - Fetiye
        ascii_name: Fethiye
        geonamesid: 314967
        latitude: 36.62167
        longitude: 29.11639
        name: Fethiye
        names_en: ~
        names_es: ~
        population: 60437
        timezone: Europe/Istanbul
      - 
        alternate_names: 
          - Datca
          - Datça
          - Resadiye
          - Reşadiye
        ascii_name: Datca
        geonamesid: 317543
        latitude: 36.73778
        longitude: 27.68417
        name: Datça
        names_en: ~
        names_es: ~
        population: 10121
        timezone: Europe/Istanbul
      - 
        alternate_names: 
          - Dal'jan
          - Dalyan
          - Dalyankoy
          - Dalyanköy
        ascii_name: Dalyan
        geonamesid: 317681
        latitude: 36.83429
        longitude: 28.6446
        name: Dalyan
        names_en: ~
        names_es: ~
        population: 5000
        timezone: Europe/Istanbul
      - 
        alternate_names: 
          - Bodrum
          - Bodurum
          - Budrum
          - Halicarnassus
        ascii_name: Bodrum
        geonamesid: 320995
        latitude: 37.03833
        longitude: 27.42917
        name: Bodrum
        names_en: 
          - Bodrum
        names_es: 
          - Bodrum
        population: 39317
        timezone: Europe/Istanbul
      - 
        alternate_names: 
          - Dalaman
        ascii_name: Dalaman
        geonamesid: 447273
        latitude: 36.76591
        longitude: 28.8028
        name: Dalaman
        names_en: ~
        names_es: ~
        population: 19292
        timezone: Europe/Istanbul
      - 
        alternate_names: 
          - Sarigerme
          - Саригерме
        ascii_name: Sarigerme
        geonamesid: 6692524
        latitude: 36.71549
        longitude: 28.70436
        name: Sarigerme
        names_en: 
          - Sarigerme
        names_es: ~
        population: 16000
        timezone: Europe/Istanbul
      - 
        alternate_names: 
          - Oljudeniz
          - Oludeniz
          - Олюдениз
        ascii_name: OEluedeniz
        geonamesid: 6692526
        latitude: 36.56674
        longitude: 29.14467
        name: Ölüdeniz
        names_en: 
          - Oludeniz
        names_es: 
          - Oludeniz
        population: 2748
        timezone: Europe/Istanbul
      - 
        alternate_names: 
          - Janyklar
          - Yaniklar
          - Yanıklar
          - Яныклар
        ascii_name: Yaniklar
        geonamesid: 7280504
        latitude: 36.70827
        longitude: 29.05081
        name: Yaniklar
        names_en: ~
        names_es: ~
        population: 2598
        timezone: Europe/Istanbul
    geonamesid: 304183
    name: Muğla
    names_en: 
      - "Muğla Province"
      - Muğla
    names_es: 
      - "Provincia de Muğla"
  - 
    ascii_name: Mardin
    cities: 
      - 
        alternate_names: 
          - Keferallap
          - Yolbasi
          - Yolbaşı
        ascii_name: Yolbasi
        geonamesid: 296644
        latitude: 37.38892
        longitude: 41.31713
        name: Yolbaşı
        names_en: ~
        names_es: ~
        population: 5400
        timezone: Europe/Istanbul
      - 
        alternate_names: 
          - Rismil
          - Rişmil
          - Yesilli
          - Yeşilli
        ascii_name: Yesilli
        geonamesid: 296832
        latitude: 37.3405
        longitude: 40.82558
        name: Yeşilli
        names_en: ~
        names_es: ~
        population: 32072
        timezone: Europe/Istanbul
      - 
        alternate_names: 
          - Barman
          - Yesilalan
          - Yeşilalan
        ascii_name: Yesilalan
        geonamesid: 296885
        latitude: 37.46352
        longitude: 40.78812
        name: Yeşilalan
        names_en: ~
        names_es: ~
        population: 3791
        timezone: Europe/Istanbul
      - 
        alternate_names: 
          - Kartmin
          - Katmin
          - Yayvantepe
        ascii_name: Yayvantepe
        geonamesid: 297404
        latitude: 37.30117
        longitude: 41.5202
        name: Yayvantepe
        names_en: ~
        names_es: ~
        population: 1813
        timezone: Europe/Istanbul
      - 
        alternate_names: 
          - Kavs
          - Kavuz
          - Yayli
          - Yaylı
        ascii_name: Yayli
        geonamesid: 297416
        latitude: 37.20201
        longitude: 40.75477
        name: Yaylı
        names_en: ~
        names_es: ~
        population: 1581
        timezone: Europe/Istanbul
      - 
        alternate_names: 
          - Rasidi
          - Raşidi
          - Reshidi
          - Residi
        ascii_name: Reshidi
        geonamesid: 298585
        latitude: 37.49222
        longitude: 40.96028
        name: Reshidi
        names_en: ~
        names_es: ~
        population: 1220
        timezone: Europe/Istanbul
      - 
        alternate_names: 
          - Nebil
          - Toptepe
        ascii_name: Toptepe
        geonamesid: 298953
        latitude: 37.26103
        longitude: 41.2493
        name: Toptepe
        names_en: ~
        names_es: ~
        population: 1491
        timezone: Europe/Istanbul
      - 
        alternate_names: 
          - Habap
          - Telmimar
          - Telminar
          - Tepeustu
        ascii_name: Telminar
        geonamesid: 299272
        latitude: 37.11092
        longitude: 41.38396
        name: Telminar
        names_en: ~
        names_es: ~
        population: 1441
        timezone: Europe/Istanbul
      - 
        alternate_names: 
          - Telyakup
          - Tepealti
          - Tepealtı
        ascii_name: Tepealti
        geonamesid: 299354
        latitude: 37.09476
        longitude: 41.37049
        name: Tepealtı
        names_en: ~
        names_es: ~
        population: 1333
        timezone: Europe/Istanbul
      - 
        alternate_names: 
          - Senocak
          - Shuti
          - Suti
          - Şenocak
        ascii_name: Senocak
        geonamesid: 300027
        latitude: 37.65136
        longitude: 40.69531
        name: Şenocak
        names_en: ~
        names_es: ~
        population: 1576
        timezone: Europe/Istanbul
      - 
        alternate_names: 
          - Avine
          - Surgucu
          - Syurgyudzhyu
          - Sürgücü
        ascii_name: Avine
        geonamesid: 300087
        latitude: 37.585
        longitude: 40.73722
        name: Avine
        names_en: ~
        names_es: ~
        population: 4139
        timezone: Europe/Istanbul
      - 
        alternate_names: 
          - Kindirip
          - Sogutlu
          - Söğütlü
        ascii_name: Kindirip
        geonamesid: 300438
        latitude: 37.44703
        longitude: 41.22104
        name: Kindirip
        names_en: ~
        names_es: ~
        population: 7798
        timezone: Europe/Istanbul
      - 
        alternate_names: 
          - Sivrice
        ascii_name: Sivrice
        geonamesid: 300603
        latitude: 37.27731
        longitude: 41.33727
        name: Sivrice
        names_en: ~
        names_es: ~
        population: 1467
        timezone: Europe/Istanbul
      - 
        alternate_names: 
          - Derbesie
          - Derbesiye
          - Senyurt
          - Shen"yurt
        ascii_name: Senyurt
        geonamesid: 301158
        latitude: 37.07886
        longitude: 40.64408
        name: Şenyurt
        names_en: ~
        names_es: ~
        population: 1950
        timezone: Europe/Istanbul
      - 
        alternate_names: 
          - Ebish
          - Ebsi
          - Ebşi
          - Epsi
        ascii_name: Ebish
        geonamesid: 301167
        latitude: 37.4639
        longitude: 41.19057
        name: Ebish
        names_en: ~
        names_es: ~
        population: 8975
        timezone: Europe/Istanbul
      - 
        alternate_names: 
          - Savur
        ascii_name: Savur
        geonamesid: 301431
        latitude: 37.53884
        longitude: 40.88768
        name: Savur
        names_en: ~
        names_es: ~
        population: 8658
        timezone: Europe/Istanbul
      - 
        alternate_names: 
          - Sari
          - Sarikoy
          - Sarıköy
          - Seri
        ascii_name: Seri
        geonamesid: 301657
        latitude: 37.35861
        longitude: 41.295
        name: Seri
        names_en: ~
        names_es: ~
        population: 1059
        timezone: Europe/Istanbul
      - 
        alternate_names: 
          - El'fan
          - Elfan
          - El’fan
          - Pinardere
        ascii_name: Pinardere
        geonamesid: 302645
        latitude: 37.47288
        longitude: 40.82213
        name: Pınardere
        names_en: ~
        names_es: ~
        population: 4044
        timezone: Europe/Istanbul
      - 
        alternate_names: 
          - Gulharin
          - Gulharrin
          - Gyul'kharin
          - Gyul’kharin
        ascii_name: Ortakoy
        geonamesid: 303305
        latitude: 37.22215
        longitude: 40.78517
        name: Ortaköy
        names_en: ~
        names_es: ~
        population: 5120
        timezone: Europe/Istanbul
      - 
        alternate_names: 
          - Hesterek
          - Heşterek
          - Kheshterek
          - Ortaca
        ascii_name: Ortaca
        geonamesid: 303353
        latitude: 37.47361
        longitude: 41.55056
        name: Ortaca
        names_en: ~
        names_es: ~
        population: 2599
        timezone: Europe/Istanbul
      - 
        alternate_names: 
          - Maserti
          - Omerli
          - Ömerli
        ascii_name: Omerli
        geonamesid: 303532
        latitude: 37.40222
        longitude: 40.95409
        name: Ömerli
        names_en: ~
        names_es: ~
        population: 7194
        timezone: Europe/Istanbul
      - 
        alternate_names: 
          - Dara
          - Oguz
          - Oğuz
        ascii_name: Oguz
        geonamesid: 303648
        latitude: 37.17763
        longitude: 40.95437
        name: Oğuz
        names_en: ~
        names_es: ~
        population: 2802
        timezone: Europe/Istanbul
      - 
        alternate_names: 
          - Antiocheia
          - Nasabina
          - Nisibin
          - Nisibis
        ascii_name: Nusaybin
        geonamesid: 303750
        latitude: 37.0778
        longitude: 41.2178
        name: Nusaybin
        names_en: 
          - Nisibis
        names_es: ~
        population: 88977
        timezone: Europe/Istanbul
      - 
        alternate_names: 
          - Estil
          - Medeat
          - Mid'jat
          - Midyad
        ascii_name: Midyat
        geonamesid: 304382
        latitude: 37.4247
        longitude: 41.33934
        name: Midyat
        names_en: 
          - Midyat
        names_es: ~
        population: 76268
        timezone: Europe/Istanbul
      - 
        alternate_names: 
          - Mahallimentina
          - Mazidagi
          - Mazıdağı
          - Samarli
        ascii_name: Mazidagi
        geonamesid: 304734
        latitude: 37.4775
        longitude: 40.48806
        name: Mazıdağı
        names_en: ~
        names_es: ~
        population: 13138
        timezone: Europe/Istanbul
      - 
        alternate_names: 
          - Marde
          - Mardin
          - Merdin
          - Mêrdin
        ascii_name: Mardin
        geonamesid: 304797
        latitude: 37.31309
        longitude: 40.74357
        name: Mardin
        names_en: 
          - Mardin
        names_es: ~
        population: 71373
        timezone: Europe/Istanbul
      - 
        alternate_names: 
          - Kutlubey
          - Tinat
        ascii_name: Kutlubey
        geonamesid: 305263
        latitude: 37.3072
        longitude: 41.17806
        name: Kutlubey
        names_en: ~
        names_es: ~
        population: 1685
        timezone: Europe/Istanbul
      - 
        alternate_names: 
          - Dekok
          - Dikuk
          - Dikük
          - Dukuk
        ascii_name: Kumlu
        geonamesid: 305685
        latitude: 37.1725
        longitude: 40.73472
        name: Kumlu
        names_en: ~
        names_es: ~
        population: 1274
        timezone: Europe/Istanbul
      - 
        alternate_names: 
          - Kochisar
          - Kochkhisar
          - Koçhisar
          - Kyzyltepe
        ascii_name: Kiziltepe
        geonamesid: 307084
        latitude: 37.19333
        longitude: 40.585
        name: Kızıltepe
        names_en: ~
        names_es: ~
        population: 150174
        timezone: Europe/Istanbul
      - 
        alternate_names: 
          - Halilan
          - Khalilan
          - Kilavuz
          - Kılavuz
        ascii_name: Kilavuz
        geonamesid: 307939
        latitude: 37.47833
        longitude: 41.78056
        name: Kılavuz
        names_en: ~
        names_es: ~
        population: 2484
        timezone: Europe/Istanbul
      - 
        alternate_names: 
          - Kaynakkaya
        ascii_name: Kaynakkaya
        geonamesid: 308496
        latitude: 37.33388
        longitude: 40.92983
        name: Kaynakkaya
        names_en: ~
        names_es: ~
        population: 1571
        timezone: Europe/Istanbul
      - 
        alternate_names: 
          - Kayalipinar
          - Kayalıpınar
          - Mikri
        ascii_name: Kayalipinar
        geonamesid: 308584
        latitude: 37.33324
        longitude: 41.22527
        name: Kayalıpınar
        names_en: ~
        names_es: ~
        population: 1332
        timezone: Europe/Istanbul
      - 
        alternate_names: 
          - Kabala
        ascii_name: Kabala
        geonamesid: 310982
        latitude: 37.34996
        longitude: 40.81463
        name: Kabala
        names_en: ~
        names_es: ~
        population: 9275
        timezone: Europe/Istanbul
      - 
        alternate_names: 
          - Isgoren
          - Kavsan
          - İşgören
        ascii_name: Kavsan
        geonamesid: 311191
        latitude: 37.65685
        longitude: 40.65965
        name: Kavsan
        names_en: ~
        names_es: ~
        population: 1017
        timezone: Europe/Istanbul
      - 
        alternate_names: 
          - Icoren
          - Teffi
          - İçören
        ascii_name: Teffi
        geonamesid: 311708
        latitude: 37.55547
        longitude: 41.09578
        name: Teffi
        names_en: ~
        names_es: ~
        population: 1677
        timezone: Europe/Istanbul
      - 
        alternate_names: 
          - Abdulimam
          - Abdülimam
          - Gundukoru
          - Gyundyukoru
        ascii_name: Hocakoy
        geonamesid: 311998
        latitude: 37.14207
        longitude: 40.50149
        name: Hocaköy
        names_en: ~
        names_es: ~
        population: 1507
        timezone: Europe/Istanbul
      - 
        alternate_names: 
          - Bahvar
          - Bakhvar
          - Gulveren
          - Gülveren
        ascii_name: Gulveren
        geonamesid: 313640
        latitude: 37.48778
        longitude: 41.49444
        name: Gülveren
        names_en: ~
        names_es: ~
        population: 2162
        timezone: Europe/Istanbul
      - 
        alternate_names: 
          - Gokce
          - Gökçe
          - Selah
          - Selakh
        ascii_name: Selah
        geonamesid: 314364
        latitude: 37.205
        longitude: 40.69444
        name: Selah
        names_en: ~
        names_es: ~
        population: 4729
        timezone: Europe/Istanbul
      - 
        alternate_names: 
          - Gelinkaya
          - Keferhavar
          - Keferhavvar
          - Keferhuvar
        ascii_name: Gelinkaya
        geonamesid: 314677
        latitude: 37.41701
        longitude: 41.29301
        name: Gelinkaya
        names_en: ~
        names_es: ~
        population: 6470
        timezone: Europe/Istanbul
      - 
        alternate_names: 
          - Eymirli
          - Tib'yat
          - Tibyasa
          - Tibyat
        ascii_name: Eymirli
        geonamesid: 315081
        latitude: 37.16982
        longitude: 40.6877
        name: Eymirli
        names_en: ~
        names_es: ~
        population: 1021
        timezone: Europe/Istanbul
      - 
        alternate_names: 
          - Esme
          - Eşme
          - Mezaakantar
          - Mezrakantar
        ascii_name: Esme
        geonamesid: 315185
        latitude: 37.15611
        longitude: 40.64056
        name: Eşme
        names_en: ~
        names_es: ~
        population: 1316
        timezone: Europe/Istanbul
      - 
        alternate_names: 
          - Duruca
          - Kertuvin
          - Kertyuvin
          - Kertüvin
        ascii_name: Duruca
        geonamesid: 316096
        latitude: 37.09333
        longitude: 41.30861
        name: Duruca
        names_en: ~
        names_es: ~
        population: 3846
        timezone: Europe/Istanbul
      - 
        alternate_names: 
          - Derik
        ascii_name: Derik
        geonamesid: 316899
        latitude: 37.36333
        longitude: 40.27111
        name: Derik
        names_en: ~
        names_es: ~
        population: 0
        timezone: Europe/Istanbul
      - 
        alternate_names: 
          - Dereyani
          - Dereyanı
          - Shuri
          - Suri
        ascii_name: Dereyani
        geonamesid: 316909
        latitude: 37.425
        longitude: 40.86266
        name: Dereyanı
        names_en: ~
        names_es: ~
        population: 1111
        timezone: Europe/Istanbul
      - 
        alternate_names: 
          - Dargechit
          - Dargecit
          - Dargeçit
          - Deregecit
        ascii_name: Dargecit
        geonamesid: 317587
        latitude: 37.54545
        longitude: 41.71966
        name: Dargeçit
        names_en: ~
        names_es: ~
        population: 20793
        timezone: Europe/Istanbul
      - 
        alternate_names: 
          - Cinaralti
          - Rissin
          - Çınaraltı
        ascii_name: Cinaralti
        geonamesid: 318396
        latitude: 37.38444
        longitude: 40.86
        name: Çınaraltı
        names_en: ~
        names_es: ~
        population: 1334
        timezone: Europe/Istanbul
      - 
        alternate_names: 
          - Cavuslu
          - Sarozbah
          - Saruzbah
          - Saruzbakh
        ascii_name: Cavuslu
        geonamesid: 319118
        latitude: 37.49861
        longitude: 41.24417
        name: Çavuşlu
        names_en: ~
        names_es: ~
        population: 8555
        timezone: Europe/Istanbul
      - 
        alternate_names: 
          - Calpinar
          - Siti
          - Çalpınar
        ascii_name: Calpinar
        geonamesid: 319761
        latitude: 37.36711
        longitude: 41.18756
        name: Çalpınar
        names_en: ~
        names_es: ~
        population: 1294
        timezone: Europe/Istanbul
      - 
        alternate_names: 
          - Buyukkardes
          - Büyükkardeş
          - Cinatamaho
          - Cinatamiho
        ascii_name: Cinatamiho
        geonamesid: 320201
        latitude: 37.27205
        longitude: 41.03515
        name: Cinatamiho
        names_en: ~
        names_es: ~
        population: 1066
        timezone: Europe/Istanbul
      - 
        alternate_names: 
          - Ahmedi
          - Akhmedi
          - Baskavak
          - Başkavak
        ascii_name: Baskavak
        geonamesid: 321935
        latitude: 37.56824
        longitude: 40.8958
        name: Başkavak
        names_en: ~
        names_es: ~
        population: 2032
        timezone: Europe/Istanbul
      - 
        alternate_names: 
          - Salhi
          - Salkhi
        ascii_name: Baristepe
        geonamesid: 322002
        latitude: 37.48028
        longitude: 41.395
        name: Barıştepe
        names_en: ~
        names_es: ~
        population: 1452
        timezone: Europe/Istanbul
      - 
        alternate_names: 
          - Baglica
          - Bağlıca
          - Bennisht
          - Bennist
        ascii_name: Baglica
        geonamesid: 322461
        latitude: 37.52722
        longitude: 40.685
        name: Bağlıca
        names_en: ~
        names_es: ~
        population: 1329
        timezone: Europe/Istanbul
      - 
        alternate_names: 
          - Aran
          - Zoni
        ascii_name: Aran
        geonamesid: 323733
        latitude: 37.43928
        longitude: 40.74656
        name: Aran
        names_en: ~
        names_es: ~
        population: 1256
        timezone: Europe/Istanbul
      - 
        alternate_names: 
          - Akarsu
          - Istilil
          - İstilil
        ascii_name: Akarsu
        geonamesid: 325028
        latitude: 37.23549
        longitude: 41.06068
        name: Akarsu
        names_en: ~
        names_es: ~
        population: 5440
        timezone: Europe/Istanbul
      - 
        alternate_names: 
          - Acirli
          - Acırlı
          - Derizbin
          - Dirizbin
        ascii_name: Acirli
        geonamesid: 325420
        latitude: 37.4573
        longitude: 41.29686
        name: Acırlı
        names_en: ~
        names_es: ~
        population: 7553
        timezone: Europe/Istanbul
      - 
        alternate_names: 
          - Ciplak
          - Çıplak
        ascii_name: Ciplak
        geonamesid: 439228
        latitude: 36.94472
        longitude: 40.2375
        name: Çıplak
        names_en: ~
        names_es: ~
        population: 1424
        timezone: Europe/Istanbul
    geonamesid: 304794
    name: Mardin
    names_en: 
      - "Mardin Province"
      - Mardin
    names_es: 
      - "Provincia de Mardin"
  - 
    ascii_name: Manisa
    cities: 
      - 
        alternate_names: 
          - "Caesarea Trocetta"
          - Cassaba
          - Kasaba
          - Turgutlu
        ascii_name: Turgutlu
        geonamesid: 298806
        latitude: 38.49533
        longitude: 27.6997
        name: Turgutlu
        names_en: ~
        names_es: ~
        population: 103292
        timezone: Europe/Istanbul
      - 
        alternate_names: 
          - Germe
          - Soma
          - Somy
          - Сомы
        ascii_name: Soma
        geonamesid: 300371
        latitude: 39.18554
        longitude: 27.60945
        name: Soma
        names_en: ~
        names_es: ~
        population: 65934
        timezone: Europe/Istanbul
      - 
        alternate_names: ~
        ascii_name: Selendi
        geonamesid: 301251
        latitude: 38.74444
        longitude: 28.86778
        name: Selendi
        names_en: ~
        names_es: ~
        population: 8735
        timezone: Europe/Istanbul
      - 
        alternate_names: 
          - Sarihanli
          - Saruhanli
          - Saruhanlı
          - Sarıhanlı
        ascii_name: Saruhanli
        geonamesid: 301492
        latitude: 38.73455
        longitude: 27.56811
        name: Saruhanlı
        names_en: ~
        names_es: ~
        population: 12947
        timezone: Europe/Istanbul
      - 
        alternate_names: ~
        ascii_name: Sarigol
        geonamesid: 301731
        latitude: 38.23953
        longitude: 28.69663
        name: Sarıgöl
        names_en: ~
        names_es: ~
        population: 12794
        timezone: Europe/Istanbul
      - 
        alternate_names: ~
        ascii_name: Salihli
        geonamesid: 302043
        latitude: 38.48258
        longitude: 28.14774
        name: Salihli
        names_en: ~
        names_es: ~
        population: 88906
        timezone: Europe/Istanbul
      - 
        alternate_names: 
          - Magnesia
          - "Magnesia ad Sipylum"
          - "Magnesia am Sipylos"
          - Magnisiyah
        ascii_name: Manisa
        geonamesid: 304827
        latitude: 38.61202
        longitude: 27.42646
        name: Manisa
        names_en: 
          - "Magnesia ad Sipylum"
        names_es: ~
        population: 243971
        timezone: Europe/Istanbul
      - 
        alternate_names: 
          - Kovla
          - Kul
          - Kula
          - Opsicium
        ascii_name: Kula
        geonamesid: 305810
        latitude: 38.54726
        longitude: 28.64976
        name: Kula
        names_en: ~
        names_es: ~
        population: 31100
        timezone: Europe/Istanbul
      - 
        alternate_names: ~
        ascii_name: Koprubasi
        geonamesid: 306537
        latitude: 38.74972
        longitude: 28.40472
        name: Köprübaşı
        names_en: ~
        names_es: ~
        population: 4688
        timezone: Europe/Istanbul
      - 
        alternate_names: 
          - Kirkagac
          - Kırkağaç
          - Nacrasa
        ascii_name: Kirkagac
        geonamesid: 307623
        latitude: 39.10638
        longitude: 27.66925
        name: Kırkağaç
        names_en: ~
        names_es: ~
        population: 27053
        timezone: Europe/Istanbul
      - 
        alternate_names: 
          - Gordes
          - Gördes
        ascii_name: Gordes
        geonamesid: 313960
        latitude: 38.93278
        longitude: 28.28942
        name: Gördes
        names_en: ~
        names_es: ~
        population: 11168
        timezone: Europe/Istanbul
      - 
        alternate_names: 
          - Golmarmara
          - Gölmarmara
          - Marmara
        ascii_name: Golmarmara
        geonamesid: 314038
        latitude: 38.71389
        longitude: 27.91417
        name: Gölmarmara
        names_en: ~
        names_es: ~
        population: 12857
        timezone: Europe/Istanbul
      - 
        alternate_names: ~
        ascii_name: Demirci
        geonamesid: 317241
        latitude: 39.04607
        longitude: 28.65889
        name: Demirci
        names_en: ~
        names_es: ~
        population: 21378
        timezone: Europe/Istanbul
      - 
        alternate_names: 
          - "Ala Shehr"
          - Alachehir
          - Alachehr
          - Alaschehir
        ascii_name: Alasehir
        geonamesid: 324172
        latitude: 38.35083
        longitude: 28.51718
        name: Alaşehir
        names_en: 
          - Alaşehir
        names_es: ~
        population: 40735
        timezone: Europe/Istanbul
      - 
        alternate_names: 
          - Akhisar
          - Akhissar
          - Akkhisar
          - "Aq Hisar"
        ascii_name: Akhisar
        geonamesid: 324698
        latitude: 38.91852
        longitude: 27.84006
        name: Akhisar
        names_en: 
          - Akhisar
        names_es: ~
        population: 84659
        timezone: Europe/Istanbul
      - 
        alternate_names: ~
        ascii_name: Ahmetli
        geonamesid: 325066
        latitude: 38.5196
        longitude: 27.93865
        name: Ahmetli
        names_en: ~
        names_es: ~
        population: 11377
        timezone: Europe/Istanbul
    geonamesid: 304825
    name: Manisa
    names_en: 
      - "Manisa Province"
      - Manisa
    names_es: 
      - "Provincia de Manisa"
  - 
    ascii_name: Malatya
    cities: 
      - 
        alternate_names: 
          - Cirmikti
          - Ismetpasa
          - Yesilyurt
          - Yeşilyurt
        ascii_name: Yesilyurt
        geonamesid: 296791
        latitude: 38.29722
        longitude: 38.24972
        name: Yeşilyurt
        names_en: ~
        names_es: ~
        population: 13766
        timezone: Europe/Istanbul
      - 
        alternate_names: ~
        ascii_name: Yazihan
        geonamesid: 297371
        latitude: 38.59472
        longitude: 38.18
        name: Yazıhan
        names_en: ~
        names_es: ~
        population: 5156
        timezone: Europe/Istanbul
      - 
        alternate_names: 
          - Malat'ja
          - Malatia
          - Malatiyah
          - Malatya
        ascii_name: Malatya
        geonamesid: 304922
        latitude: 38.35018
        longitude: 38.31667
        name: Malatya
        names_en: 
          - Malatya
        names_es: 
          - Malatya
        population: 441805
        timezone: Europe/Istanbul
      - 
        alternate_names: 
          - Kulucak
        ascii_name: Kulucak
        geonamesid: 305737
        latitude: 38.88278
        longitude: 37.67278
        name: Kulucak
        names_en: ~
        names_es: ~
        population: 8495
        timezone: Europe/Istanbul
      - 
        alternate_names: ~
        ascii_name: Kale
        geonamesid: 310784
        latitude: 39.03333
        longitude: 38.0
        name: Kale
        names_en: ~
        names_es: ~
        population: 5167
        timezone: Europe/Istanbul
      - 
        alternate_names: 
          - Hekimhan
        ascii_name: Hekimhan
        geonamesid: 312245
        latitude: 38.81796
        longitude: 37.93117
        name: Hekimhan
        names_en: ~
        names_es: ~
        population: 13946
        timezone: Europe/Istanbul
      - 
        alternate_names: 
          - Doganyol
          - Doğanyol
          - Keferdiz
          - Siro
        ascii_name: Doganyol
        geonamesid: 316431
        latitude: 38.31184
        longitude: 39.03819
        name: Doğanyol
        names_en: ~
        names_es: ~
        population: 6332
        timezone: Europe/Istanbul
      - 
        alternate_names: 
          - Dogansehir
          - Doğanşehir
          - Muhacir
          - Viransehir
        ascii_name: Dogansehir
        geonamesid: 316440
        latitude: 38.09194
        longitude: 37.87889
        name: Doğanşehir
        names_en: ~
        names_es: ~
        population: 14794
        timezone: Europe/Istanbul
      - 
        alternate_names: 
          - Darende
          - Yarpus
          - Даренде
        ascii_name: Darende
        geonamesid: 317588
        latitude: 38.54583
        longitude: 37.50583
        name: Darende
        names_en: ~
        names_es: ~
        population: 20388
        timezone: Europe/Istanbul
      - 
        alternate_names: 
          - "Asagi Mestikan"
          - "Aşağı Mestikân"
          - Kale
          - Mestikan
        ascii_name: Kale
        geonamesid: 323251
        latitude: 38.41667
        longitude: 38.76667
        name: Kale
        names_en: ~
        names_es: ~
        population: 0
        timezone: Europe/Istanbul
      - 
        alternate_names: 
          - Argavan
          - Arguvan
          - Tahir
        ascii_name: Arguvan
        geonamesid: 323660
        latitude: 38.76995
        longitude: 38.2712
        name: Arguvan
        names_en: ~
        names_es: ~
        population: 3282
        timezone: Europe/Istanbul
      - 
        alternate_names: 
          - Arabacis
          - Arabkir
          - Arapgir
          - Arapkir
        ascii_name: Arapkir
        geonamesid: 323721
        latitude: 39.04117
        longitude: 38.49516
        name: Arapkir
        names_en: ~
        names_es: ~
        population: 10022
        timezone: Europe/Istanbul
      - 
        alternate_names: 
          - Akcadag
          - Akçadağ
          - Arga
        ascii_name: Akcadag
        geonamesid: 324953
        latitude: 38.34528
        longitude: 37.96722
        name: Akçadağ
        names_en: ~
        names_es: ~
        population: 14788
        timezone: Europe/Istanbul
      - 
        alternate_names: ~
        ascii_name: Battalgazi
        geonamesid: 7457829
        latitude: 38.42454
        longitude: 38.36491
        name: Battalgazi
        names_en: ~
        names_es: ~
        population: 0
        timezone: Europe/Istanbul
    geonamesid: 304919
    name: Malatya
    names_en: 
      - "Malatya Province"
      - Malatya
    names_es: 
      - "Provincia de Malatya"
  - 
    ascii_name: Kuetahya
    cities: 
      - 
        alternate_names: 
          - Taushanli
          - Tavsanli
          - Tavşanlı
        ascii_name: Tavsanli
        geonamesid: 299545
        latitude: 39.54237
        longitude: 29.49866
        name: Tavşanlı
        names_en: ~
        names_es: ~
        population: 52182
        timezone: Europe/Istanbul
      - 
        alternate_names: 
          - Simav
          - Synaus
        ascii_name: Simav
        geonamesid: 300791
        latitude: 39.0882
        longitude: 28.97767
        name: Simav
        names_en: ~
        names_es: ~
        population: 34909
        timezone: Europe/Istanbul
      - 
        alternate_names: 
          - Abseker
          - Abşeker
          - Saphane
          - Şaphane
        ascii_name: Saphane
        geonamesid: 301884
        latitude: 39.0273
        longitude: 29.22218
        name: Şaphane
        names_en: ~
        names_es: ~
        population: 5085
        timezone: Europe/Istanbul
      - 
        alternate_names: 
          - Pazarcokyaka
          - Pazarlar
          - Pazarçokyaka
        ascii_name: Pazarlar
        geonamesid: 302787
        latitude: 38.995
        longitude: 29.12583
        name: Pazarlar
        names_en: ~
        names_es: ~
        population: 6387
        timezone: Europe/Istanbul
      - 
        alternate_names: 
          - Cotiaeum
          - Cotyaeum
          - Kjutakh'ja
          - Kuetahya
        ascii_name: Kutahya
        geonamesid: 305268
        latitude: 39.42417
        longitude: 29.98333
        name: Kütahya
        names_en: 
          - Kütahya
        names_es: ~
        population: 185008
        timezone: Europe/Istanbul
      - 
        alternate_names: 
          - Cadi
          - Gedis
          - Gediz
          - Гедиз
        ascii_name: Gediz
        geonamesid: 314716
        latitude: 39.04167
        longitude: 29.41
        name: Gediz
        names_en: ~
        names_es: ~
        population: 22058
        timezone: Europe/Istanbul
      - 
        alternate_names: 
          - Ehmet
          - Emet
          - Эмет
        ascii_name: Emet
        geonamesid: 315639
        latitude: 39.343
        longitude: 29.25847
        name: Emet
        names_en: ~
        names_es: ~
        population: 23812
        timezone: Europe/Istanbul
      - 
        alternate_names: ~
        ascii_name: Dumlupinar
        geonamesid: 316165
        latitude: 38.86667
        longitude: 30.0
        name: Dumlupınar
        names_en: ~
        names_es: ~
        population: 3179
        timezone: Europe/Istanbul
      - 
        alternate_names: 
          - Domanic
          - "Domanic Kozluca"
          - Domaniç
          - "Domaniç Kozluca"
        ascii_name: "Domanic Kozluca"
        geonamesid: 316330
        latitude: 39.8
        longitude: 29.61667
        name: "Domaniç Kozluca"
        names_en: ~
        names_es: ~
        population: 5015
        timezone: Europe/Istanbul
      - 
        alternate_names: 
          - Arslanapa
          - Aslanapa
        ascii_name: Aslanapa
        geonamesid: 323082
        latitude: 39.21581
        longitude: 29.8699
        name: Aslanapa
        names_en: ~
        names_es: ~
        population: 2388
        timezone: Europe/Istanbul
    geonamesid: 305267
    name: Kütahya
    names_en: 
      - "Kütahya Province"
      - Kütahya
    names_es: 
      - "Provincia de Kütahya"
  - 
    ascii_name: Konya
    cities: 
      - 
        alternate_names: 
          - Yunak
        ascii_name: Yunak
        geonamesid: 296134
        latitude: 38.81418
        longitude: 31.73224
        name: Yunak
        names_en: ~
        names_es: ~
        population: 14050
        timezone: Europe/Istanbul
      - 
        alternate_names: 
          - Pirlerkondu
          - Taskent
          - Taşkent
        ascii_name: Taskent
        geonamesid: 299755
        latitude: 36.92422
        longitude: 32.48506
        name: Taşkent
        names_en: ~
        names_es: ~
        population: 11838
        timezone: Europe/Istanbul
      - 
        alternate_names: 
          - Seydisehir
          - Seydişehir
        ascii_name: Seydisehir
        geonamesid: 301010
        latitude: 37.42202
        longitude: 31.84539
        name: Seydişehir
        names_en: ~
        names_es: ~
        population: 51089
        timezone: Europe/Istanbul
      - 
        alternate_names: 
          - Sarayonu
          - Sarayönü
        ascii_name: Sarayonu
        geonamesid: 301824
        latitude: 38.26201
        longitude: 32.40457
        name: Sarayönü
        names_en: ~
        names_es: ~
        population: 10198
        timezone: Europe/Istanbul
      - 
        alternate_names: ~
        ascii_name: Kulu
        geonamesid: 305742
        latitude: 39.09514
        longitude: 33.07989
        name: Kulu
        names_en: ~
        names_es: ~
        population: 47037
        timezone: Europe/Istanbul
      - 
        alternate_names: 
          - Conia
          - Iconio
          - Iconium
          - Ikonio
        ascii_name: Konya
        geonamesid: 306571
        latitude: 37.86556
        longitude: 32.4825
        name: Konya
        names_en: 
          - Konya
        names_es: 
          - Konya
        population: 875530
        timezone: Europe/Istanbul
      - 
        alternate_names: 
          - Karapinar
          - Karapınar
          - Sultaniye
        ascii_name: Karapinar
        geonamesid: 309415
        latitude: 37.71697
        longitude: 33.54323
        name: Karapınar
        names_en: ~
        names_es: ~
        population: 49509
        timezone: Europe/Istanbul
      - 
        alternate_names: 
          - Kadinhani
          - Kadınhanı
          - Saideli
          - Saiteli
        ascii_name: Kadinhani
        geonamesid: 310907
        latitude: 38.23972
        longitude: 32.21139
        name: Kadınhanı
        names_en: ~
        names_es: ~
        population: 15301
        timezone: Europe/Istanbul
      - 
        alternate_names: 
          - Hoyuk
          - "Hoyuk Koyu"
          - Huyuk
          - Höyük
        ascii_name: Huyuk
        geonamesid: 311777
        latitude: 37.95388
        longitude: 31.59639
        name: Hüyük
        names_en: ~
        names_es: ~
        population: 11502
        timezone: Europe/Istanbul
      - 
        alternate_names: 
          - Halkapinar
          - Halkapınar
          - Zanapa
          - Zanape
        ascii_name: Halkapinar
        geonamesid: 312817
        latitude: 37.43282
        longitude: 34.18733
        name: Halkapınar
        names_en: ~
        names_es: ~
        population: 2101
        timezone: Europe/Istanbul
      - 
        alternate_names: 
          - Hadim
          - Hadım
          - Khadim
          - "Yukari Hadim"
        ascii_name: Hadim
        geonamesid: 312899
        latitude: 36.99304
        longitude: 32.45459
        name: Hadım
        names_en: ~
        names_es: ~
        population: 20110
        timezone: Europe/Istanbul
      - 
        alternate_names: 
          - Cybistra
          - Ehregli
          - Erakleia
          - Eregli
        ascii_name: Eregli
        geonamesid: 315498
        latitude: 37.51333
        longitude: 34.04672
        name: Ereğli
        names_en: 
          - Heraclea
        names_es: ~
        population: 92117
        timezone: Europe/Istanbul
      - 
        alternate_names: ~
        ascii_name: Emirgazi
        geonamesid: 315617
        latitude: 37.90222
        longitude: 33.83722
        name: Emirgazi
        names_en: ~
        names_es: ~
        population: 8466
        timezone: Europe/Istanbul
      - 
        alternate_names: 
          - Doganhisar
          - Doğanhisar
        ascii_name: Doganhisar
        geonamesid: 316475
        latitude: 38.14472
        longitude: 31.67806
        name: Doğanhisar
        names_en: ~
        names_es: ~
        population: 9857
        timezone: Europe/Istanbul
      - 
        alternate_names: ~
        ascii_name: Cumra
        geonamesid: 317844
        latitude: 37.57317
        longitude: 32.77885
        name: Çumra
        names_en: ~
        names_es: ~
        population: 45657
        timezone: Europe/Istanbul
      - 
        alternate_names: 
          - Cihanbeyli
          - Inevi
          - İnevi
        ascii_name: Cihanbeyli
        geonamesid: 318506
        latitude: 38.66072
        longitude: 32.92437
        name: Cihanbeyli
        names_en: ~
        names_es: ~
        population: 13782
        timezone: Europe/Istanbul
      - 
        alternate_names: 
          - Bozkir
          - Bozkır
          - Silistat
          - Sitistat
        ascii_name: Bozkir
        geonamesid: 320621
        latitude: 37.18778
        longitude: 32.24709
        name: Bozkır
        names_en: ~
        names_es: ~
        population: 10958
        timezone: Europe/Istanbul
      - 
        alternate_names: 
          - Altinekin
          - Altınekin
          - Zivarik
          - Zıvarık
        ascii_name: Altinekin
        geonamesid: 323930
        latitude: 38.30778
        longitude: 32.86861
        name: Altınekin
        names_en: ~
        names_es: ~
        population: 13090
        timezone: Europe/Istanbul
      - 
        alternate_names: 
          - "Ak Shehr"
          - Aksehir
          - Akşehir
          - Philomelium
        ascii_name: Aksehir
        geonamesid: 324490
        latitude: 38.3575
        longitude: 31.41639
        name: Akşehir
        names_en: 
          - Akşehir
        names_es: ~
        population: 64446
        timezone: Europe/Istanbul
      - 
        alternate_names: 
          - Catalhoyuk
        ascii_name: Catalhoeyuek
        geonamesid: 6940561
        latitude: 37.66847
        longitude: 32.82689
        name: Çatalhöyük
        names_en: 
          - Catalhoyuk
        names_es: ~
        population: 10000
        timezone: Europe/Istanbul
    geonamesid: 306569
    name: Konya
    names_en: 
      - "Konya Province"
      - Konya
    names_es: 
      - "Provincia de Konya"
  - 
    ascii_name: Kirsehir
    cities: 
      - 
        alternate_names: 
          - Mucur
        ascii_name: Mucur
        geonamesid: 304196
        latitude: 39.06147
        longitude: 34.38286
        name: Mucur
        names_en: ~
        names_es: ~
        population: 16522
        timezone: Europe/Istanbul
      - 
        alternate_names: 
          - Justinianopolis
          - Kirsehir
          - Kirshahr
          - Kirshehr
        ascii_name: Kirsehir
        geonamesid: 307515
        latitude: 39.14583
        longitude: 34.16389
        name: Kırşehir
        names_en: 
          - Kırşehir
        names_es: ~
        population: 94336
        timezone: Europe/Istanbul
      - 
        alternate_names: 
          - Kaman
          - Keman
          - Каман
        ascii_name: Kaman
        geonamesid: 310641
        latitude: 39.3575
        longitude: 33.72389
        name: Kaman
        names_en: ~
        names_es: ~
        population: 28605
        timezone: Europe/Istanbul
    geonamesid: 307513
    name: Kırşehir
    names_en: 
      - "Kırşehir Province"
      - Kırşehir
    names_es: ~
  - 
    ascii_name: Kayseri
    cities: 
      - 
        alternate_names: 
          - Karahisar
          - Karahısar
          - Yesilhisar
          - Yeşilhisar
        ascii_name: Yesilhisar
        geonamesid: 296860
        latitude: 38.34972
        longitude: 35.08667
        name: Yeşilhisar
        names_en: ~
        names_es: ~
        population: 14354
        timezone: Europe/Istanbul
      - 
        alternate_names: 
          - Gazibenli
          - Jakh'jaly
          - Yahyali
          - Yahyalı
        ascii_name: Yahyali
        geonamesid: 297917
        latitude: 38.10228
        longitude: 35.35704
        name: Yahyalı
        names_en: ~
        names_es: ~
        population: 25019
        timezone: Europe/Istanbul
      - 
        alternate_names: 
          - Gostere
          - Goztere
          - Göstere
          - Tomarza
        ascii_name: Tomarza
        geonamesid: 299054
        latitude: 38.44722
        longitude: 35.79917
        name: Tomarza
        names_en: ~
        names_es: ~
        population: 11753
        timezone: Europe/Istanbul
      - 
        alternate_names: 
          - Tafas
          - Talas
          - Талас
        ascii_name: Talas
        geonamesid: 299900
        latitude: 38.6908
        longitude: 35.5538
        name: Talas
        names_en: ~
        names_es: ~
        population: 36890
        timezone: Europe/Istanbul
      - 
        alternate_names: 
          - Koyyeri
          - Köyyeri
          - Sariz
          - Sarız
        ascii_name: Sariz
        geonamesid: 301546
        latitude: 38.47917
        longitude: 36.49898
        name: Sarız
        names_en: ~
        names_es: ~
        population: 3990
        timezone: Europe/Istanbul
      - 
        alternate_names: ~
        ascii_name: Sarioglan
        geonamesid: 301609
        latitude: 39.07694
        longitude: 35.96671
        name: Sarıoğlan
        names_en: ~
        names_es: ~
        population: 5393
        timezone: Europe/Istanbul
      - 
        alternate_names: 
          - Aziziye
          - Pinarbasi
          - Pınarbaşı
        ascii_name: Pinarbasi
        geonamesid: 302667
        latitude: 38.72285
        longitude: 36.39314
        name: Pınarbaşı
        names_en: ~
        names_es: ~
        population: 12333
        timezone: Europe/Istanbul
      - 
        alternate_names: 
          - Caesarea
          - Casarea
          - Cearee
          - "Cesarea in Cappadocia"
        ascii_name: Kayseri
        geonamesid: 308464
        latitude: 38.73222
        longitude: 35.48528
        name: Kayseri
        names_en: 
          - Kayseri
        names_es: 
          - Kayseri
        population: 592840
        timezone: Europe/Istanbul
      - 
        alternate_names: 
          - Incesu
          - Injesu
          - İncesu
        ascii_name: Incesu
        geonamesid: 311358
        latitude: 38.6224
        longitude: 35.18261
        name: İncesu
        names_en: ~
        names_es: ~
        population: 0
        timezone: Europe/Istanbul
      - 
        alternate_names: ~
        ascii_name: Hacilar
        geonamesid: 313013
        latitude: 38.64631
        longitude: 35.44937
        name: Hacılar
        names_en: ~
        names_es: ~
        population: 21167
        timezone: Europe/Istanbul
      - 
        alternate_names: 
          - Felahiye
          - Fellahiye
          - Rumdigin
          - Rumdiğin
        ascii_name: Felahiye
        geonamesid: 314996
        latitude: 39.09056
        longitude: 35.56722
        name: Felahiye
        names_en: ~
        names_es: ~
        population: 5716
        timezone: Europe/Istanbul
      - 
        alternate_names: 
          - Kocasinan
        ascii_name: Kocasinan
        geonamesid: 315972
        latitude: 38.77147
        longitude: 35.5725
        name: Kocasinan
        names_en: ~
        names_es: ~
        population: 0
        timezone: Europe/Istanbul
      - 
        alternate_names: 
          - Develi
          - Everek
          - Evrek
        ascii_name: Develi
        geonamesid: 316795
        latitude: 38.39056
        longitude: 35.49222
        name: Develi
        names_en: ~
        names_es: ~
        population: 35868
        timezone: Europe/Istanbul
      - 
        alternate_names: 
          - Cukur
          - Ozvatan
          - Çukur
          - Özvatan
        ascii_name: Ozvatan
        geonamesid: 317970
        latitude: 39.1069
        longitude: 35.69994
        name: Özvatan
        names_en: ~
        names_es: ~
        population: 0
        timezone: Europe/Istanbul
      - 
        alternate_names: ~
        ascii_name: Melikgazi
        geonamesid: 318580
        latitude: 38.75
        longitude: 35.45
        name: Melikgazi
        names_en: ~
        names_es: ~
        population: 0
        timezone: Europe/Istanbul
      - 
        alternate_names: 
          - Bunyan
          - "Bunyan Hamit"
          - Bünyan
          - "Bünyan Hamit"
        ascii_name: Bunyan
        geonamesid: 320406
        latitude: 38.8463
        longitude: 35.86032
        name: Bünyan
        names_en: ~
        names_es: ~
        population: 12821
        timezone: Europe/Istanbul
      - 
        alternate_names: 
          - Akkisla
          - Akkışla
        ascii_name: Akkisla
        geonamesid: 324643
        latitude: 39.00222
        longitude: 36.17381
        name: Akkışla
        names_en: ~
        names_es: ~
        population: 3317
        timezone: Europe/Istanbul
    geonamesid: 308463
    name: Kayseri
    names_en: 
      - "Kayseri Province"
      - Kayseri
    names_es: 
      - "Provincia de Kayseri"
  - 
    ascii_name: Kahramanmaras
    cities: 
      - 
        alternate_names: ~
        ascii_name: Turkoglu
        geonamesid: 298770
        latitude: 37.38844
        longitude: 36.84833
        name: Türkoğlu
        names_en: ~
        names_es: ~
        population: 0
        timezone: Europe/Istanbul
      - 
        alternate_names: 
          - Pazarcik
          - Pazarcık
          - Pazardzhik
          - Пазарджик
        ascii_name: Pazarcik
        geonamesid: 302800
        latitude: 37.48685
        longitude: 37.29961
        name: Pazarcık
        names_en: ~
        names_es: ~
        population: 23850
        timezone: Europe/Istanbul
      - 
        alternate_names: 
          - Nurhak
        ascii_name: Nurhak
        geonamesid: 303763
        latitude: 37.96288
        longitude: 37.42023
        name: Nurhak
        names_en: ~
        names_es: ~
        population: 8595
        timezone: Europe/Istanbul
      - 
        alternate_names: 
          - "Caesarea Germanicia"
          - "Germanicea Marqasi"
          - Gurgum
          - Kahramanmaras
        ascii_name: Kahramanmaras
        geonamesid: 310859
        latitude: 37.5847
        longitude: 36.9264
        name: Kahramanmaraş
        names_en: 
          - Kahramanmaraş
        names_es: ~
        population: 376045
        timezone: Europe/Istanbul
      - 
        alternate_names: 
          - Goksun
          - Göksun
        ascii_name: Goksun
        geonamesid: 314188
        latitude: 38.02096
        longitude: 36.4973
        name: Göksun
        names_en: ~
        names_es: ~
        population: 34243
        timezone: Europe/Istanbul
      - 
        alternate_names: 
          - Ehl'bistan
          - Elbistan
          - albstan
          - Эльбистан
        ascii_name: Elbistan
        geonamesid: 315795
        latitude: 38.20591
        longitude: 37.1983
        name: Elbistan
        names_en: 
          - Elbistan
        names_es: ~
        population: 80456
        timezone: Europe/Istanbul
      - 
        alternate_names: 
          - Cela
          - Celaki
          - Celeyke
          - Ekinozu
        ascii_name: Celeyke
        geonamesid: 315835
        latitude: 38.05974
        longitude: 37.18786
        name: Celeyke
        names_en: ~
        names_es: ~
        population: 6298
        timezone: Europe/Istanbul
      - 
        alternate_names: 
          - "Buyuk Cerbit"
          - "Buyuk Cerit"
          - "Büyük Cerbit"
          - "Büyük Cerit"
        ascii_name: Caglayancerit
        geonamesid: 320004
        latitude: 37.74959
        longitude: 37.29622
        name: Çağlayancerit
        names_en: ~
        names_es: ~
        population: 15530
        timezone: Europe/Istanbul
      - 
        alternate_names: 
          - Andiran
          - Andirin
          - Andıran
          - Andırın
        ascii_name: Andirin
        geonamesid: 323797
        latitude: 37.57757
        longitude: 36.35492
        name: Andırın
        names_en: ~
        names_es: ~
        population: 8660
        timezone: Europe/Istanbul
      - 
        alternate_names: 
          - Afsin
          - Afşin
          - Efsus
          - Yarpus
        ascii_name: Afsin
        geonamesid: 325304
        latitude: 38.24769
        longitude: 36.91399
        name: Afşin
        names_en: ~
        names_es: ~
        population: 39613
        timezone: Europe/Istanbul
    geonamesid: 310858
    name: Kahramanmaraş
    names_en: 
      - "Kahramanmaraş Province"
      - Kahramanmaraş
    names_es: 
      - "Provincia de Kahramanmaraş"
  - 
    ascii_name: Izmir
    cities: 
      - 
        alternate_names: 
          - Urla
          - "Vourlah Skala"
          - Урла
        ascii_name: Urla
        geonamesid: 298316
        latitude: 38.32292
        longitude: 26.76403
        name: Urla
        names_en: ~
        names_es: ~
        population: 45199
        timezone: Europe/Istanbul
      - 
        alternate_names: 
          - Tepekoey
          - Tepeköy
          - Torbali
          - Torbaly
        ascii_name: Torbali
        geonamesid: 298935
        latitude: 38.1519
        longitude: 27.36223
        name: Torbalı
        names_en: ~
        names_es: ~
        population: 50303
        timezone: Europe/Istanbul
      - 
        alternate_names: 
          - Arcadiopolis
          - Teira
