--- 
geonamesid: 1512440
iso: UZ
name: Uzbekistan
names_en: 
  - Uzbekistan
  - "Republic of Uzbekistan"
names_es: 
  - Uzbekistán
regions: 
  - 
    ascii_name: Karakalpakstan
    cities: 
      - 
        alternate_names: 
          - Nukus
          - Nukusas
          - nukuseu
          - nukusu
        ascii_name: Nukus
        geonamesid: 601294
        latitude: 42.45306
        longitude: 59.61028
        name: Nukus
        names_en: 
          - Nukus
        names_es: 
          - Nukus
        population: 230006
        timezone: Asia/Samarkand
      - 
        alternate_names: 
          - Muinak
          - Mujnak
          - Muynak
          - Muynoq
        ascii_name: Muynoq
        geonamesid: 601299
        latitude: 43.76833
        longitude: 59.02139
        name: Mŭynoq
        names_en: 
          - Muynak
        names_es: ~
        population: 13000
        timezone: Asia/Samarkand
      - 
        alternate_names: 
          - Khodzheili
          - Khodzhejli
          - Khodzheyli
          - Khojeili
        ascii_name: Khujayli
        geonamesid: 601339
        latitude: 42.40472
        longitude: 59.45167
        name: Khŭjayli
        names_en: ~
        names_es: ~
        population: 50000
        timezone: Asia/Samarkand
      - 
        alternate_names: 
          - Kegayli
          - Kegeyli
        ascii_name: Kegayli
        geonamesid: 601349
        latitude: 42.77667
        longitude: 59.60778
        name: Kegayli
        names_en: ~
        names_es: ~
        population: 14147
        timezone: Asia/Samarkand
      - 
        alternate_names: 
          - Chimbai
          - Chimbay
          - Chimboj
          - Chimboy
        ascii_name: Chimboy
        geonamesid: 601395
        latitude: 42.93583
        longitude: 59.77528
        name: Chimboy
        names_en: ~
        names_es: ~
        population: 36917
        timezone: Asia/Samarkand
      - 
        alternate_names: 
          - Altynkul'
          - Altynkul’
          - Oltinkul
          - Oltinkŭl
        ascii_name: Oltinkul
        geonamesid: 601417
        latitude: 43.07444
        longitude: 58.89333
        name: Oltinkŭl
        names_en: ~
        names_es: ~
        population: 59122
        timezone: Asia/Samarkand
      - 
        alternate_names: 
          - Manga
          - Manghit
          - Mangit
          - Mangyt
        ascii_name: Manghit
        geonamesid: 1513245
        latitude: 42.11556
        longitude: 60.05972
        name: Manghit
        names_en: ~
        names_es: ~
        population: 30854
        timezone: Asia/Samarkand
      - 
        alternate_names: 
          - Beruni
          - Berunij
          - Beruniy
          - Biruni
        ascii_name: Beruniy
        geonamesid: 1514387
        latitude: 41.69111
        longitude: 60.7525
        name: Beruniy
        names_en: ~
        names_es: ~
        population: 50929
        timezone: Asia/Samarkand
    geonamesid: 453752
    name: Karakalpakstan
    names_en: 
      - Karakalpakstan
    names_es: ~
  - 
    ascii_name: "Surxondaryo Viloyati"
    cities: 
      - 
        alternate_names: 
          - Termez
          - Termiz
          - Tirmiz
          - "tai er mei zi"
        ascii_name: Tirmiz
        geonamesid: 1215957
        latitude: 37.22417
        longitude: 67.27833
        name: Tirmiz
        names_en: 
          - Termez
        names_es: 
          - Termez
        population: 140385
        timezone: Asia/Samarkand
      - 
        alternate_names: 
          - Chourtchi
          - Dzhalair
          - Kul'-Tepe
          - Kul’-Tepe
        ascii_name: Sho'rchi
        geonamesid: 1216115
        latitude: 37.99944
        longitude: 67.7875
        name: Sho’rchi
        names_en: ~
        names_es: ~
        population: 24900
        timezone: Asia/Samarkand
      - 
        alternate_names: 
          - Dehnan
          - Denan
          - Denau
          - Denov
        ascii_name: Denov
        geonamesid: 1217474
        latitude: 38.26667
        longitude: 67.9
        name: Denov
        names_en: ~
        names_es: ~
        population: 68994
        timezone: Asia/Samarkand
      - 
        alternate_names: 
          - Baisuk
          - Baisun
          - Baysun
          - Bojsun
        ascii_name: Boysun
        geonamesid: 1217734
        latitude: 38.20611
        longitude: 67.19861
        name: Boysun
        names_en: ~
        names_es: ~
        population: 25050
        timezone: Asia/Samarkand
    geonamesid: 1114926
    name: Surxondaryo
    names_en: ~
    names_es: ~
  - 
    ascii_name: "Samarqand Viloyati"
    cities: 
      - 
        alternate_names: 
          - Urgut
          - Ургут
        ascii_name: Urgut
        geonamesid: 1215839
        latitude: 39.40222
        longitude: 67.24306
        name: Urgut
        names_en: ~
        names_es: ~
        population: 47373
        timezone: Asia/Samarkand
      - 
        alternate_names: 
          - Samarcanda
          - Samarcande
          - Samarkand
          - Samarkanda
        ascii_name: Samarqand
        geonamesid: 1216265
        latitude: 39.65417
        longitude: 66.95972
        name: Samarqand
        names_en: 
          - Samarkand
        names_es: 
          - Samarkanda
          - Samarcanda
        population: 319366
        timezone: Asia/Samarkand
      - 
        alternate_names: 
          - Kattakurgan
          - Kattaqo'rg'on
          - Kattaqo’rg’on
          - Kattaqurghon
        ascii_name: Kattaqo'rg'on
        geonamesid: 1216982
        latitude: 39.89889
        longitude: 66.25611
        name: Kattaqo’rg’on
        names_en: ~
        names_es: ~
        population: 59382
        timezone: Asia/Samarkand
      - 
        alternate_names: 
          - Ishtihon
          - Ishtikhon
          - Ishtixon
          - Ishtykhan
        ascii_name: Ishtixon
        geonamesid: 1217215
        latitude: 39.96639
        longitude: 66.48611
        name: Ishtixon
        names_en: ~
        names_es: ~
        population: 13024
        timezone: Asia/Samarkand
      - 
        alternate_names: 
          - Dzhuma
          - Juma
        ascii_name: Juma
        geonamesid: 1217362
        latitude: 39.71611
        longitude: 66.66417
        name: Juma
        names_en: ~
        names_es: ~
        population: 19920
        timezone: Asia/Samarkand
      - 
        alternate_names: 
          - Dzhambay
          - Jomboy
          - Khashdala
          - Khoshdala
        ascii_name: Jomboy
        geonamesid: 1217414
        latitude: 39.69889
        longitude: 67.09333
        name: Jomboy
        names_en: ~
        names_es: ~
        population: 14429
        timezone: Asia/Samarkand
      - 
        alternate_names: 
          - Dagbid
          - Dagbit
          - Dakhbed
          - Dakhbet
        ascii_name: Daxbet
        geonamesid: 1217512
        latitude: 39.76389
        longitude: 66.9125
        name: Daxbet
        names_en: ~
        names_es: ~
        population: 8044
        timezone: Asia/Samarkand
      - 
        alternate_names: 
          - Chelak
          - Chelek
          - Payaryk
        ascii_name: Chelak
        geonamesid: 1217569
        latitude: 39.92028
        longitude: 66.86111
        name: Chelak
        names_en: ~
        names_es: ~
        population: 16727
        timezone: Asia/Samarkand
      - 
        alternate_names: 
          - Charkhin
          - Charxin
        ascii_name: Charxin
        geonamesid: 1217595
        latitude: 39.69667
        longitude: 66.76861
        name: Charxin
        names_en: ~
        names_es: ~
        population: 13791
        timezone: Asia/Samarkand
      - 
        alternate_names: 
          - Bulung'ur
          - Bulunghur
          - Bulung’ur
          - Krasnogvardeiskoye
        ascii_name: Bulung'ur
        geonamesid: 1217658
        latitude: 39.76472
        longitude: 67.27139
        name: Bulung’ur
        names_en: ~
        names_es: ~
        population: 26815
        timezone: Asia/Samarkand
      - 
        alternate_names: 
          - Aktash
          - Oqtosh
        ascii_name: Oqtosh
        geonamesid: 1217926
        latitude: 39.92139
        longitude: 65.92528
        name: Oqtosh
        names_en: ~
        names_es: ~
        population: 38307
        timezone: Asia/Samarkand
      - 
        alternate_names: 
          - Pajshanba
          - Payshanba
          - Payshmba
          - Пайшанба
        ascii_name: Payshanba
        geonamesid: 1513011
        latitude: 40.00778
        longitude: 66.23694
        name: Payshanba
        names_en: ~
        names_es: ~
        population: 24772
        timezone: Asia/Samarkand
    geonamesid: 1114927
    name: Samarqand
    names_en: ~
    names_es: ~
  - 
    ascii_name: "Qashqadaryo Viloyati"
    cities: 
      - 
        alternate_names: 
          - "Nishon Tumani"
          - Yangi-Nishan
          - Yangi-Nishon
        ascii_name: "Nishon Tumani"
        geonamesid: 1215736
        latitude: 38.69395
        longitude: 65.67512
        name: "Nishon Tumani"
        names_en: ~
        names_es: ~
        population: 10558
        timezone: Asia/Samarkand
      - 
        alternate_names: 
          - "Mug'lon Shahar"
          - Mughlon
          - Muglon
          - "Mug’lon Shahar"
        ascii_name: "Mug'lon Shahar"
        geonamesid: 1215856
        latitude: 38.93103
        longitude: 65.4364
        name: "Mug’lon Shahar"
        names_en: ~
        names_es: ~
        population: 0
        timezone: Asia/Samarkand
      - 
        alternate_names: 
          - Schachrissjabs
          - Shahri-i-Sabz
          - Shahrisabz
          - Shakhrisabz
        ascii_name: Shahrisabz
        geonamesid: 1216187
        latitude: 39.05778
        longitude: 66.83417
        name: Shahrisabz
        names_en: ~
        names_es: ~
        population: 57051
        timezone: Asia/Samarkand
      - 
        alternate_names: 
          - "Bek Budi"
          - Karaki
          - Karshi
          - Karsi
        ascii_name: Qarshi
        geonamesid: 1216311
        latitude: 38.86667
        longitude: 65.8
        name: Qarshi
        names_en: 
          - Qarshi
        names_es: ~
        population: 222898
        timezone: Asia/Samarkand
      - 
        alternate_names: 
          - Maburek
          - Mubarek
          - Muborak
          - Муборак
        ascii_name: Muborak
        geonamesid: 1216475
        latitude: 39.25528
        longitude: 65.15278
        name: Muborak
        names_en: ~
        names_es: ~
        population: 29180
        timezone: Asia/Samarkand
      - 
        alternate_names: 
          - Mirichkar
          - Mirishkor
          - "Yangi Mirishkor"
        ascii_name: "Yangi Mirishkor"
        geonamesid: 1216490
        latitude: 38.85997
        longitude: 65.3037
        name: "Yangi Mirishkor"
        names_en: ~
        names_es: ~
        population: 0
        timezone: Asia/Samarkand
      - 
        alternate_names: 
          - Kitab
          - Kitob
          - Китоб
        ascii_name: Kitob
        geonamesid: 1216787
        latitude: 39.11806
        longitude: 66.87556
        name: Kitob
        names_en: ~
        names_es: ~
        population: 41938
        timezone: Asia/Samarkand
      - 
        alternate_names: 
          - Kasan
          - Kassan
          - Koson
          - Косон
        ascii_name: Koson
        geonamesid: 1217007
        latitude: 39.0375
        longitude: 65.585
        name: Koson
        names_en: ~
        names_es: ~
        population: 59681
        timezone: Asia/Samarkand
      - 
        alternate_names: 
          - Kamashi
          - Kamyshi
        ascii_name: Qamashi
        geonamesid: 1217145
        latitude: 38.82417
        longitude: 66.46083
        name: Qamashi
        names_en: ~
        names_es: ~
        population: 32700
        timezone: Asia/Samarkand
      - 
        alternate_names: 
          - G'uzor
          - Ghuzor
          - Gusar
          - Guzar
        ascii_name: G'uzor
        geonamesid: 1217262
        latitude: 38.62083
        longitude: 66.24806
        name: G’uzor
        names_en: ~
        names_es: ~
        population: 25368
        timezone: Asia/Samarkand
      - 
        alternate_names: 
          - Chirakchi
          - Chirakchya
          - Chiroqchi
        ascii_name: Chiroqchi
        geonamesid: 1217540
        latitude: 39.03361
        longitude: 66.57222
        name: Chiroqchi
        names_en: ~
        names_es: ~
        population: 19356
        timezone: Asia/Samarkand
      - 
        alternate_names: 
          - Beshkent
          - Bish-Kent
          - Бешкент
        ascii_name: Beshkent
        geonamesid: 1217703
        latitude: 38.82139
        longitude: 65.65306
        name: Beshkent
        names_en: ~
        names_es: ~
        population: 17010
        timezone: Asia/Samarkand
      - 
        alternate_names: 
          - "Gorod Kasan"
          - "Koson Shahri"
        ascii_name: "Koson Shahri"
        geonamesid: 1346483
        latitude: 39.05966
        longitude: 65.62049
        name: "Koson Shahri"
        names_en: ~
        names_es: ~
        population: 0
        timezone: Asia/Samarkand
      - 
        alternate_names: 
          - "Gorod Mubarek"
          - "Muborak Shahri"
        ascii_name: "Muborak Shahri"
        geonamesid: 1346486
        latitude: 39.26154
        longitude: 65.18109
        name: "Muborak Shahri"
        names_en: ~
        names_es: ~
        population: 0
        timezone: Asia/Samarkand
      - 
        alternate_names: 
          - "Beshkent Shahri"
          - "Gorod Beshkent"
        ascii_name: "Beshkent Shahri"
        geonamesid: 1346487
        latitude: 38.81482
        longitude: 65.66991
        name: "Beshkent Shahri"
        names_en: ~
        names_es: ~
        population: 0
        timezone: Asia/Samarkand
      - 
        alternate_names: 
          - "Gorod Yangi-Nishan"
          - "Yangi-Nishon Shahri"
        ascii_name: "Yangi-Nishon Shahri"
        geonamesid: 1346493
        latitude: 38.65945
        longitude: 65.71493
        name: "Yangi-Nishon Shahri"
        names_en: ~
        names_es: ~
        population: 0
        timezone: Asia/Samarkand
    geonamesid: 1114928
    name: Qashqadaryo
    names_en: ~
    names_es: ~
  - 
    ascii_name: "Buxoro Viloyati"
    cities: 
      - 
        alternate_names: 
          - Kal'ty-Mauri
          - Kal’ty-Mauri
          - Ramitan
          - Rometan
        ascii_name: Romiton
        geonamesid: 1216290
        latitude: 39.92944
        longitude: 64.37944
        name: Romiton
        names_en: ~
        names_es: ~
        population: 12927
        timezone: Asia/Samarkand
      - 
        alternate_names: 
          - Karaulbazar
          - Qorovulbozor
          - Qorowulbozor
        ascii_name: Qorovulbozor
        geonamesid: 1217035
        latitude: 39.50056
        longitude: 64.79361
        name: Qorovulbozor
        names_en: ~
        names_es: ~
        population: 8618
        timezone: Asia/Samarkand
      - 
        alternate_names: 
          - Kagan
          - Kogon
          - "Novaya Bukhara"
          - Каган
        ascii_name: Kogon
        geonamesid: 1217180
        latitude: 39.72278
        longitude: 64.55167
        name: Kogon
        names_en: ~
        names_es: ~
        population: 62620
        timezone: Asia/Samarkand
      - 
        alternate_names: 
          - Galaasiya
          - Galaassiya
          - Galaosiyo
          - Gallya-Asiya
        ascii_name: Galaosiyo
        geonamesid: 1217340
        latitude: 39.85778
        longitude: 64.44833
        name: Galaosiyo
        names_en: ~
        names_es: ~
        population: 15620
        timezone: Asia/Samarkand
      - 
        alternate_names: 
          - Alt-Buchara
          - Bokhara
          - Boukhara
          - Bucara
        ascii_name: Buxoro
        geonamesid: 1217662
        latitude: 39.77472
        longitude: 64.42861
        name: Buxoro
        names_en: 
          - Bukhara
        names_es: 
          - Bujara
        population: 247644
        timezone: Asia/Samarkand
      - 
        alternate_names: 
          - Alat
          - Alata
          - Olot
        ascii_name: Olot
        geonamesid: 1217907
        latitude: 39.415
        longitude: 63.80333
        name: Olot
        names_en: ~
        names_es: ~
        population: 11984
        timezone: Asia/Samarkand
      - 
        alternate_names: 
          - "Gorod Karaulbazar"
          - "Qorovulbozor Shahri"
          - "Qorowulbozor Shahri"
        ascii_name: "Qorovulbozor Shahri"
        geonamesid: 1346442
        latitude: 39.50308
        longitude: 64.81142
        name: "Qorovulbozor Shahri"
        names_en: ~
        names_es: ~
        population: 0
        timezone: Asia/Samarkand
      - 
        alternate_names: 
          - Vabkend
          - Vabkent
          - Wobkent
        ascii_name: Wobkent
        geonamesid: 1512423
        latitude: 40.03028
        longitude: 64.515
        name: Wobkent
        names_en: ~
        names_es: ~
        population: 16697
        timezone: Asia/Samarkand
      - 
        alternate_names: 
          - Baumana
          - Khodzha-arif
          - Shafirkan
          - Shafrikan
        ascii_name: Shofirkon
        geonamesid: 1512838
        latitude: 40.12
        longitude: 64.50139
        name: Shofirkon
        names_en: ~
        names_es: ~
        population: 26527
        timezone: Asia/Samarkand
      - 
        alternate_names: 
          - Akmal'-Abad
          - Akmal’-Abad
          - Ghijduwon
          - Gidzhduvan
        ascii_name: Ghijduwon
        geonamesid: 1513983
        latitude: 40.1
        longitude: 64.68333
        name: Ghijduwon
        names_en: ~
        names_es: ~
        population: 41070
        timezone: Asia/Samarkand
      - 
        alternate_names: ~
        ascii_name: Gazli
        geonamesid: 1513990
        latitude: 40.13333
        longitude: 63.45
        name: Gazli
        names_en: ~
        names_es: ~
        population: 11446
        timezone: Asia/Samarkand
    geonamesid: 1114929
    name: Buxoro
    names_en: ~
    names_es: ~
  - 
    ascii_name: "Toshkent Viloyati"
    cities: 
      - 
        alternate_names: 
          - Jangijul'
          - Kaunchi
          - Янгиюль
        ascii_name: Yangiyul
        geonamesid: 1512339
        latitude: 41.11202
        longitude: 69.0471
        name: Yangiyŭl
        names_en: ~
        names_es: ~
        population: 60000
        timezone: Asia/Tashkent
      - 
        alternate_names: 
          - Jangiabad
          - Yangiabad
          - Янгиабад
        ascii_name: Yangiobod
        geonamesid: 1512372
        latitude: 41.11919
        longitude: 70.09406
        name: Yangiobod
        names_en: ~
        names_es: ~
        population: 24900
        timezone: Asia/Tashkent
      - 
        alternate_names: 
          - Urtaaul
          - Urtaowul
          - Ŭrtaowul
        ascii_name: Urtaowul
        geonamesid: 1512464
        latitude: 41.18667
        longitude: 69.14528
        name: Ŭrtaowul
        names_en: ~
        names_es: ~
        population: 14047
        timezone: Asia/Tashkent
      - 
        alternate_names: 
          - Toi-Tjube
          - Toi-Tyube
          - Tojtepa
          - Toy-Tyube
        ascii_name: Tuytepa
        geonamesid: 1512524
        latitude: 41.0321
        longitude: 69.36253
        name: Tŭytepa
        names_en: ~
        names_es: ~
        population: 20682
        timezone: Asia/Tashkent
      - 
        alternate_names: 
          - Chirchik
          - Salar
          - Salor
        ascii_name: Salor
        geonamesid: 1512934
        latitude: 41.37222
        longitude: 69.38167
        name: Salor
        names_en: ~
        names_es: ~
        population: 26494
        timezone: Asia/Tashkent
      - 
        alternate_names: 
          - Piskent
          - Pskent
        ascii_name: Piskent
        geonamesid: 1512986
        latitude: 40.89722
        longitude: 69.35056
        name: Piskent
        names_en: ~
        names_es: ~
        population: 27865
        timezone: Asia/Tashkent
      - 
        alternate_names: ~
        ascii_name: Parkent
        geonamesid: 1513017
        latitude: 41.29444
        longitude: 69.67639
        name: Parkent
        names_en: ~
        names_es: ~
        population: 35973
        timezone: Asia/Tashkent
      - 
        alternate_names: 
          - Almalyk
          - Ałmałyk
          - Olmaliq
          - Алмалык
        ascii_name: Olmaliq
        geonamesid: 1513064
        latitude: 40.84472
        longitude: 69.59833
        name: Olmaliq
        names_en: 
          - Olmaliq
        names_es: ~
        population: 121207
        timezone: Asia/Tashkent
      - 
        alternate_names: 
          - Akhangaran
          - Akhangaron
          - Kurama
          - Ohangaron
        ascii_name: Ohangaron
        geonamesid: 1513072
        latitude: 40.90639
        longitude: 69.63833
        name: Ohangaron
        names_en: ~
        names_es: ~
        population: 35516
        timezone: Asia/Tashkent
      - 
        alternate_names: 
          - Kibrai
          - Kibray
          - Qibray
        ascii_name: Qibray
        geonamesid: 1513567
        latitude: 41.38972
        longitude: 69.465
        name: Qibray
        names_en: ~
        names_es: ~
        population: 27750
        timezone: Asia/Tashkent
      - 
        alternate_names: 
          - Iskandar
          - Iskander
          - Искандар
        ascii_name: Iskandar
        geonamesid: 1513900
        latitude: 41.55389
        longitude: 69.70083
        name: Iskandar
        names_en: ~
        names_es: ~
        population: 27636
        timezone: Asia/Tashkent
      - 
        alternate_names: 
          - G`azalkent
          - Gazalkent
          - Ghazalkent
          - G‘azalkent
        ascii_name: G'azalkent
        geonamesid: 1513996
        latitude: 41.55806
        longitude: 69.77083
        name: G‘azalkent
        names_en: ~
        names_es: ~
        population: 24700
        timezone: Asia/Tashkent
      - 
        alternate_names: 
          - Chirchik
          - Chirchiq
          - Tschirtschik
          - Чирчик
        ascii_name: Chirchiq
        geonamesid: 1514210
        latitude: 41.46889
        longitude: 69.58222
        name: Chirchiq
        names_en: 
          - Chirchiq
        names_es: ~
        population: 167842
        timezone: Asia/Tashkent
      - 
        alternate_names: 
          - Chinaz
          - Chinoz
          - Cinaz
          - Tschin
        ascii_name: Chinoz
        geonamesid: 1514215
        latitude: 40.93639
        longitude: 68.76972
        name: Chinoz
        names_en: ~
        names_es: ~
        population: 24553
        timezone: Asia/Tashkent
      - 
        alternate_names: ~
        ascii_name: Buka
        geonamesid: 1514330
        latitude: 40.81083
        longitude: 69.19861
        name: Bŭka
        names_en: ~
        names_es: ~
        population: 19642
        timezone: Asia/Tashkent
      - 
        alternate_names: 
          - Bagevat
          - Begovat
          - Begowat
          - Bekabad
        ascii_name: Bekobod
        geonamesid: 1514402
        latitude: 40.22083
        longitude: 69.26972
        name: Bekobod
        names_en: ~
        names_es: ~
        population: 86259
        timezone: Asia/Tashkent
      - 
        alternate_names: 
          - Angren
          - Angrenshakhtstroy
          - Turk
          - Turn
        ascii_name: Angren
        geonamesid: 1514581
        latitude: 41.01667
        longitude: 70.14361
        name: Angren
        names_en: ~
        names_es: ~
        population: 126957
        timezone: Asia/Tashkent
    geonamesid: 1484838
    name: Toshkent
    names_en: ~
    names_es: ~
  - 
    ascii_name: "Toshkent Shahri"
    cities: 
      - 
        alternate_names: 
          - Ta.kent
          - Tachkent
          - Taschkent
          - Tashken
        ascii_name: Tashkent
        geonamesid: 1512569
        latitude: 41.26465
        longitude: 69.21627
        name: Tashkent
        names_en: 
          - Tashkent
        names_es: 
          - Tashkent
        population: 1978028
        timezone: Asia/Tashkent
      - 
        alternate_names: 
          - Bektemir
          - "Kolkhoz Imeni Akhunbabayeva"
          - Бектемир
        ascii_name: Bektemir
        geonamesid: 1514396
        latitude: 41.20972
        longitude: 69.33417
        name: Bektemir
        names_en: ~
        names_es: ~
        population: 26380
        timezone: Asia/Tashkent
    geonamesid: 1484839
    name: "Toshkent Shahri"
    names_en: ~
    names_es: ~
  - 
    ascii_name: "Sirdaryo Viloyati"
    cities: 
      - 
        alternate_names: 
          - Jangier
          - Ungi-Yere
          - Yangier
          - Yangiyer
        ascii_name: Yangiyer
        geonamesid: 1512342
        latitude: 40.275
        longitude: 68.8225
        name: Yangiyer
        names_en: ~
        names_es: ~
        population: 32636
        timezone: Asia/Tashkent
      - 
        alternate_names: 
          - Sidare
          - Sirdaryo
          - Ssyr-Darja
          - Syr-Dar'inskiy
        ascii_name: Sirdaryo
        geonamesid: 1512770
        latitude: 40.84361
        longitude: 68.66167
        name: Sirdaryo
        names_en: ~
        names_es: ~
        population: 26816
        timezone: Asia/Tashkent
      - 
        alternate_names: 
          - "Golodnaya Step'"
          - "Golodnaya Step’"
          - Gulistan
          - Guliston
        ascii_name: Guliston
        geonamesid: 1513966
        latitude: 40.48972
        longitude: 68.78417
        name: Guliston
        names_en: ~
        names_es: ~
        population: 53373
        timezone: Asia/Tashkent
    geonamesid: 1484840
    name: Sirdaryo
    names_en: ~
    names_es: ~
  - 
    ascii_name: "Navoiy Viloyati"
    cities: 
      - 
        alternate_names: 
          - Sugrali
          - Sugraly
          - Zarafshan
          - Zarafshon
        ascii_name: Zarafshon
        geonamesid: 1512281
        latitude: 41.57917
        longitude: 64.2075
        name: Zarafshon
        names_en: ~
        names_es: ~
        population: 63543
        timezone: Asia/Samarkand
      - 
        alternate_names: 
          - Yangirabad
          - Yangirabod
        ascii_name: Yangirabod
        geonamesid: 1512348
        latitude: 40.03
        longitude: 65.96083
        name: Yangirabod
        names_en: ~
        names_es: ~
        population: 25027
        timezone: Asia/Samarkand
      - 
        alternate_names: 
          - Nurata
          - Nurota
          - Нурота
        ascii_name: Nurota
        geonamesid: 1513087
        latitude: 40.56139
        longitude: 65.68861
        name: Nurota
        names_en: ~
        names_es: ~
        population: 29403
        timezone: Asia/Samarkand
      - 
        alternate_names: 
          - Kermene
          - Kermine
          - Nava
          - Navoi
        ascii_name: Navoiy
        geonamesid: 1513131
        latitude: 40.08444
        longitude: 65.37917
        name: Navoiy
        names_en: 
          - Navoiy
        names_es: ~
        population: 129725
        timezone: Asia/Samarkand
      - 
        alternate_names: 
          - Kizil-Tepe
          - "Kyzyl Tepe"
          - Kyzyltepa
          - Qiziltepa
        ascii_name: Qiziltepa
        geonamesid: 1513288
        latitude: 40.03306
        longitude: 64.85
        name: Qiziltepa
        names_en: ~
        names_es: ~
        population: 13558
        timezone: Asia/Samarkand
    geonamesid: 1484841
    name: Navoiy
    names_en: ~
    names_es: ~
  - 
    ascii_name: "Namangan Viloyati"
    cities: 
      - 
        alternate_names: 
          - Yangikurgan
          - Yangiqo`rg`on
          - Yangiqo‘rg‘on
          - Yangiqurghon
        ascii_name: Yangiqo`rg`on
        geonamesid: 1512350
        latitude: 41.18722
        longitude: 71.73333
        name: Yangiqo‘rg‘on
        names_en: ~
        names_es: ~
        population: 28422
        timezone: Asia/Tashkent
      - 
        alternate_names: 
          - Uichi
          - Ujchi
          - Uychi
          - Уйчи
        ascii_name: Uychi
        geonamesid: 1512449
        latitude: 41.08073
        longitude: 71.92331
        name: Uychi
        names_en: ~
        names_es: ~
        population: 29683
        timezone: Asia/Tashkent
      - 
        alternate_names: 
          - Uchkurgan
          - Uchqurghon
          - Uchqŭrghon
        ascii_name: Uchqurghon
        geonamesid: 1512501
        latitude: 41.11816
        longitude: 72.0985
        name: Uchqŭrghon
        names_en: ~
        names_es: ~
        population: 33323
        timezone: Asia/Tashkent
      - 
        alternate_names: 
          - Turagurghon
          - Turakurgan
          - Tyurya-Kurgan
          - Tŭragŭrghon
        ascii_name: Turagurghon
        geonamesid: 1512549
        latitude: 40.99984
        longitude: 71.51162
        name: Tŭragŭrghon
        names_en: ~
        names_es: ~
        population: 27862
        timezone: Asia/Tashkent
      - 
        alternate_names: 
          - Tashbulak
          - Toshbuloq
        ascii_name: Toshbuloq
        geonamesid: 1512658
        latitude: 40.92436
        longitude: 71.56636
        name: Toshbuloq
        names_en: ~
        names_es: ~
        population: 28562
        timezone: Asia/Tashkent
      - 
        alternate_names: 
          - Pap
          - Pop
          - Поп
        ascii_name: Pop
        geonamesid: 1513023
        latitude: 40.87361
        longitude: 71.10889
        name: Pop
        names_en: ~
        names_es: ~
        population: 22122
        timezone: Asia/Tashkent
      - 
        alternate_names: 
          - Namangan
          - Наманган
        ascii_name: Namangan
        geonamesid: 1513157
        latitude: 40.9983
        longitude: 71.67257
        name: Namangan
        names_en: ~
        names_es: ~
        population: 432456
        timezone: Asia/Tashkent
      - 
        alternate_names: 
          - Haqqulobod
          - Khakkulabad
          - Khakulabad
          - Naron
        ascii_name: Haqqulobod
        geonamesid: 1513655
        latitude: 40.91667
        longitude: 72.11667
        name: Haqqulobod
        names_en: ~
        names_es: ~
        population: 26257
        timezone: Asia/Tashkent
      - 
        alternate_names: 
          - Kasansay
          - Kassan-Sai
          - Kassansay
          - Kosonsoy
        ascii_name: Kosonsoy
        geonamesid: 1513714
        latitude: 41.25611
        longitude: 71.55083
        name: Kosonsoy
        names_en: ~
        names_es: ~
        population: 43684
        timezone: Asia/Tashkent
      - 
        alternate_names: 
          - Chust
          - "Chust Shahri"
          - Tschust
          - Чуст
        ascii_name: "Chust Shahri"
        geonamesid: 1514192
        latitude: 41.00127
        longitude: 71.22575
        name: "Chust Shahri"
        names_en: ~
        names_es: ~
        population: 64966
        timezone: Asia/Tashkent
      - 
        alternate_names: 
          - Chartak
          - Chertak
          - Chortoq
        ascii_name: Chortoq
        geonamesid: 1514258
        latitude: 41.06656
        longitude: 71.85527
        name: Chortoq
        names_en: ~
        names_es: ~
        population: 49844
        timezone: Asia/Tashkent
      - 
        alternate_names: 
          - "Gorod Namangan"
          - "Namangan Shahri"
        ascii_name: "Namangan Shahri"
        geonamesid: 1538273
        latitude: 41.0
        longitude: 71.66667
        name: "Namangan Shahri"
        names_en: ~
        names_es: ~
        population: 0
        timezone: Asia/Tashkent
      - 
        alternate_names: 
          - "Gorod Kasansay"
          - "Kosonsoy Shahri"
        ascii_name: "Kosonsoy Shahri"
        geonamesid: 1538274
        latitude: 41.26327
        longitude: 71.54239
        name: "Kosonsoy Shahri"
        names_en: ~
        names_es: ~
        population: 0
        timezone: Asia/Tashkent
      - 
        alternate_names: 
          - "Gorod Uchkurgan"
          - "Uchqurghon Shahri"
          - "Uchqŭrghon Shahri"
        ascii_name: "Uchqurghon Shahri"
        geonamesid: 1538275
        latitude: 41.11278
        longitude: 72.07889
        name: "Uchqŭrghon Shahri"
        names_en: ~
        names_es: ~
        population: 0
        timezone: Asia/Tashkent
      - 
        alternate_names: 
          - "Chortoq Shahri"
          - "Gorod Chartak"
        ascii_name: "Chortoq Shahri"
        geonamesid: 1538276
        latitude: 41.07703
        longitude: 71.81772
        name: "Chortoq Shahri"
        names_en: ~
        names_es: ~
        population: 0
        timezone: Asia/Tashkent
      - 
        alternate_names: 
          - "Gorod Khakkulabad"
          - "Haqqulobod Shahri"
        ascii_name: "Haqqulobod Shahri"
        geonamesid: 1538278
        latitude: 40.91537
        longitude: 72.11659
        name: "Haqqulobod Shahri"
        names_en: ~
        names_es: ~
        population: 0
        timezone: Asia/Tashkent
      - 
        alternate_names: 
          - "Gorod Pap"
          - "Pop Shahri"
        ascii_name: "Pop Shahri"
        geonamesid: 1538279
        latitude: 40.87642
        longitude: 71.1022
        name: "Pop Shahri"
        names_en: ~
        names_es: ~
        population: 0
        timezone: Asia/Tashkent
      - 
        alternate_names: 
          - "Gorod Turakurgan"
          - "Turagurghon Shahri"
          - "Tŭragŭrghon Shahri"
        ascii_name: "Turagurghon Shahri"
        geonamesid: 1538280
        latitude: 41.00334
        longitude: 71.51056
        name: "Tŭragŭrghon Shahri"
        names_en: ~
        names_es: ~
        population: 0
        timezone: Asia/Tashkent
    geonamesid: 1484842
    name: Namangan
    names_en: ~
    names_es: ~
  - 
    ascii_name: "Xorazm Viloyati"
    cities: 
      - 
        alternate_names: 
          - Novo-Urgench
          - Ourguentch
          - Urganch
          - Urgench
        ascii_name: Urganch
        geonamesid: 1512473
        latitude: 41.55
        longitude: 60.63333
        name: Urganch
        names_en: 
          - Urgench
        names_es: 
          - Urgench
        population: 150110
        timezone: Asia/Samarkand
      - 
        alternate_names: 
          - Shakh-abad
          - Shavat
          - Shovot
          - Showot
        ascii_name: Showot
        geonamesid: 1512790
        latitude: 41.65583
        longitude: 60.3025
        name: Showot
        names_en: ~
        names_es: ~
        population: 26950
        timezone: Asia/Samarkand
      - 
        alternate_names: 
          - "Kosh Kunir"
          - Koshkupyr
          - Qushkupir
          - Qŭshkŭpir
        ascii_name: Qushkupir
        geonamesid: 1512978
        latitude: 41.535
        longitude: 60.34556
        name: Qŭshkŭpir
        names_en: ~
        names_es: ~
        population: 16948
        timezone: Asia/Samarkand
      - 
        alternate_names: 
          - Chiva
          - Chiwa
          - Hiva
          - Horezm
        ascii_name: Khiwa
        geonamesid: 1513604
        latitude: 41.37833
        longitude: 60.36389
        name: Khiwa
        names_en: 
          - Khiva
        names_es: 
          - Jiva
        population: 55567
        timezone: Asia/Samarkand
      - 
        alternate_names: 
          - Hazorasp
          - Khazarasp
        ascii_name: Hazorasp
        geonamesid: 1513957
        latitude: 41.31944
        longitude: 61.07417
        name: Hazorasp
        names_en: ~
        names_es: ~
        population: 17643
        timezone: Asia/Samarkand
      - 
        alternate_names: 
          - Gurlan
          - Gurlek
          - Gurlen
          - Гурлан
        ascii_name: Gurlan
        geonamesid: 1513962
        latitude: 41.84472
        longitude: 60.39194
        name: Gurlan
        names_en: ~
        names_es: ~
        population: 27506
        timezone: Asia/Samarkand
    geonamesid: 1484843
    name: Xorazm
    names_en: ~
    names_es: ~
  - 
    ascii_name: "Jizzax Viloyati"
    cities: 
      - 
        alternate_names: 
          - Saamin
          - Zaamin
          - Zomin
          - Зомин
        ascii_name: Zomin
        geonamesid: 1215694
        latitude: 39.96056
        longitude: 68.39583
        name: Zomin
        names_en: ~
        names_es: ~
        population: 27077
        timezone: Asia/Tashkent
      - 
        alternate_names: 
          - Dashtobod
          - Ul'yanovo
          - Ul’yanovo
        ascii_name: Dashtobod
        geonamesid: 1512480
        latitude: 40.12694
        longitude: 68.49444
        name: Dashtobod
        names_en: ~
        names_es: ~
        population: 19718
        timezone: Asia/Tashkent
      - 
        alternate_names: 
          - Pakhtakor
          - Paxtakor
        ascii_name: Paxtakor
        geonamesid: 1513038
        latitude: 40.31528
        longitude: 67.95444
        name: Paxtakor
        names_en: ~
        names_es: ~
        population: 21384
        timezone: Asia/Tashkent
      - 
        alternate_names: 
          - Dishsak
          - Djizak
          - Dzhizak
          - Jizak
        ascii_name: Jizzax
        geonamesid: 1513886
        latitude: 40.11583
        longitude: 67.84222
        name: Jizzax
        names_en: 
          - Jizzakh
        names_es: ~
        population: 152642
        timezone: Asia/Tashkent
      - 
        alternate_names: 
          - Erjar
          - Gagarin
          - Yerzhar
          - Гагарин
        ascii_name: Gagarin
        geonamesid: 1514011
        latitude: 40.66194
        longitude: 68.17222
        name: Gagarin
        names_en: ~
        names_es: ~
        population: 24856
        timezone: Asia/Tashkent
      - 
        alternate_names: ~
        ascii_name: Dustlik
        geonamesid: 1514125
        latitude: 40.52472
        longitude: 68.03583
        name: Dŭstlik
        names_en: ~
        names_es: ~
        population: 16524
        timezone: Asia/Tashkent
    geonamesid: 1484844
    name: Jizzax
    names_en: ~
    names_es: ~
  - 
    ascii_name: "Farg`ona Viloyati"
    cities: 
      - 
        alternate_names: 
          - Shakhimardan
          - Shakimardan
          - Shohimardon
          - Шахимардан
        ascii_name: Shohimardon
        geonamesid: 1216189
        latitude: 39.98389
        longitude: 71.80278
        name: Shohimardon
        names_en: ~
        names_es: ~
        population: 5100
        timezone: Asia/Tashkent
      - 
        alternate_names: 
          - Bazar-Yaypan
          - Jajpan
          - Yaipan
          - Yaypan
        ascii_name: Yaypan
        geonamesid: 1512320
        latitude: 40.37583
        longitude: 70.81556
        name: Yaypan
        names_en: ~
        names_es: ~
        population: 20332
        timezone: Asia/Tashkent
      - 
        alternate_names: 
          - Tashlak
          - Toshloq
        ascii_name: Toshloq
        geonamesid: 1512568
        latitude: 40.47722
        longitude: 71.76778
        name: Toshloq
        names_en: ~
        names_es: ~
        population: 26686
        timezone: Asia/Tashkent
      - 
        alternate_names: 
          - Kokand
          - Kokandas
          - Qo'qon
          - Qo`qon
        ascii_name: Qo`qon
        geonamesid: 1512979
        latitude: 40.52861
        longitude: 70.9425
        name: Qo‘qon
        names_en: 
          - Kokand
        names_es: ~
        population: 187477
        timezone: Asia/Tashkent
      - 
        alternate_names: 
          - Marg`ilon
          - Margelan
          - Marghilon
          - Margilan
        ascii_name: Marg`ilon
        geonamesid: 1513243
        latitude: 40.47111
        longitude: 71.72472
        name: Marg‘ilon
        names_en: 
          - Margilan
        names_es: ~
        population: 133490
        timezone: Asia/Tashkent
      - 
        alternate_names: 
          - Kubasay
          - Kuvasa
          - Kuvasay
          - Kuwassai
        ascii_name: Quvasoy
        geonamesid: 1513331
        latitude: 40.30222
        longitude: 71.97444
        name: Quvasoy
        names_en: ~
        names_es: ~
        population: 32024
        timezone: Asia/Tashkent
      - 
        alternate_names: 
          - Gorchakovo
          - Komsomol'skiy
          - Komsomol’skiy
          - "Stantsiya Gorchakovo"
        ascii_name: Komsomol'skiy
        geonamesid: 1513491
        latitude: 40.42722
        longitude: 71.71889
        name: Komsomol’skiy
        names_en: ~
        names_es: ~
        population: 14114
        timezone: Asia/Tashkent
      - 
        alternate_names: ~
        ascii_name: Kirgili
        geonamesid: 1513555
        latitude: 40.43583
        longitude: 71.76722
        name: Kirgili
        names_en: ~
        names_es: ~
        population: 20459
        timezone: Asia/Tashkent
      - 
        alternate_names: 
          - Hamza
          - "Imeni Khamzy Khakimzade"
          - Khamza
          - "Khamza Khakimzada"
        ascii_name: Hamza
        geonamesid: 1513650
        latitude: 40.42639
        longitude: 71.49556
        name: Hamza
        names_en: ~
        names_es: ~
        population: 13470
        timezone: Asia/Tashkent
      - 
        alternate_names: 
          - Farghona
          - Fergana
          - "Novyy Margelan"
          - Skobelev
        ascii_name: Farg`ona
        geonamesid: 1514019
        latitude: 40.38421
        longitude: 71.78432
        name: Farg`ona
        names_en: 
          - Fergana
        names_es: ~
        population: 164322
        timezone: Asia/Tashkent
      - 
        alternate_names: 
          - Beshariq
          - Besharyk
          - Besharykskogo
          - "Imeni Kirova"
        ascii_name: Beshariq
        geonamesid: 1514382
        latitude: 40.43583
        longitude: 70.61028
        name: Beshariq
        names_en: ~
        names_es: ~
        population: 21984
        timezone: Asia/Tashkent
      - 
        alternate_names: 
          - Altyaryk
          - Oltiariq
        ascii_name: Oltiariq
        geonamesid: 1514615
        latitude: 40.39194
        longitude: 71.47417
        name: Oltiariq
        names_en: ~
        names_es: ~
        population: 25543
        timezone: Asia/Tashkent
      - 
        alternate_names: 
          - Kuva
          - Quva
          - Quwa
          - Кува
        ascii_name: Quva
        geonamesid: 1526979
        latitude: 40.52361
        longitude: 72.06167
        name: Quva
        names_en: ~
        names_es: ~
        population: 33167
        timezone: Asia/Tashkent
    geonamesid: 1484845
    name: "Farg ona"
    names_en: ~
    names_es: ~
  - 
    ascii_name: "Andijon Viloyati"
    cities: 
      - 
        alternate_names: 
          - Marhamat
          - Markhamat
          - "Markhamat Pervyy"
          - Мархамат
        ascii_name: Marhamat
        geonamesid: 1513242
        latitude: 40.48
        longitude: 72.31389
        name: Marhamat
        names_en: ~
        names_es: ~
        population: 14646
        timezone: Asia/Tashkent
      - 
        alternate_names: 
          - Asaka
          - Assake
          - Leninsk
          - Zelensk
        ascii_name: Asaka
        geonamesid: 1513271
        latitude: 40.64139
        longitude: 72.23722
        name: Asaka
        names_en: ~
        names_es: ~
        population: 56736
        timezone: Asia/Tashkent
      - 
        alternate_names: 
          - "Kurgan Tyube"
          - Kurgan-Tepe
          - Kurgantepa
          - Kyzyl-Tepa
        ascii_name: Qurghontepa
        geonamesid: 1513364
        latitude: 40.72667
        longitude: 72.75917
        name: Qŭrghontepa
        names_en: ~
        names_es: ~
        population: 25861
        timezone: Asia/Tashkent
      - 
        alternate_names: 
          - Khodzhaabad
          - Khodzhavat
          - Khodzhiabad
          - Khoji-Abad
        ascii_name: Khujaobod
        geonamesid: 1513600
        latitude: 40.66944
        longitude: 72.55972
        name: Khŭjaobod
        names_en: ~
        names_es: ~
        population: 16889
        timezone: Asia/Tashkent
      - 
        alternate_names: 
          - Andican
          - Andidzhan
          - Andijan
          - Andijon
        ascii_name: Andijon
        geonamesid: 1514588
        latitude: 40.78306
        longitude: 72.34389
        name: Andijon
        names_en: 
          - Andijan
        names_es: 
          - Andiján
        population: 318419
        timezone: Asia/Tashkent
    geonamesid: 1484846
    name: Andijon
    names_en: ~
    names_es: ~
