--- 
geonamesid: 69543
iso: YE
name: Yemen
names_en: 
  - Yemen
  - "Republic of Yemen"
names_es: 
  - Yemen
regions: 
  - 
    ascii_name: "Muhafazat Ta`izz"
    cities: 
      - 
        alternate_names: 
          - Ta'izz
          - Ta`izz
          - Taiz
          - Taizz
        ascii_name: Ta`izz
        geonamesid: 70225
        latitude: 13.57952
        longitude: 44.02091
        name: Ta‘izz
        names_en: ~
        names_es: ~
        population: 615222
        timezone: Asia/Aden
    geonamesid: 70222
    name: "Muḩāfaz̧at Ta‘izz"
    names_en: ~
    names_es: ~
  - 
    ascii_name: "Muhafazat Shabwah"
    cities: 
      - 
        alternate_names: 
          - Attak
          - "`Ataq"
          - عتق
          - ‘Ataq
        ascii_name: "`Ataq"
        geonamesid: 77726
        latitude: 14.55
        longitude: 46.8
        name: ‘Ataq
        names_en: ~
        names_es: ~
        population: 0
        timezone: Asia/Aden
    geonamesid: 70935
    name: "Muḩāfaz̧at Shabwah"
    names_en: ~
    names_es: ~
  - 
    ascii_name: Sanaa
    cities: 
      - 
        alternate_names: 
          - Saiyan
          - Saiyān
          - Sayyan
          - Sayyān
        ascii_name: Sayyan
        geonamesid: 70979
        latitude: 15.17177
        longitude: 44.32442
        name: Sayyān
        names_en: ~
        names_es: ~
        population: 69404
        timezone: Asia/Aden
      - 
        alternate_names: 
          - Sahar
          - Saḩar
        ascii_name: Sahar
        geonamesid: 71273
        latitude: 15.31586
        longitude: 44.30858
        name: Saḩar
        names_en: ~
        names_es: ~
        population: 31859
        timezone: Asia/Aden
    geonamesid: 71132
    name: Sanaa
    names_en: ~
    names_es: ~
  - 
    ascii_name: "Muhafazat Sa`dah"
    cities: 
      - 
        alternate_names: 
          - Sa`da
          - Sa`dah
          - Saada
          - Sa‘da
        ascii_name: Sa`dah
        geonamesid: 71334
        latitude: 16.94021
        longitude: 43.76394
        name: Şa‘dah
        names_en: ~
        names_es: ~
        population: 0
        timezone: Asia/Aden
    geonamesid: 71333
    name: "Muḩāfaz̧at Şa‘dah"
    names_en: ~
    names_es: ~
  - 
    ascii_name: "Muhafazat Raymah"
    cities: 
      - 
        alternate_names: 
          - "Al Jabi"
          - "Al Jabin"
          - "Al Jaby"
          - "Al Jabī"
        ascii_name: "Al Jabin"
        geonamesid: 30789
        latitude: 14.70401
        longitude: 43.59904
        name: "Al Jabīn"
        names_en: ~
        names_es: ~
        population: 0
        timezone: Asia/Aden
    geonamesid: 71532
    name: "Muḩāfaz̧at Raymah"
    names_en: ~
    names_es: ~
  - 
    ascii_name: "Muhafazat Ma'rib"
    cities: []
    geonamesid: 72966
    name: "Muḩāfaz̧at Ma’rib"
    names_en: ~
    names_es: ~
  - 
    ascii_name: "Muhafazat al Mahwit"
    cities: 
      - 
        alternate_names: 
          - "Al Mahwit"
          - "Al Maḩwīt"
          - El-Mahwit
          - El-Maḩwīt
        ascii_name: "Al Mahwit"
        geonamesid: 78977
        latitude: 15.47007
        longitude: 43.54481
        name: "Al Maḩwīt"
        names_en: ~
        names_es: ~
        population: 0
        timezone: Asia/Aden
    geonamesid: 73200
    name: "Al Maḩwīt"
    names_en: ~
    names_es: ~
  - 
    ascii_name: "Muhafazat al Jawf"
    cities: 
      - 
        alternate_names: 
          - "Al Hazm"
          - "Al Ḩazm"
          - El-Hazm
          - El-Ḥazm
        ascii_name: "Al Hazm"
        geonamesid: 79455
        latitude: 16.16337
        longitude: 44.77656
        name: "Al Ḩazm"
        names_en: ~
        names_es: ~
        population: 0
        timezone: Asia/Aden
    geonamesid: 74222
    name: "Al Jawf"
    names_en: ~
    names_es: ~
  - 
    ascii_name: "Muhafazat Hadramawt"
    cities: 
      - 
        alternate_names: 
          - Kallansiya
          - Qalansiya
          - Qalansiyah
          - Qalansiyyah
        ascii_name: Qulansiyah
        geonamesid: 71799
        latitude: 12.68333
        longitude: 53.48333
        name: Qulansiyah
        names_en: ~
        names_es: ~
        population: 3500
        timezone: Asia/Aden
      - 
        alternate_names: 
          - Kilmia
        ascii_name: Kilmia
        geonamesid: 73685
        latitude: 12.18576
        longitude: 52.23332
        name: Kilmia
        names_en: ~
        names_es: ~
        population: 2013
        timezone: Asia/Aden
      - 
        alternate_names: 
          - Bilad-as-Sulyan
          - Hadibo
          - Hadiboh
          - Hadibu
        ascii_name: Hadiboh
        geonamesid: 75427
        latitude: 12.65
        longitude: 54.03333
        name: Hadīboh
        names_en: ~
        names_es: ~
        population: 8545
        timezone: Asia/Aden
      - 
        alternate_names: 
          - "Al Mukalla"
          - "Al Mukallā"
          - Al'-Mukalla
          - Al-Mukalla
        ascii_name: "Al Mukalla"
        geonamesid: 78754
        latitude: 14.54248
        longitude: 49.12424
        name: "Al Mukallā"
        names_en: 
          - "Al Mukalla"
        names_es: ~
        population: 258132
        timezone: Asia/Aden
    geonamesid: 75411
    name: Ḩaḑramawt
    names_en: ~
    names_es: ~
  - 
    ascii_name: "Muhafazat Dhamar"
    cities: 
      - 
        alternate_names: 
          - Damar
          - Dhamar
          - Dhamār
          - ذمار
        ascii_name: Dhamar
        geonamesid: 76184
        latitude: 14.54274
        longitude: 44.40514
        name: Dhamār
        names_en: ~
        names_es: ~
        population: 0
        timezone: Asia/Aden
    geonamesid: 76183
    name: "Muḩāfaz̧at Dhamār"
    names_en: ~
    names_es: ~
  - 
    ascii_name: "Muhafazat al Mahrah"
    cities: 
      - 
        alternate_names: 
          - "Al Ghaydah"
          - "Al Ghayzah"
          - "Al Ghayz̧ah"
          - "Al Ghayḑah"
        ascii_name: "Al Ghaydah"
        geonamesid: 79700
        latitude: 16.20787
        longitude: 52.17605
        name: "Al Ghayḑah"
        names_en: ~
        names_es: ~
        population: 0
        timezone: Asia/Aden
    geonamesid: 78985
    name: "Al Mahrah"
    names_en: ~
    names_es: ~
  - 
    ascii_name: "Muhafazat al Hudaydah"
    cities: 
      - 
        alternate_names: 
          - Zabid
          - Zabīd
          - Zebid
          - Забид
        ascii_name: Zabid
        geonamesid: 69500
        latitude: 14.1951
        longitude: 43.31518
        name: Zabīd
        names_en: ~
        names_es: ~
        population: 52590
        timezone: Asia/Aden
      - 
        alternate_names: 
          - "Bait al Faqih"
          - "Bait al Faqīh"
          - "Bayt al Fakih Ibn `Udjayl"
          - "Bayt al Fakih al-Saghir"
        ascii_name: "Bayt al Faqih"
        geonamesid: 76991
        latitude: 14.51635
        longitude: 43.32446
        name: "Bayt al Faqīh"
        names_en: ~
        names_es: ~
        population: 34204
        timezone: Asia/Aden
      - 
        alternate_names: 
          - Badjil
          - Bagil
          - Bajil
          - Bâdjil
        ascii_name: Bajil
        geonamesid: 77408
        latitude: 15.05835
        longitude: 43.28506
        name: Bājil
        names_en: ~
        names_es: ~
        population: 48218
        timezone: Asia/Aden
      - 
        alternate_names: 
          - "Al Hudaydah"
          - "Al Ḩudaydah"
          - El-Hodeidah
          - El-Ḥodeidah
        ascii_name: "Al Hudaydah"
        geonamesid: 79415
        latitude: 14.79781
        longitude: 42.95452
        name: "Al Ḩudaydah"
        names_en: ~
        names_es: ~
        population: 617871
        timezone: Asia/Aden
    geonamesid: 79416
    name: "Al Ḩudaydah"
    names_en: ~
    names_es: ~
  - 
    ascii_name: "Muhafazat al Bayda'"
    cities: 
      - 
        alternate_names: 
          - "Al Bayda'"
          - "Al Bayḑā’"
          - "Al Beidha"
          - Al-Baida
        ascii_name: "Al Bayda'"
        geonamesid: 79836
        latitude: 13.98278
        longitude: 45.575
        name: "Al Bayḑā’"
        names_en: ~
        names_es: ~
        population: 37821
        timezone: Asia/Aden
    geonamesid: 79838
    name: "Al Bayḑāʼ"
    names_en: ~
    names_es: ~
  - 
    ascii_name: Aden
    cities: 
      - 
        alternate_names: 
          - Adem
          - Aden
          - Adeno
          - Adén
        ascii_name: Aden
        geonamesid: 415189
        latitude: 12.77944
        longitude: 45.03667
        name: Aden
        names_en: 
          - Aden
        names_es: 
          - Adén
        population: 550602
        timezone: Asia/Aden
    geonamesid: 80412
    name: Aden
    names_en: 
      - Aden
    names_es: ~
  - 
    ascii_name: "Muhafazat Abyan"
    cities: 
      - 
        alternate_names: 
          - "Az Zanjabar"
          - "Az Zanjabār"
          - Zanjibar
          - Zinjibar
        ascii_name: Zinjibar
        geonamesid: 69426
        latitude: 13.12871
        longitude: 45.38073
        name: Zinjibār
        names_en: ~
        names_es: ~
        population: 0
        timezone: Asia/Aden
      - 
        alternate_names: 
          - "Al Jawf"
          - "Al Jouf"
          - Al-Jauf
          - Jawf
        ascii_name: "Jawf al Maqbabah"
        geonamesid: 74219
        latitude: 13.83833
        longitude: 45.83583
        name: "Jawf al Maqbābah"
        names_en: ~
        names_es: ~
        population: 14175
        timezone: Asia/Aden
    geonamesid: 80425
    name: Abyan
    names_en: ~
    names_es: ~
  - 
    ascii_name: "Muhafazat ad Dali`"
    cities: 
      - 
        alternate_names: 
          - "Ad Dali`"
          - "Adh Dhala`"
          - "Adh Dhāla‘"
          - "Aḑ Ḑāli‘"
        ascii_name: Dhalie
        geonamesid: 80384
        latitude: 13.69572
        longitude: 44.73137
        name: Dhalie
        names_en: ~
        names_es: ~
        population: 0
        timezone: Asia/Aden
    geonamesid: 6201193
    name: "Muḩāfaz̧at aḑ Ḑāli‘"
    names_en: ~
    names_es: ~
  - 
    ascii_name: Omran
    cities: 
      - 
        alternate_names: 
          - "`Amran"
          - "`Umran"
          - عمران
          - ‘Amrān
        ascii_name: "`Amran"
        geonamesid: 78428
        latitude: 15.6594
        longitude: 43.94385
        name: ‘Amrān
        names_en: ~
        names_es: ~
        population: 0
        timezone: Asia/Aden
    geonamesid: 6201194
    name: Omran
    names_en: 
      - Omran
    names_es: ~
  - 
    ascii_name: "Muhafazat Hajjah"
    cities: 
      - 
        alternate_names: 
          - Hage
          - Haggah
          - Haggiah
          - Hajja
        ascii_name: Hajjah
        geonamesid: 75337
        latitude: 15.69425
        longitude: 43.60582
        name: Ḩajjah
        names_en: ~
        names_es: ~
        population: 43549
        timezone: Asia/Aden
    geonamesid: 6201195
    name: Ḩajjah
    names_en: ~
    names_es: ~
  - 
    ascii_name: "Muhafazat Ibb"
    cities: 
      - 
        alternate_names: 
          - Jarim
          - Yarim
          - Yarīm
          - Yerim
        ascii_name: Yarim
        geonamesid: 69559
        latitude: 14.29804
        longitude: 44.37795
        name: Yarīm
        names_en: ~
        names_es: ~
        population: 33050
        timezone: Asia/Aden
      - 
        alternate_names: ~
        ascii_name: Ibb
        geonamesid: 74477
        latitude: 13.96667
        longitude: 44.18333
        name: Ibb
        names_en: ~
        names_es: ~
        population: 234837
        timezone: Asia/Aden
      - 
        alternate_names: 
          - "Dhi Sifal"
          - "Dhi Sufal"
          - "Dhi as Sufal"
          - "Dhi es-Sifal"
        ascii_name: "Dhi Sufal"
        geonamesid: 76154
        latitude: 13.83446
        longitude: 44.11469
        name: "Dhī Sufāl"
        names_en: ~
        names_es: ~
        population: 37997
        timezone: Asia/Aden
    geonamesid: 6201196
    name: Ibb
    names_en: ~
    names_es: ~
  - 
    ascii_name: "Muhafazat Lahij"
    cities: 
      - 
        alternate_names: 
          - "Al Hawtah"
          - "Al Ḩawţah"
          - Lahaj
          - Lahej
        ascii_name: Lahij
        geonamesid: 73560
        latitude: 13.05667
        longitude: 44.88194
        name: Laḩij
        names_en: ~
        names_es: ~
        population: 23375
        timezone: Asia/Aden
    geonamesid: 6201197
    name: Laḩij
    names_en: ~
    names_es: ~
  - 
    ascii_name: "Amanat Al Asimah"
    cities: 
      - 
        alternate_names: 
          - San"o
          - San'a
          - San'a'
          - San'ah
        ascii_name: Sanaa
        geonamesid: 71137
        latitude: 15.35472
        longitude: 44.20667
        name: Sanaa
        names_en: 
          - Sanaa
        names_es: 
          - Saná
        population: 1937451
        timezone: Asia/Aden
    geonamesid: 6940571
    name: "Amanat Al Asimah"
    names_en: ~
    names_es: ~
