--- 
geonamesid: 878675
iso: ZW
name: Zimbabwe
names_en: 
  - Zimbabwe
  - "Southern Rhodesia"
names_es: 
  - Zimbawe
  - Zimbabue
regions: 
  - 
    ascii_name: "Midlands Province"
    cities: 
      - 
        alternate_names: 
          - Churugwi
          - Salukwe
          - Selukwe
          - Shurugwi
        ascii_name: Shurugwi
        geonamesid: 881164
        latitude: -19.67016
        longitude: 30.00589
        name: Shurugwi
        names_en: ~
        names_es: ~
        population: 17075
        timezone: Africa/Harare
      - 
        alternate_names: 
          - Muvumi
          - Mvuma
          - Umvuma
        ascii_name: Mvuma
        geonamesid: 884814
        latitude: -19.27924
        longitude: 30.52828
        name: Mvuma
        names_en: ~
        names_es: ~
        population: 4331
        timezone: Africa/Harare
      - 
        alternate_names: 
          - Lalapansi
          - Lalapanzi
        ascii_name: Lalapanzi
        geonamesid: 888667
        latitude: -19.33225
        longitude: 30.17768
        name: Lalapanzi
        names_en: ~
        names_es: ~
        population: 1390
        timezone: Africa/Harare
      - 
        alternate_names: 
          - "Hwe Hwe"
          - Kwekwe
          - "Que Que"
        ascii_name: Kwekwe
        geonamesid: 888710
        latitude: -18.9281
        longitude: 29.81486
        name: Kwekwe
        names_en: ~
        names_es: ~
        population: 99149
        timezone: Africa/Harare
      - 
        alternate_names: 
          - Gveru
          - Gwelo
          - Gweru
          - Гверу
        ascii_name: Gweru
        geonamesid: 890422
        latitude: -19.45
        longitude: 29.81667
        name: Gweru
        names_en: 
          - Gweru
        names_es: ~
        population: 146073
        timezone: Africa/Harare
      - 
        alternate_names: ~
        ascii_name: Gokwe
        geonamesid: 890983
        latitude: -18.20476
        longitude: 28.9349
        name: Gokwe
        names_en: ~
        names_es: ~
        population: 18942
        timezone: Africa/Harare
    geonamesid: 886119
    name: Midlands
    names_en: ~
    names_es: ~
  - 
    ascii_name: "Matabeleland South Province"
    cities: 
      - 
        alternate_names: 
          - Jawunda
        ascii_name: Gwanda
        geonamesid: 890516
        latitude: -20.93333
        longitude: 29.0
        name: Gwanda
        names_en: ~
        names_es: ~
        population: 14450
        timezone: Africa/Harare
      - 
        alternate_names: 
          - Emfelabuso
          - Filabusi
        ascii_name: Filabusi
        geonamesid: 891515
        latitude: -20.53333
        longitude: 29.28502
        name: Filabusi
        names_en: 
          - Filabusi
        names_es: ~
        population: 1756
        timezone: Africa/Harare
      - 
        alternate_names: 
          - Esigodini
          - Essexvale
        ascii_name: Esigodini
        geonamesid: 891699
        latitude: -20.28979
        longitude: 28.92261
        name: Esigodini
        names_en: ~
        names_es: ~
        population: 2228
        timezone: Africa/Harare
    geonamesid: 886747
    name: "Matabeleland South"
    names_en: ~
    names_es: ~
  - 
    ascii_name: "Matabeleland North Province"
    cities: 
      - 
        alternate_names: 
          - "Victoria Falls"
        ascii_name: "Victoria Falls"
        geonamesid: 879431
        latitude: -17.92353
        longitude: 25.84299
        name: "Victoria Falls"
        names_en: ~
        names_es: ~
        population: 35761
        timezone: Africa/Harare
      - 
        alternate_names: 
          - Lupane
          - Lupani
        ascii_name: Lupane
        geonamesid: 888225
        latitude: -18.93149
        longitude: 27.80696
        name: Lupane
        names_en: 
          - Lupane
        names_es: ~
        population: 1200
        timezone: Africa/Harare
      - 
        alternate_names: 
          - Kamativi
          - "Kamativi Mine"
          - Kamitivi
        ascii_name: "Kamativi Mine"
        geonamesid: 889390
        latitude: -18.31563
        longitude: 27.05728
        name: "Kamativi Mine"
        names_en: 
          - "Kamativi Mine"
          - Kamativi
        names_es: ~
        population: 1575
        timezone: Africa/Harare
      - 
        alternate_names: 
          - Inyathi
          - Inyati
        ascii_name: Inyathi
        geonamesid: 889723
        latitude: -19.67563
        longitude: 28.84687
        name: Inyathi
        names_en: 
          - Inyathi
          - Inyati
        names_es: ~
        population: 8402
        timezone: Africa/Harare
      - 
        alternate_names: 
          - Binga
        ascii_name: Binga
        geonamesid: 895057
        latitude: -17.62028
        longitude: 27.34139
        name: Binga
        names_en: 
          - Binga
        names_es: ~
        population: 4327
        timezone: Africa/Harare
    geonamesid: 886748
    name: "Matabeleland North"
    names_en: ~
    names_es: ~
  - 
    ascii_name: "Masvingo Province"
    cities: 
      - 
        alternate_names: 
          - Shabani
          - Shavani
          - Zvishavane
        ascii_name: Zvishavane
        geonamesid: 878549
        latitude: -20.32674
        longitude: 30.06648
        name: Zvishavane
        names_en: 
          - Zvishavane
        names_es: ~
        population: 35896
        timezone: Africa/Harare
      - 
        alternate_names: 
          - "Fort Victoria"
          - Mashvingo
          - Masvingo
          - Nyanda
        ascii_name: Masvingo
        geonamesid: 886763
        latitude: -20.06373
        longitude: 30.82766
        name: Masvingo
        names_en: 
          - Masvingo
        names_es: ~
        population: 76290
        timezone: Africa/Harare
      - 
        alternate_names: 
          - Mashaba
          - Mashava
        ascii_name: Mashava
        geonamesid: 886864
        latitude: -20.03665
        longitude: 30.48225
        name: Mashava
        names_en: ~
        names_es: ~
        population: 12994
        timezone: Africa/Harare
    geonamesid: 886761
    name: Masvingo
    names_en: ~
    names_es: ~
  - 
    ascii_name: "Mashonaland West Province"
    cities: 
      - 
        alternate_names: 
          - Mangula
          - Mhangura
        ascii_name: Mhangura
        geonamesid: 886146
        latitude: -16.89386
        longitude: 30.16828
        name: Mhangura
        names_en: 
          - Mhangura
        names_es: ~
        population: 6503
        timezone: Africa/Harare
      - 
        alternate_names: 
          - Karoi
          - Karoyi
        ascii_name: Karoi
        geonamesid: 889191
        latitude: -16.80993
        longitude: 29.69247
        name: Karoi
        names_en: 
          - Karoi
        names_es: ~
        population: 25030
        timezone: Africa/Harare
      - 
        alternate_names: 
          - Kariba
          - Кариба
        ascii_name: Kariba
        geonamesid: 889215
        latitude: -16.51667
        longitude: 28.8
        name: Kariba
        names_en: ~
        names_es: ~
        population: 25531
        timezone: Africa/Harare
      - 
        alternate_names: 
          - Gatooma
          - Kadoma
          - Kadome
          - Katoma
        ascii_name: Kadoma
        geonamesid: 889453
        latitude: -18.33328
        longitude: 29.91534
        name: Kadoma
        names_en: ~
        names_es: ~
        population: 79174
        timezone: Africa/Harare
      - 
        alternate_names: 
          - Chinhoyi
          - Chinoyi
          - Sinoia
        ascii_name: Chinhoyi
        geonamesid: 893697
        latitude: -17.36667
        longitude: 30.2
        name: Chinhoyi
        names_en: ~
        names_es: ~
        population: 61739
        timezone: Africa/Harare
      - 
        alternate_names: 
          - Cheguto
          - Chegutu
          - Hartley
          - "New Hartley"
        ascii_name: Chegutu
        geonamesid: 894239
        latitude: -18.13021
        longitude: 30.14074
        name: Chegutu
        names_en: ~
        names_es: ~
        population: 47294
        timezone: Africa/Harare
      - 
        alternate_names: 
          - Chakari
          - Shagari
        ascii_name: Chakari
        geonamesid: 894413
        latitude: -18.06294
        longitude: 29.89246
        name: Chakari
        names_en: ~
        names_es: ~
        population: 6472
        timezone: Africa/Harare
    geonamesid: 886841
    name: "Mashonaland West Province"
    names_en: 
      - "Mashonaland West Province"
    names_es: ~
  - 
    ascii_name: "Mashonaland East Province"
    cities: 
      - 
        alternate_names: 
          - Mtoko
          - Mutoko
        ascii_name: Mutoko
        geonamesid: 884927
        latitude: -17.39699
        longitude: 32.22677
        name: Mutoko
        names_en: ~
        names_es: ~
        population: 9532
        timezone: Africa/Harare
      - 
        alternate_names: 
          - Mrewa
          - Murehwa
          - Murewa
        ascii_name: Murehwa
        geonamesid: 885159
        latitude: -17.64322
        longitude: 31.784
        name: Murehwa
        names_en: 
          - Murewa
        names_es: ~
        population: 8559
        timezone: Africa/Harare
      - 
        alternate_names: 
          - Marandellas
          - Marondera
        ascii_name: Marondera
        geonamesid: 886990
        latitude: -18.18527
        longitude: 31.55193
        name: Marondera
        names_en: ~
        names_es: ~
        population: 57082
        timezone: Africa/Harare
      - 
        alternate_names: 
          - Macheke
          - Mucheki
        ascii_name: Macheke
        geonamesid: 888089
        latitude: -18.13901
        longitude: 31.84933
        name: Macheke
        names_en: ~
        names_es: ~
        population: 3642
        timezone: Africa/Harare
      - 
        alternate_names: 
          - Chivhu
          - Enkeldoorn
        ascii_name: Chivhu
        geonamesid: 893172
        latitude: -19.02112
        longitude: 30.89218
        name: Chivhu
        names_en: ~
        names_es: ~
        population: 10369
        timezone: Africa/Harare
      - 
        alternate_names: ~
        ascii_name: Beatrice
        geonamesid: 895308
        latitude: -18.25283
        longitude: 30.8473
        name: Beatrice
        names_en: ~
        names_es: ~
        population: 1647
        timezone: Africa/Harare
    geonamesid: 886842
    name: "Mashonaland East"
    names_en: ~
    names_es: ~
  - 
    ascii_name: "Mashonaland Central Province"
    cities: 
      - 
        alternate_names: 
          - Shamva
          - Tsambvi
          - Tsamvi
        ascii_name: Shamva
        geonamesid: 881345
        latitude: -17.31159
        longitude: 31.57561
        name: Shamva
        names_en: 
          - Shamva
        names_es: ~
        population: 10317
        timezone: Africa/Harare
      - 
        alternate_names: 
          - Darwin
          - Fura
          - "Mount Darwin"
          - "Mount Fura"
        ascii_name: "Mount Darwin"
        geonamesid: 885800
        latitude: -16.77251
        longitude: 31.58381
        name: "Mount Darwin"
        names_en: 
          - "Mount Darwin"
        names_es: ~
        population: 6349
        timezone: Africa/Harare
      - 
        alternate_names: 
          - Mazoe
          - Mazowe
        ascii_name: Mazoe
        geonamesid: 886384
        latitude: -17.50404
        longitude: 30.97388
        name: Mazoe
        names_en: 
          - Mazowe
        names_es: ~
        population: 9966
        timezone: Africa/Harare
      - 
        alternate_names: 
          - Glendale
        ascii_name: Glendale
        geonamesid: 891099
        latitude: -17.35514
        longitude: 31.06718
        name: Glendale
        names_en: 
          - Glendale
        names_es: ~
        population: 9768
        timezone: Africa/Harare
      - 
        alternate_names: 
          - Centenary
        ascii_name: Centenary
        geonamesid: 894460
        latitude: -16.72289
        longitude: 31.11462
        name: Centenary
        names_en: 
          - Centenary
        names_es: ~
        population: 3388
        timezone: Africa/Harare
      - 
        alternate_names: 
          - Bindura
          - "Bindura Town"
          - "Kimberley Reefs"
          - Биндура
        ascii_name: Bindura
        geonamesid: 895061
        latitude: -17.30192
        longitude: 31.33056
        name: Bindura
        names_en: 
          - Bindura
        names_es: ~
        population: 37423
        timezone: Africa/Harare
    geonamesid: 886843
    name: "Mashonaland Central Province"
    names_en: 
      - "Mashonaland Central Province"
    names_es: ~
  - 
    ascii_name: "Manicaland Province"
    cities: 
      - 
        alternate_names: 
          - Rusape
          - Rusapi
        ascii_name: Rusape
        geonamesid: 882100
        latitude: -18.52785
        longitude: 32.12843
        name: Rusape
        names_en: ~
        names_es: ~
        population: 29292
        timezone: Africa/Harare
      - 
        alternate_names: 
          - Penhalonga
        ascii_name: Penhalonga
        geonamesid: 882955
        latitude: -18.89112
        longitude: 32.69781
        name: Penhalonga
        names_en: ~
        names_es: ~
        population: 7681
        timezone: Africa/Harare
      - 
        alternate_names: 
          - Odzi
        ascii_name: Odzi
        geonamesid: 883183
        latitude: -18.96167
        longitude: 32.40557
        name: Odzi
        names_en: ~
        names_es: ~
        population: 3438
        timezone: Africa/Harare
      - 
        alternate_names: 
          - Inyazura
          - Nyazura
          - Nyazure
        ascii_name: Nyazura
        geonamesid: 883258
        latitude: -18.70587
        longitude: 32.16796
        name: Nyazura
        names_en: ~
        names_es: ~
        population: 2110
        timezone: Africa/Harare
      - 
        alternate_names: 
          - Mutare
          - Nyautare
          - Umtali
          - Мутаре
        ascii_name: Mutare
        geonamesid: 884979
        latitude: -18.9707
        longitude: 32.67086
        name: Mutare
        names_en: 
          - Mutare
        names_es: ~
        population: 184205
        timezone: Africa/Harare
      - 
        alternate_names: 
          - Headlands
        ascii_name: Headlands
        geonamesid: 890242
        latitude: -18.27733
        longitude: 32.0515
        name: Headlands
        names_en: ~
        names_es: ~
        population: 1728
        timezone: Africa/Harare
      - 
        alternate_names: 
          - Chipinga
          - Chipinge
        ascii_name: Chipinge
        geonamesid: 893549
        latitude: -20.18833
        longitude: 32.62364
        name: Chipinge
        names_en: 
          - Chipinge
        names_es: ~
        population: 18860
        timezone: Africa/Harare
    geonamesid: 887358
    name: Manicaland
    names_en: ~
    names_es: ~
  - 
    ascii_name: "Bulawayo Province"
    cities: 
      - 
        alternate_names: 
          - Bulavajo
          - Bulawayo
          - Булавайо
          - Булавајо
        ascii_name: Bulawayo
        geonamesid: 894701
        latitude: -20.15
        longitude: 28.58333
        name: Bulawayo
        names_en: 
          - Bulawayo
        names_es: 
          - Bulawayo
        population: 699385
        timezone: Africa/Harare
    geonamesid: 1105843
    name: Bulawayo
    names_en: ~
    names_es: ~
  - 
    ascii_name: "Harare Province"
    cities: 
      - 
        alternate_names: 
          - Charare
          - Harare
          - Kharare
          - Salisbury
        ascii_name: Harare
        geonamesid: 890299
        latitude: -17.82935
        longitude: 31.05389
        name: Harare
        names_en: 
          - Harare
        names_es: 
          - Harare
        population: 1542813
        timezone: Africa/Harare
      - 
        alternate_names: 
          - Chitungwiza
        ascii_name: Chitungwiza
        geonamesid: 1106542
        latitude: -18.01274
        longitude: 31.07555
        name: Chitungwiza
        names_en: 
          - Chitungwiza
        names_es: 
          - Chitungwiza
        population: 340360
        timezone: Africa/Harare
    geonamesid: 1105844
    name: "Harare Province"
    names_en: 
      - "Harare Province"
    names_es: ~
